1521977963524,$GPGSV,3,1,12,15,50,281,16,17,62,081,19,19,63,137,16,28,26,046,13*77
1521977963525,$GPGSV,3,2,12,30,17,102,24,01,00,000,,05,01,203,,06,08,142,*76
1521977963526,$GPGSV,3,3,12,12,14,253,,13,69,210,,20,03,262,,24,22,309,*7D
1521977963526,$GLGSV,3,1,10,10,11,077,15,22,33,153,15,11,45,026,14,21,45,075,16*67
1521977963527,$GLGSV,3,2,10,02,29,291,,12,34,322,,01,25,223,,20,11,028,*6C
1521977963527,$GLGSV,3,3,10,03,02,336,,08,00,000,*6B
1521977963529,$GPGSA,A,3,15,17,19,28,30,,,,,,,,1.5,1.2,0.9*3F
1521977963530,$GPVTG,30.0,T,30.0,M,3.1,N,5.8,K,D*29
1521977963532,$GPRMC,113924.00,A,3109.839618,N,03432.054065,E,3.1,30.0,250318,2.8,E,D*08
1521977963532,$GPGGA,113924.00,3109.839618,N,03432.054065,E,2,05,1.2,171.0,M,17.0,M,,*66
1521977964520,$GPGSV,3,1,12,15,50,281,16,17,62,081,21,19,63,137,16,28,26,046,13*7C
1521977964521,$GPGSV,3,2,12,30,17,102,23,01,00,000,,05,01,203,,06,08,142,*71
1521977964522,$GPGSV,3,3,12,12,14,253,,13,69,210,,20,03,262,,24,22,309,*7D
1521977964524,$GLGSV,3,1,10,10,11,077,15,22,33,153,15,11,45,026,14,21,45,075,16*67
1521977964525,$GLGSV,3,2,10,02,29,291,,12,34,322,,01,25,223,,20,11,028,*6C
1521977964525,$GLGSV,3,3,10,03,02,336,,08,00,000,*6B
1521977964527,$GPGSA,A,3,15,17,19,28,30,,,,,,,,1.5,1.2,0.9*3F
1521977964527,$GPVTG,30.4,T,30.4,M,0.6,N,1.2,K,D*23
1521977964528,$GPRMC,113925.00,A,3109.839646,N,03432.055279,E,0.6,30.4,250318,2.8,E,D*0C
1521977964528,$GPGGA,113925.00,3109.839646,N,03432.055279,E,2,05,1.2,169.0,M,17.0,M,,*6B
1521977965520,$GPGSV,3,1,12,15,50,281,16,17,62,081,21,19,63,137,17,28,26,046,13*7D
1521977965522,$GPGSV,3,2,12,30,17,102,23,01,00,000,,05,01,203,,06,08,142,*71
1521977965522,$GPGSV,3,3,12,12,14,253,,13,69,210,,20,03,262,,24,22,309,*7D
1521977965522,$GLGSV,3,1,10,10,11,077,15,22,33,153,15,11,45,026,14,21,45,075,16*67
1521977965523,$GLGSV,3,2,10,02,29,291,,12,34,322,,01,25,223,,20,11,028,*6C
1521977965524,$GLGSV,3,3,10,03,02,336,,08,00,000,*6B
1521977965526,$GPGSA,A,3,15,17,19,28,30,,,,,,,,1.5,1.2,0.9*3F
1521977965527,$GPVTG,30.4,T,30.4,M,1.3,N,2.5,K,D*23
1521977965527,$GPRMC,113926.00,A,3109.840677,N,03432.056056,E,1.3,30.4,250318,2.8,E,D*0B
1521977965528,$GPGGA,113926.00,3109.840677,N,03432.056056,E,2,05,1.2,169.0,M,17.0,M,,*68
1521977966531,$GPGSV,3,1,12,15,50,281,19,17,62,081,21,19,63,137,17,28,26,046,13*72
1521977966533,$GPGSV,3,2,12,30,17,102,23,01,00,000,,05,01,203,,06,08,142,*71
1521977966534,$GPGSV,3,3,12,12,14,253,,13,69,210,,20,03,262,,24,22,309,*7D
1521977966534,$GLGSV,3,1,10,10,11,077,15,22,33,153,15,11,45,026,14,21,45,075,16*67
1521977966535,$GLGSV,3,2,10,02,29,291,,12,34,322,,01,25,223,,20,11,028,*6C
1521977966536,$GLGSV,3,3,10,03,02,336,,08,00,000,*6B
1521977966537,$GPGSA,A,3,15,17,19,28,30,,,,,,,,1.5,1.2,0.9*3F
1521977966538,$GPVTG,31.2,T,31.2,M,1.4,N,2.5,K,D*24
1521977966538,$GPRMC,113927.00,A,3109.841421,N,03432.057309,E,1.4,31.2,250318,2.8,E,D*02
1521977966539,$GPGGA,113927.00,3109.841421,N,03432.057309,E,2,05,1.2,171.0,M,17.0,M,,*68
1521977967528,$GPGSV,3,1,12,15,50,281,20,17,62,081,17,19,63,137,17,28,26,046,13*7D
1521977967529,$GPGSV,3,2,12,30,17,102,22,01,00,000,,05,01,203,,06,08,142,*70
1521977967532,$GPGSV,3,3,12,12,14,253,,13,69,210,,20,03,262,,24,22,309,*7D
1521977967533,$GLGSV,3,1,09,22,33,153,15,11,45,026,14,21,45,075,16,02,29,291,*69
1521977967537,$GLGSV,3,2,09,12,34,322,,01,25,223,,20,11,028,,03,02,336,*60
1521977967537,$GLGSV,3,3,09,08,00,000,*54
1521977967539,$GPGSA,A,3,15,17,19,28,30,,,,,,,,1.5,1.2,0.9*3F
1521977967539,$GPVTG,29.9,T,29.9,M,1.7,N,3.2,K,D*21
1521977967540,$GPRMC,113928.00,A,3109.841576,N,03432.056787,E,1.7,29.9,250318,2.8,E,D*0C
1521977967540,$GPGGA,113928.00,3109.841576,N,03432.056787,E,2,05,1.2,169.0,M,17.0,M,,*6E
1521977968525,$GPGSV,3,1,12,15,50,281,19,17,62,081,17,19,63,137,17,28,26,046,13*77
1521977968525,$GPGSV,3,2,12,30,17,102,18,01,00,000,,05,01,203,,06,08,142,*79
1521977968526,$GPGSV,3,3,12,12,14,253,,13,69,210,,20,03,262,,24,22,309,*7D
1521977968527,$GLGSV,3,1,10,22,33,153,15,11,45,026,14,21,45,075,16,10,11,077,*63
1521977968527,$GLGSV,3,2,10,02,29,291,,12,34,322,,01,25,223,,20,11,028,*6C
1521977968527,$GLGSV,3,3,10,03,02,336,,08,00,000,*6B
1521977968530,$GPGSA,A,3,15,17,19,28,30,,,,,,,,1.5,1.2,0.9*3F
1521977968530,$GPVTG,29.8,T,29.8,M,0.3,N,0.6,K,D*23
1521977968530,$GPRMC,113929.00,A,3109.841702,N,03432.056366,E,0.3,29.8,250318,2.8,E,D*03
1521977968532,$GPGGA,113929.00,3109.841702,N,03432.056366,E,2,05,1.2,169.0,M,17.0,M,,*65
1521977969517,$GPGSV,3,1,12,15,50,281,19,17,62,081,17,19,63,137,17,28,26,046,13*77
1521977969518,$GPGSV,3,2,12,30,17,102,18,01,00,000,,05,01,203,,06,08,142,*79
1521977969519,$GPGSV,3,3,12,12,14,253,,13,69,210,,20,03,262,,24,22,309,*7D
1521977969521,$GLGSV,3,1,10,22,33,153,15,11,45,026,14,21,45,075,16,10,11,077,*63
1521977969522,$GLGSV,3,2,10,02,29,291,,12,34,322,,01,25,223,,20,11,028,*6C
1521977969522,$GLGSV,3,3,10,03,02,336,,08,00,000,*6B
1521977969525,$GPGSA,A,3,15,17,19,28,30,,,,,,,,1.9,1.7,0.9*36
1521977969526,$GPVTG,,T,,M,0.0,N,0.0,K,D*26
1521977969527,$GPRMC,113930.00,A,3109.841696,N,03432.055928,E,0.0,,250318,2.8,E,D*1A
1521977969527,$GPGGA,113930.00,3109.841696,N,03432.055928,E,2,05,1.7,169.0,M,17.0,M,,*67
1521977970515,$GPGSV,3,1,12,15,50,281,19,17,62,081,17,19,63,137,16,28,26,046,13*76
1521977970516,$GPGSV,3,2,12,30,17,102,18,01,00,000,,05,01,203,,06,08,142,*79
1521977970517,$GPGSV,3,3,12,12,14,253,,13,69,210,,20,03,262,,24,22,309,*7D
1521977970517,$GLGSV,3,1,10,22,33,153,15,11,45,026,14,21,45,075,16,10,11,077,*63
1521977970518,$GLGSV,3,2,10,02,29,291,,12,34,322,,01,25,223,,20,11,028,*6C
1521977970520,$GLGSV,3,3,10,03,02,336,,08,00,000,*6B
1521977970522,$GPGSA,A,3,15,17,19,28,30,,,,,,,,2.2,2.0,0.9*3A
1521977970522,$GPVTG,30.2,T,30.2,M,0.4,N,0.7,K,D*25
1521977970523,$GPRMC,113931.00,A,3109.841669,N,03432.055550,E,0.4,30.2,250318,2.8,E,D*03
1521977970523,$GPGGA,113931.00,3109.841669,N,03432.055550,E,2,05,2.0,170.0,M,17.0,M,,*69
1521977971519,$GPGSV,3,1,12,15,50,281,19,17,62,081,17,19,63,137,16,30,17,102,18*77
1521977971520,$GPGSV,3,2,12,01,00,000,,05,01,203,,06,08,142,,12,14,253,*74
1521977971520,$GPGSV,3,3,12,13,69,210,,20,03,262,,24,22,309,,28,26,046,*73
1521977971521,$GLGSV,3,1,10,22,33,153,15,11,45,026,14,21,45,075,16,10,11,077,*63
1521977971521,$GLGSV,3,2,10,02,29,291,,12,34,322,,01,25,223,,20,11,028,*6C
1521977971522,$GLGSV,3,3,10,03,02,336,,08,00,000,*6B
1521977971523,$GPGSA,A,3,15,17,19,30,,,,,,,,,2.3,2.1,0.9*30
1521977971523,$GPVTG,30.2,T,30.2,M,0.4,N,0.8,K,D*2A
1521977971524,$GPRMC,113932.00,A,3109.841630,N,03432.055235,E,0.4,30.2,250318,2.8,E,D*08
1521977971525,$GPGGA,113932.00,3109.841630,N,03432.055235,E,2,04,2.1,170.0,M,17.0,M,,*62
1521977972514,$GPGSV,3,1,12,15,50,281,19,17,62,081,19,19,63,137,16,30,17,102,18*79
1521977972514,$GPGSV,3,2,12,01,00,000,,05,01,203,,06,08,142,,12,14,253,*74
1521977972517,$GPGSV,3,3,12,13,69,210,,20,03,262,,24,22,309,,28,26,046,*73
1521977972517,$GLGSV,3,1,10,22,33,153,15,11,45,026,14,21,45,075,16,10,11,077,*63
1521977972518,$GLGSV,3,2,10,02,29,291,,12,34,322,,01,25,223,,20,11,028,*6C
1521977972518,$GLGSV,3,3,10,03,02,336,,08,00,000,*6B
1521977972520,$GPGSA,A,3,15,17,19,30,,,,,,,,,2.3,2.1,0.9*30
1521977972520,$GPVTG,33.3,T,33.3,M,0.5,N,0.9,K,D*2A
1521977972520,$GPRMC,113933.00,A,3109.841610,N,03432.055050,E,0.5,33.3,250318,2.8,E,D*09
1521977972521,$GPGGA,113933.00,3109.841610,N,03432.055050,E,2,04,2.1,170.0,M,17.0,M,,*60
1521977973517,$GPGSV,3,1,12,15,50,281,19,17,62,081,19,19,63,137,16,24,22,309,13*78
1521977973518,$GPGSV,3,2,12,30,17,102,15,01,00,000,,05,01,203,,06,08,142,*74
1521977973519,$GPGSV,3,3,12,12,14,253,,13,69,210,,20,03,262,,28,26,046,*7D
1521977973520,$GLGSV,3,1,10,22,33,153,15,11,45,026,14,21,45,075,16,10,11,077,*63
1521977973521,$GLGSV,3,2,10,02,29,291,,12,34,322,,01,25,223,,20,11,028,*6C
1521977973521,$GLGSV,3,3,10,03,02,336,,08,00,000,*6B
1521977973522,$GPGSA,A,3,15,17,19,24,30,,,,,,,,2.0,1.8,0.9*3F
1521977973523,$GPVTG,35.1,T,35.1,M,0.5,N,0.9,K,D*2A
1521977973523,$GPRMC,113934.00,A,3109.841588,N,03432.054944,E,0.5,35.1,250318,2.8,E,D*05
1521977973524,$GPGGA,113934.00,3109.841588,N,03432.054944,E,2,05,1.8,170.0,M,17.0,M,,*63
1521977974521,$GPGSV,3,1,12,15,50,281,19,17,62,081,19,19,63,137,16,24,22,309,13*78
1521977974522,$GPGSV,3,2,12,30,17,102,15,01,00,000,,05,01,203,,06,08,142,*74
1521977974523,$GPGSV,3,3,12,12,14,253,,13,69,210,,20,03,262,,28,26,046,*7D
1521977974524,$GLGSV,3,1,10,22,33,153,15,11,45,026,14,21,45,075,16,10,11,077,*63
1521977974524,$GLGSV,3,2,10,02,29,291,,12,34,322,,01,25,223,,20,11,028,*6C
1521977974525,$GLGSV,3,3,10,03,02,336,,08,00,000,*6B
1521977974527,$GPGSA,A,3,15,17,19,24,30,,,,,,,,1.9,1.7,0.9*3A
1521977974529,$GPVTG,35.0,T,35.0,M,0.7,N,1.3,K,D*23
1521977974530,$GPRMC,113935.00,A,3109.842178,N,03432.054860,E,0.7,35.0,250318,2.8,E,D*08
1521977974531,$GPGGA,113935.00,3109.842178,N,03432.054860,E,2,05,1.7,169.0,M,17.0,M,,*6A
1521977975526,$GPGSV,3,1,12,15,50,281,14,17,62,081,19,19,63,137,16,24,22,309,13*75
1521977975526,$GPGSV,3,2,12,30,17,102,15,01,00,000,,05,01,203,,06,08,142,*74
1521977975527,$GPGSV,3,3,12,12,14,253,,13,69,210,,20,03,262,,28,26,046,*7D
1521977975528,$GLGSV,3,1,10,22,33,153,15,11,45,026,14,21,45,075,16,10,11,077,*63
1521977975528,$GLGSV,3,2,10,02,29,291,,12,34,322,,01,25,223,,20,11,028,*6C
1521977975529,$GLGSV,3,3,10,03,02,336,,08,00,000,*6B
1521977975531,$GPGSA,A,3,15,17,19,24,30,,,,,,,,1.7,1.5,0.9*36
1521977975531,$GPVTG,35.0,T,35.0,M,0.4,N,0.7,K,D*25
1521977975533,$GPRMC,113936.00,A,3109.842458,N,03432.054677,E,0.4,35.0,250318,2.8,E,D*07
1521977975533,$GPGGA,113936.00,3109.842458,N,03432.054677,E,2,05,1.5,168.0,M,17.0,M,,*65
1521977976521,$GPGSV,3,1,12,15,50,281,14,17,62,081,15,19,63,137,15,24,22,309,13*7A
1521977976524,$GPGSV,3,2,12,30,17,102,15,01,00,000,,05,01,203,,06,08,142,*74
1521977976525,$GPGSV,3,3,12,12,14,253,,13,69,210,,20,03,262,,28,26,046,*7D
1521977976526,$GLGSV,3,1,10,22,33,153,15,11,45,026,14,21,45,075,16,10,11,077,*63
1521977976527,$GLGSV,3,2,10,02,29,291,,12,34,322,,01,25,223,,20,11,028,*6C
1521977976528,$GLGSV,3,3,10,03,02,336,,08,00,000,*6B
1521977976533,$GPGSA,A,3,15,17,19,24,30,,,,,,,,1.7,1.5,0.9*36
1521977976537,$GPVTG,,T,,M,0.0,N,0.0,K,D*26
1521977976543,$GPRMC,113937.00,A,3109.842405,N,03432.054524,E,0.0,,250318,2.8,E,D*17
1521977976543,$GPGGA,113937.00,3109.842405,N,03432.054524,E,2,05,1.5,167.0,M,17.0,M,,*66
1521977977532,$GPGSV,3,1,12,15,50,281,16,17,62,081,15,19,63,137,15,24,22,309,13*78
1521977977532,$GPGSV,3,2,12,30,17,102,15,01,00,000,,05,01,203,,06,08,142,*74
1521977977533,$GPGSV,3,3,12,12,14,253,,13,69,210,,20,03,262,,28,26,046,*7D
1521977977536,$GLGSV,3,1,10,22,33,153,15,11,45,026,14,21,45,075,16,10,11,077,*63
1521977977536,$GLGSV,3,2,10,02,29,291,,12,34,322,,01,25,223,,20,11,028,*6C
1521977977537,$GLGSV,3,3,10,03,02,336,,08,00,000,*6B
1521977977537,$GPGSA,A,3,15,17,19,24,30,,,,,,,,1.7,1.5,0.9*36
1521977977538,$GPVTG,35.1,T,35.1,M,1.4,N,2.7,K,D*26
1521977977538,$GPRMC,113938.00,A,3109.842380,N,03432.055193,E,1.4,35.1,250318,2.8,E,D*07
1521977977539,$GPGGA,113938.00,3109.842380,N,03432.055193,E,2,05,1.5,167.0,M,17.0,M,,*6A
1521977978411,$GPGSV,3,1,12,15,50,281,16,17,62,081,15,19,63,137,15,24,22,309,13*78
1521977978413,$GPGSV,3,2,12,30,17,102,15,01,00,000,,05,01,203,,06,08,142,*74
1521977978413,$GPGSV,3,3,12,12,14,253,,13,69,210,,20,03,262,,28,26,046,*7D
1521977978414,$GLGSV,3,1,10,22,33,153,15,11,45,026,14,21,45,075,16,10,11,077,*63
1521977978414,$GLGSV,3,2,10,02,29,291,,12,34,322,,01,25,223,,20,11,028,*6C
1521977978414,$GLGSV,3,3,10,03,02,336,,08,00,000,*6B
1521977978416,$GPGSA,A,3,15,17,19,24,30,,,,,,,,1.7,1.5,0.9*36
1521977978417,$GPVTG,35.1,T,35.1,M,1.6,N,3.0,K,D*22
1521977978418,$GPRMC,113939.00,A,3109.842462,N,03432.055934,E,1.6,35.1,250318,2.8,E,D*0A
1521977978419,$GPGGA,113939.00,3109.842462,N,03432.055934,E,2,05,1.5,167.0,M,17.0,M,,*65
1521977979401,$GPGSV,3,1,12,15,50,281,16,17,62,081,16,19,63,137,15,24,22,309,13*7B
1521977979404,$GPGSV,3,2,12,30,17,102,15,01,00,000,,05,01,203,,06,08,142,*74
1521977979405,$GPGSV,3,3,12,12,14,253,,13,69,210,,20,03,262,,28,26,046,*7D
1521977979406,$GLGSV,3,1,10,22,33,153,15,11,45,026,14,21,45,075,16,10,11,077,*63
1521977979406,$GLGSV,3,2,10,02,29,291,,12,34,322,,01,25,223,,20,11,028,*6C
1521977979407,$GLGSV,3,3,10,03,02,336,,08,00,000,*6B
1521977979409,$GPGSA,A,3,15,17,19,24,30,,,,,,,,2.0,1.8,0.9*3F
1521977979409,$GPVTG,35.1,T,35.1,M,1.9,N,3.6,K,D*2B
1521977979410,$GPRMC,113940.00,A,3109.842483,N,03432.056726,E,1.9,35.1,250318,2.8,E,D*0A
1521977979411,$GPGGA,113940.00,3109.842483,N,03432.056726,E,2,05,1.8,167.0,M,17.0,M,,*67
1521977980408,$GPGSV,3,1,12,15,50,281,16,17,62,081,16,19,63,137,15,24,22,309,13*7B
1521977980409,$GPGSV,3,2,12,30,17,102,15,01,00,000,,05,01,203,,06,08,142,*74
1521977980410,$GPGSV,3,3,12,12,14,253,,13,69,210,,20,03,262,,28,26,046,*7D
1521977980410,$GLGSV,3,1,10,22,33,153,15,11,45,026,14,21,45,075,16,10,11,077,*63
1521977980411,$GLGSV,3,2,10,02,29,291,,12,34,322,,01,25,223,,20,11,028,*6C
1521977980411,$GLGSV,3,3,10,03,02,336,,08,00,000,*6B
1521977980413,$GPGSA,A,3,15,17,19,24,30,,,,,,,,2.3,2.1,0.9*36
1521977980413,$GPVTG,32.7,T,32.7,M,1.7,N,3.2,K,D*21
1521977980414,$GPRMC,113941.00,A,3109.842408,N,03432.057437,E,1.7,32.7,250318,2.8,E,D*05
1521977980414,$GPGGA,113941.00,3109.842408,N,03432.057437,E,2,05,2.1,167.0,M,17.0,M,,*6D
1521977981408,$GPGSV,3,1,12,15,50,281,14,17,62,081,16,19,63,137,15,24,22,309,13*79
1521977981411,$GPGSV,3,2,12,30,17,102,15,01,00,000,,05,01,203,,06,08,142,*74
1521977981414,$GPGSV,3,3,12,12,14,253,,13,69,210,,20,03,262,,28,26,046,*7D
1521977981419,$GLGSV,3,1,10,22,33,153,15,11,45,026,14,21,45,075,16,10,11,077,*63
1521977981419,$GLGSV,3,2,10,02,29,291,,12,34,322,,01,25,223,,20,11,028,*6C
1521977981420,$GLGSV,3,3,10,03,02,336,,08,00,000,*6B
1521977981424,$GPGSA,A,3,15,17,19,24,30,,,,,,,,1.9,1.7,0.9*3A
1521977981426,$GPVTG,39.4,T,39.4,M,5.3,N,9.9,K,D*20
1521977981428,$GPRMC,113942.00,A,3109.844451,N,03432.057963,E,5.3,39.4,250318,2.8,E,D*08
1521977981430,$GPGGA,113942.00,3109.844451,N,03432.057963,E,2,05,1.7,167.0,M,17.0,M,,*6D
1521977982412,$GPGSV,3,1,12,15,50,281,14,17,62,081,16,19,63,137,15,24,22,309,13*79
1521977982414,$GPGSV,3,2,12,30,17,102,19,01,00,000,,05,01,203,,06,08,142,*78
1521977982416,$GPGSV,3,3,12,12,14,253,,13,69,210,,20,03,262,,28,26,046,*7D
1521977982420,$GLGSV,3,1,09,11,45,026,14,21,45,075,16,10,11,077,,02,29,291,*6B
1521977982420,$GLGSV,3,2,09,12,34,322,,01,25,223,,20,11,028,,03,02,336,*60
1521977982421,$GLGSV,3,3,09,08,00,000,*54
1521977982423,$GPGSA,A,3,15,17,19,24,30,,,,,,,,2.0,1.8,0.9*3F
1521977982424,$GPVTG,39.6,T,39.6,M,2.7,N,5.0,K,D*26
1521977982425,$GPRMC,113943.00,A,3109.845629,N,03432.058731,E,2.7,39.6,250318,2.8,E,D*02
1521977982427,$GPGGA,113943.00,3109.845629,N,03432.058731,E,2,05,1.8,167.0,M,17.0,M,,*69
1521977983414,$GPGSV,3,1,12,15,50,281,14,17,62,081,16,19,63,137,15,24,22,309,13*79
1521977983415,$GPGSV,3,2,12,30,17,102,19,01,00,000,,05,01,203,,06,08,142,*78
1521977983415,$GPGSV,3,3,12,12,14,253,,13,69,210,,20,03,262,,28,26,046,*7D
1521977983416,$GLGSV,3,1,09,21,45,075,16,10,11,077,,02,29,291,,22,33,153,*6C
1521977983416,$GLGSV,3,2,09,12,34,322,,01,25,223,,20,11,028,,03,02,336,*60
1521977983417,$GLGSV,3,3,09,08,00,000,*54
1521977983420,$GPGSA,A,3,15,17,19,24,30,,,,,,,,2.0,1.8,0.9*3F
1521977983421,$GPVTG,39.4,T,39.4,M,2.6,N,4.8,K,D*2E
1521977983421,$GPRMC,113944.00,A,3109.846226,N,03432.059174,E,2.6,39.4,250318,2.8,E,D*08
1521977983422,$GPGGA,113944.00,3109.846226,N,03432.059174,E,2,05,1.8,166.0,M,17.0,M,,*61
1521977984414,$GPGSV,3,1,12,15,50,281,15,17,62,081,16,19,63,137,15,24,22,309,13*78
1521977984415,$GPGSV,3,2,12,30,17,102,19,01,00,000,,05,01,203,,06,08,142,*78
1521977984417,$GPGSV,3,3,12,12,14,253,,13,69,210,,20,03,262,,28,26,046,*7D
1521977984418,$GLGSV,3,1,10,21,45,075,16,10,11,077,,02,29,291,,22,33,153,*64
1521977984419,$GLGSV,3,2,10,12,34,322,,11,45,026,,01,25,223,,20,11,028,*6A
1521977984420,$GLGSV,3,3,10,03,02,336,,08,00,000,*6B
1521977984422,$GPGSA,A,3,15,17,19,24,30,,,,,,,,2.0,1.8,0.9*3F
1521977984423,$GPVTG,39.4,T,39.4,M,2.5,N,4.6,K,D*23
1521977984424,$GPRMC,113945.00,A,3109.846728,N,03432.059455,E,2.5,39.4,250318,2.8,E,D*07
1521977984425,$GPGGA,113945.00,3109.846728,N,03432.059455,E,2,05,1.8,166.0,M,17.0,M,,*6D
1521977985408,$GPGSV,3,1,12,15,50,281,15,17,62,081,16,19,63,137,13,24,22,309,13*7E
1521977985409,$GPGSV,3,2,12,30,17,102,19,01,00,000,,05,01,203,,06,08,142,*78
1521977985411,$GPGSV,3,3,12,12,14,253,,13,69,210,,20,03,262,,28,26,046,*7D
1521977985412,$GLGSV,3,1,10,21,45,075,16,10,11,077,,02,29,291,,22,33,153,*64
1521977985413,$GLGSV,3,2,10,12,34,322,,11,45,026,,01,25,223,,20,11,028,*6A
1521977985413,$GLGSV,3,3,10,03,02,336,,08,00,000,*6B
1521977985415,$GPGSA,A,3,15,17,19,24,30,,,,,,,,1.9,1.7,0.9*3A
1521977985415,$GPVTG,39.4,T,39.4,M,2.3,N,4.3,K,D*20
1521977985416,$GPRMC,113946.00,A,3109.846936,N,03432.059726,E,2.3,39.4,250318,2.8,E,D*04
1521977985416,$GPGGA,113946.00,3109.846936,N,03432.059726,E,2,05,1.7,166.0,M,17.0,M,,*67
1521977986418,$GPGSV,3,1,12,15,50,281,16,17,62,081,16,19,63,137,13,24,22,309,13*7D
1521977986419,$GPGSV,3,2,12,30,17,102,19,01,00,000,,05,01,203,,06,08,142,*78
1521977986419,$GPGSV,3,3,12,12,14,253,,13,69,210,,20,03,262,,28,26,046,*7D
1521977986420,$GLGSV,3,1,10,10,11,077,13,21,45,075,16,02,29,291,,22,33,153,*66
1521977986420,$GLGSV,3,2,10,12,34,322,,11,45,026,,01,25,223,,20,11,028,*6A
1521977986421,$GLGSV,3,3,10,03,02,336,,08,00,000,*6B
1521977986426,$GPGSA,A,3,15,17,19,24,30,,,,,,,,1.8,1.6,0.9*3A
1521977986428,$GPVTG,39.3,T,39.3,M,1.7,N,3.1,K,D*22
1521977986428,$GPRMC,113947.00,A,3109.847130,N,03432.058590,E,1.7,39.3,250318,2.8,E,D*04
1521977986429,$GPGGA,113947.00,3109.847130,N,03432.058590,E,2,05,1.6,165.0,M,17.0,M,,*65
1521977987420,$GPGSV,3,1,12,15,50,281,16,17,62,081,18,19,63,137,13,24,22,309,13*73
1521977987422,$GPGSV,3,2,12,30,17,102,14,01,00,000,,05,01,203,,06,08,142,*75
1521977987423,$GPGSV,3,3,12,12,14,253,,13,69,210,,20,03,262,,28,26,046,*7D
1521977987424,$GLGSV,3,1,10,10,11,077,13,21,45,075,16,02,29,291,,22,33,153,*66
1521977987427,$GLGSV,3,2,10,12,34,322,,11,45,026,,01,25,223,,20,11,028,*6A
1521977987428,$GLGSV,3,3,10,03,02,336,,08,00,000,*6B
1521977987430,$GPGSA,A,3,15,17,19,24,30,,,,,,,,1.8,1.6,0.9*3A
1521977987431,$GPVTG,39.2,T,39.2,M,1.2,N,2.3,K,D*24
1521977987432,$GPRMC,113948.00,A,3109.847057,N,03432.057806,E,1.2,39.2,250318,2.8,E,D*02
1521977987432,$GPGGA,113948.00,3109.847057,N,03432.057806,E,2,05,1.6,163.0,M,17.0,M,,*61
1521977988419,$GPGSV,3,1,12,15,50,279,16,17,62,080,18,19,63,136,16,24,23,309,13*70
1521977988420,$GPGSV,3,2,12,30,16,104,14,01,00,000,,05,01,202,,06,09,142,*72
1521977988421,$GPGSV,3,3,12,12,15,254,,13,68,209,,20,03,262,,28,25,046,*71
1521977988421,$GLGSV,3,1,10,10,11,077,13,21,45,075,16,02,29,291,,22,33,153,*66
1521977988421,$GLGSV,3,2,10,12,34,322,,11,45,026,,01,25,223,,20,11,028,*6A
1521977988422,$GLGSV,3,3,10,03,02,336,,08,00,000,*6B
1521977988423,$GPGSA,A,3,15,17,19,24,30,,,,,,,,2.1,1.9,0.9*3F
1521977988424,$GPVTG,39.2,T,39.2,M,1.5,N,2.8,K,D*28
1521977988424,$GPRMC,113949.00,A,3109.847147,N,03432.057563,E,1.5,39.2,250318,2.8,E,D*0A
1521977988424,$GPGGA,113949.00,3109.847147,N,03432.057563,E,2,05,1.9,162.0,M,17.0,M,,*60
1521977989412,$GPGSV,3,1,12,15,50,279,16,17,62,080,18,19,63,136,16,24,23,309,13*70
1521977989413,$GPGSV,3,2,12,30,16,104,14,01,00,000,,05,01,202,,06,09,142,*72
1521977989414,$GPGSV,3,3,12,12,15,254,,13,68,209,,20,03,262,,28,25,046,*71
1521977989414,$GLGSV,3,1,09,10,11,077,13,02,29,291,,22,33,153,,12,34,322,*6E
1521977989415,$GLGSV,3,2,09,11,45,026,,01,25,223,,20,11,028,,03,02,336,*62
1521977989415,$GLGSV,3,3,09,08,00,000,*54
1521977989417,$GPGSA,A,3,15,17,19,24,30,,,,,,,,2.1,1.9,0.9*3F
1521977989417,$GPVTG,39.2,T,39.2,M,1.4,N,2.5,K,D*24
1521977989418,$GPRMC,113950.00,A,3109.847232,N,03432.057313,E,1.4,39.2,250318,2.8,E,D*03
1521977989418,$GPGGA,113950.00,3109.847232,N,03432.057313,E,2,05,1.9,162.0,M,17.0,M,,*68
1521977990405,$GPGSV,3,1,12,15,50,279,16,17,62,080,16,19,63,136,16,24,23,309,13*7E
1521977990405,$GPGSV,3,2,12,30,16,104,14,01,00,000,,05,01,202,,06,09,142,*72
1521977990406,$GPGSV,3,3,12,12,15,254,,13,68,209,,20,03,262,,28,25,046,*71
1521977990406,$GLGSV,3,1,10,10,11,077,13,02,29,291,,22,33,153,,12,34,322,*66
1521977990406,$GLGSV,3,2,10,11,45,026,,01,25,223,,20,11,028,,21,45,075,*6D
1521977990407,$GLGSV,3,3,10,03,02,336,,08,00,000,*6B
1521977990408,$GPGSA,A,3,15,17,19,24,30,,,,,,,,2.1,1.9,0.9*3F
1521977990408,$GPVTG,39.2,T,39.2,M,0.8,N,1.5,K,D*2A
1521977990409,$GPRMC,113951.00,A,3109.847018,N,03432.056978,E,0.8,39.2,250318,2.8,E,D*03
1521977990409,$GPGGA,113951.00,3109.847018,N,03432.056978,E,2,05,1.9,162.0,M,17.0,M,,*65
1521977991411,$GPGSV,3,1,12,15,50,279,16,17,62,080,16,19,63,136,16,24,23,309,13*7E
1521977991412,$GPGSV,3,2,12,30,16,104,14,01,00,000,,05,01,202,,06,09,142,*72
1521977991413,$GPGSV,3,3,12,12,15,254,,13,68,209,,20,03,262,,28,25,046,*71
1521977991414,$GLGSV,3,1,10,10,11,077,12,02,29,291,,22,33,153,,12,34,322,*67
1521977991415,$GLGSV,3,2,10,11,45,026,,01,25,223,,20,11,028,,21,45,075,*6D
1521977991416,$GLGSV,3,3,10,03,02,336,,08,00,000,*6B
1521977991419,$GPGSA,A,3,15,17,19,24,30,,,,,,,,2.1,1.9,0.9*3F
1521977991420,$GPVTG,39.2,T,39.2,M,1.7,N,3.2,K,D*21
1521977991420,$GPRMC,113952.00,A,3109.847338,N,03432.056765,E,1.7,39.2,250318,2.8,E,D*0D
1521977991421,$GPGGA,113952.00,3109.847338,N,03432.056765,E,2,05,1.9,162.0,M,17.0,M,,*65
1521977992411,$GPGSV,3,1,12,15,50,279,15,17,62,080,16,19,63,136,14,24,23,309,13*7F
1521977992411,$GPGSV,3,2,12,30,16,104,14,01,00,000,,05,01,202,,06,09,142,*72
1521977992412,$GPGSV,3,3,12,12,15,254,,13,68,209,,20,03,262,,28,25,046,*71
1521977992414,$GLGSV,3,1,10,10,11,077,12,02,29,291,,22,33,153,,12,34,322,*67
1521977992414,$GLGSV,3,2,10,11,45,026,,01,25,223,,20,11,028,,21,45,075,*6D
1521977992415,$GLGSV,3,3,10,03,02,336,,08,00,000,*6B
1521977992416,$GPGSA,A,3,15,17,19,24,30,,,,,,,,2.1,1.9,0.9*3F
1521977992416,$GPVTG,39.2,T,39.2,M,2.3,N,4.2,K,D*21
1521977992419,$GPRMC,113953.00,A,3109.847880,N,03432.057503,E,2.3,39.2,250318,2.8,E,D*00
1521977992419,$GPGGA,113953.00,3109.847880,N,03432.057503,E,2,05,1.9,162.0,M,17.0,M,,*6F
1521977993410,$GPGSV,3,1,12,15,50,279,15,17,62,080,16,19,63,136,14,30,16,104,14*74
1521977993411,$GPGSV,3,2,12,01,00,000,,05,01,202,,06,09,142,,12,15,254,*72
1521977993412,$GPGSV,3,3,12,13,68,209,,20,03,262,,24,23,309,,28,25,046,*78
1521977993413,$GLGSV,3,1,10,10,11,077,12,02,29,291,,22,33,153,,12,34,322,*67
1521977993413,$GLGSV,3,2,10,11,45,026,,01,25,223,,20,11,028,,21,45,075,*6D
1521977993414,$GLGSV,3,3,10,03,02,336,,08,00,000,*6B
1521977993416,$GPGSA,A,3,15,17,19,30,,,,,,,,,2.2,2.0,0.9*30
1521977993417,$GPVTG,39.2,T,39.2,M,1.9,N,3.6,K,D*2B
1521977993417,$GPRMC,113954.00,A,3109.848233,N,03432.058227,E,1.9,39.2,250318,2.8,E,D*0D
1521977993417,$GPGGA,113954.00,3109.848233,N,03432.058227,E,2,04,2.0,162.0,M,17.0,M,,*60
1521977994411,$GPGSV,3,1,12,15,50,279,17,17,62,080,16,19,63,136,14,30,16,104,14*76
1521977994413,$GPGSV,3,2,12,01,00,000,,05,01,202,,06,09,142,,12,15,254,*72
1521977994414,$GPGSV,3,3,12,13,68,209,,20,03,262,,24,23,309,,28,25,046,*78
1521977994415,$GLGSV,3,1,10,10,11,077,12,02,29,291,,22,33,153,,12,34,322,*67
1521977994416,$GLGSV,3,2,10,11,45,026,,01,25,223,,20,11,028,,21,45,075,*6D
1521977994417,$GLGSV,3,3,10,03,02,336,,08,00,000,*6B
1521977994420,$GPGSA,A,3,15,17,19,30,,,,,,,,,1.9,1.7,0.9*3C
1521977994421,$GPVTG,39.3,T,39.3,M,2.3,N,4.2,K,D*21
1521977994422,$GPRMC,113955.00,A,3109.848661,N,03432.058965,E,2.3,39.3,250318,2.8,E,D*0A
1521977994423,$GPGGA,113955.00,3109.848661,N,03432.058965,E,2,04,1.7,162.0,M,17.0,M,,*6B
1521977995413,$GPGSV,3,1,12,15,50,279,19,17,62,080,14,19,63,136,14,30,16,104,14*7A
1521977995416,$GPGSV,3,2,12,01,00,000,,05,01,202,,06,09,142,,12,15,254,*72
1521977995417,$GPGSV,3,3,12,13,68,209,,20,03,262,,24,23,309,,28,25,046,*78
1521977995418,$GLGSV,3,1,10,10,11,077,12,02,29,291,,22,33,153,,12,34,322,*67
1521977995418,$GLGSV,3,2,10,11,45,026,,01,25,223,,20,11,028,,21,45,075,*6D
1521977995418,$GLGSV,3,3,10,03,02,336,,08,00,000,*6B
1521977995420,$GPGSA,A,3,15,17,19,30,,,,,,,,,1.9,1.7,0.9*3C
1521977995420,$GPVTG,39.8,T,39.8,M,1.5,N,2.8,K,D*28
1521977995421,$GPRMC,113956.00,A,3109.848354,N,03432.059499,E,1.5,39.8,250318,2.8,E,D*0B
1521977995421,$GPGGA,113956.00,3109.848354,N,03432.059499,E,2,04,1.7,161.0,M,17.0,M,,*67
1521977996410,$GPGSV,3,1,12,15,50,279,19,17,62,080,14,19,63,136,14,30,16,104,14*7A
1521977996411,$GPGSV,3,2,12,01,00,000,,05,01,202,,06,09,142,,12,15,254,*72
1521977996411,$GPGSV,3,3,12,13,68,209,,20,03,262,,24,23,309,,28,25,046,*78
1521977996411,$GLGSV,3,1,10,10,11,077,12,02,29,291,,22,33,153,,12,34,322,*67
1521977996412,$GLGSV,3,2,10,11,45,026,,01,25,223,,20,11,028,,21,45,075,*6D
1521977996412,$GLGSV,3,3,10,03,02,336,,08,00,000,*6B
1521977996413,$GPGSA,A,3,15,17,19,30,,,,,,,,,1.9,1.7,0.9*3C
1521977996413,$GPVTG,40.7,T,40.7,M,0.9,N,1.7,K,D*29
1521977996414,$GPRMC,113957.00,A,3109.848374,N,03432.058980,E,0.9,40.7,250318,2.8,E,D*00
1521977996414,$GPGGA,113957.00,3109.848374,N,03432.058980,E,2,04,1.7,161.0,M,17.0,M,,*60
1521977997412,$GPGSV,3,1,12,15,50,279,19,17,62,080,17,19,63,136,14,30,16,104,14*79
1521977997413,$GPGSV,3,2,12,01,00,000,,05,01,202,,06,09,142,,12,15,254,*72
1521977997415,$GPGSV,3,3,12,13,68,209,,20,03,262,,24,23,309,,28,25,046,*78
1521977997415,$GLGSV,3,1,10,10,11,077,12,02,29,291,,22,33,153,,12,34,322,*67
1521977997416,$GLGSV,3,2,10,11,45,026,,01,25,223,,20,11,028,,21,45,075,*6D
1521977997416,$GLGSV,3,3,10,03,02,336,,08,00,000,*6B
1521977997419,$GPGSA,A,3,15,17,19,30,,,,,,,,,1.9,1.7,0.9*3C
1521977997420,$GPVTG,41.0,T,41.0,M,0.8,N,1.4,K,D*2B
1521977997420,$GPRMC,113958.00,A,3109.848279,N,03432.058527,E,0.8,41.0,250318,2.8,E,D*05
1521977997420,$GPGGA,113958.00,3109.848279,N,03432.058527,E,2,04,1.7,160.0,M,17.0,M,,*63
1521977998415,$GPGSV,3,1,12,15,50,279,20,17,62,080,17,19,63,136,14,30,16,104,14*73
1521977998416,$GPGSV,3,2,12,01,00,000,,05,01,202,,06,09,142,,12,15,254,*72
1521977998417,$GPGSV,3,3,12,13,68,209,,20,03,262,,24,23,309,,28,25,046,*78
1521977998417,$GLGSV,3,1,10,10,11,077,12,02,29,291,,22,33,153,,12,34,322,*67
1521977998418,$GLGSV,3,2,10,11,45,026,,01,25,223,,20,11,028,,21,45,075,*6D
1521977998419,$GLGSV,3,3,10,03,02,336,,08,00,000,*6B
1521977998422,$GPGSA,A,3,15,17,19,30,,,,,,,,,2.2,1.9,1.0*32
1521977998422,$GPVTG,41.3,T,41.3,M,0.7,N,1.2,K,D*22
1521977998423,$GPRMC,113959.00,A,3109.848160,N,03432.058147,E,0.7,41.3,250318,2.8,E,D*01
1521977998424,$GPGGA,113959.00,3109.848160,N,03432.058147,E,2,04,1.9,160.0,M,17.0,M,,*65
1521977999411,$GPGSV,3,1,12,15,50,279,20,17,62,080,17,19,63,136,14,30,16,104,12*75
1521977999413,$GPGSV,3,2,12,01,00,000,,05,01,202,,06,09,142,,12,15,254,*72
1521977999413,$GPGSV,3,3,12,13,68,209,,20,03,262,,24,23,309,,28,25,046,*78
1521977999414,$GLGSV,3,1,10,10,11,077,12,02,29,291,,22,33,153,,12,34,322,*67
1521977999414,$GLGSV,3,2,10,11,45,026,,01,25,223,,20,11,028,,21,45,075,*6D
1521977999414,$GLGSV,3,3,10,03,02,336,,08,00,000,*6B
1521977999419,$GPGSA,A,3,15,17,19,30,,,,,,,,,2.0,1.8,0.9*39
1521977999420,$GPVTG,41.4,T,41.4,M,0.7,N,1.2,K,D*22
1521977999420,$GPRMC,114000.00,A,3109.847319,N,03432.057739,E,0.7,41.4,250318,2.8,E,D*07
1521977999421,$GPGGA,114000.00,3109.847319,N,03432.057739,E,2,04,1.8,160.0,M,17.0,M,,*65
1521978000412,$GPGSV,3,1,12,15,50,279,20,17,62,080,17,19,63,136,13,30,16,104,12*72
1521978000412,$GPGSV,3,2,12,01,00,000,,05,01,202,,06,09,142,,12,15,254,*72
1521978000412,$GPGSV,3,3,12,13,68,209,,20,03,262,,24,23,309,,28,25,046,*78
1521978000413,$GLGSV,3,1,10,10,11,077,12,02,29,291,,22,33,153,,12,34,322,*67
1521978000413,$GLGSV,3,2,10,11,45,026,,01,25,223,,20,11,028,,21,45,075,*6D
1521978000413,$GLGSV,3,3,10,03,02,336,,08,00,000,*6B
1521978000415,$GPGSA,A,3,15,17,19,30,,,,,,,,,1.9,1.7,0.9*3C
1521978000416,$GPVTG,41.4,T,41.4,M,1.4,N,2.7,K,D*26
1521978000416,$GPRMC,114001.00,A,3109.846196,N,03432.057328,E,1.4,41.4,250318,2.8,E,D*04
1521978000417,$GPGGA,114001.00,3109.846196,N,03432.057328,E,2,04,1.7,161.0,M,17.0,M,,*6A
1521978001413,$GPGSV,3,1,12,15,50,279,16,17,62,080,15,19,63,136,13,30,16,104,12*75
1521978001415,$GPGSV,3,2,12,01,00,000,,05,01,202,,06,09,142,,12,15,254,*72
1521978001417,$GPGSV,3,3,12,13,68,209,,20,03,262,,24,23,309,,28,25,046,*78
1521978001421,$GLGSV,3,1,10,10,11,077,12,02,29,291,,22,33,153,,12,34,322,*67
1521978001422,$GLGSV,3,2,10,11,45,026,,01,25,223,,20,11,028,,21,45,075,*6D
1521978001423,$GLGSV,3,3,10,03,02,336,,08,00,000,*6B
1521978001425,$GPGSA,A,3,15,17,19,30,,,,,,,,,1.9,1.7,0.9*3C
1521978001426,$GPVTG,41.5,T,41.5,M,1.8,N,3.4,K,D*28
1521978001428,$GPRMC,114002.00,A,3109.845140,N,03432.056754,E,1.8,41.5,250318,2.8,E,D*0C
1521978001428,$GPGGA,114002.00,3109.845140,N,03432.056754,E,2,04,1.7,161.0,M,17.0,M,,*6F
1521978002412,$GPGSV,3,1,12,15,50,279,16,17,62,080,15,19,63,136,13,30,16,104,12*75
1521978002414,$GPGSV,3,2,12,01,00,000,,05,01,202,,06,09,142,,12,15,254,*72
1521978002415,$GPGSV,3,3,12,13,68,209,,20,03,262,,24,23,309,,28,25,046,*78
1521978002415,$GLGSV,3,1,10,10,11,077,12,02,29,291,,22,33,153,,12,34,322,*67
1521978002417,$GLGSV,3,2,10,11,45,026,,01,25,223,,20,11,028,,21,45,075,*6D
1521978002418,$GLGSV,3,3,10,03,02,336,,08,00,000,*6B
1521978002419,$GPGSA,A,3,15,17,19,30,,,,,,,,,1.9,1.7,0.9*3C
1521978002420,$GPVTG,41.4,T,41.4,M,1.0,N,1.9,K,D*2F
1521978002420,$GPRMC,114003.00,A,3109.844789,N,03432.056330,E,1.0,41.4,250318,2.8,E,D*00
1521978002421,$GPGGA,114003.00,3109.844789,N,03432.056330,E,2,04,1.7,160.0,M,17.0,M,,*6B
1521978003422,$GPGSV,3,1,12,15,50,279,16,17,62,080,15,19,63,136,13,30,16,104,12*75
1521978003423,$GPGSV,3,2,12,01,00,000,,05,01,202,,06,09,142,,12,15,254,*72
1521978003425,$GPGSV,3,3,12,13,68,209,,20,03,262,,24,23,309,,28,25,046,*78
1521978003425,$GLGSV,3,1,10,10,11,077,12,02,29,291,,22,33,153,,12,34,322,*67
1521978003426,$GLGSV,3,2,10,11,45,026,,01,25,223,,20,11,028,,21,45,075,*6D
1521978003426,$GLGSV,3,3,10,03,02,336,,08,00,000,*6B
1521978003427,$GPGSA,A,3,15,17,19,30,,,,,,,,,1.9,1.7,0.9*3C
1521978003427,$GPVTG,41.4,T,41.4,M,1.6,N,3.0,K,D*22
1521978003428,$GPRMC,114004.00,A,3109.844285,N,03432.055748,E,1.6,41.4,250318,2.8,E,D*00
1521978003430,$GPGGA,114004.00,3109.844285,N,03432.055748,E,2,04,1.7,160.0,M,17.0,M,,*6D
1521978004414,$GPGSV,3,1,12,15,50,279,18,17,62,080,15,19,63,136,13,30,16,104,12*7B
1521978004418,$GPGSV,3,2,12,01,00,000,,05,01,202,,06,09,142,,12,15,254,*72
1521978004422,$GPGSV,3,3,12,13,68,209,,20,03,262,,24,23,309,,28,25,046,*78
1521978004423,$GLGSV,3,1,10,10,11,077,12,02,29,291,,22,33,153,,12,34,322,*67
1521978004424,$GLGSV,3,2,10,11,45,026,,01,25,223,,20,11,028,,21,45,075,*6D
1521978004425,$GLGSV,3,3,10,03,02,336,,08,00,000,*6B
1521978004428,$GPGSA,A,3,15,17,19,30,,,,,,,,,1.9,1.7,0.9*3C
1521978004430,$GPVTG,41.5,T,41.5,M,1.7,N,3.1,K,D*22
1521978004434,$GPRMC,114005.00,A,3109.843577,N,03432.056428,E,1.7,41.5,250318,2.8,E,D*0A
1521978004438,$GPGGA,114005.00,3109.843577,N,03432.056428,E,2,04,1.7,161.0,M,17.0,M,,*66
1521978005407,$GPGSV,3,1,12,15,50,279,20,17,62,080,17,19,63,136,15,30,16,104,12*74
1521978005408,$GPGSV,3,2,12,01,00,000,,05,01,202,,06,09,142,,12,15,254,*72
1521978005408,$GPGSV,3,3,12,13,68,209,,20,03,262,,24,23,309,,28,25,046,*78
1521978005408,$GLGSV,3,1,10,10,11,077,12,02,29,291,,22,33,153,,12,34,322,*67
1521978005409,$GLGSV,3,2,10,11,45,026,,01,25,223,,20,11,028,,21,45,075,*6D
1521978005409,$GLGSV,3,3,10,03,02,336,,08,00,000,*6B
1521978005410,$GPGSA,A,3,15,17,19,30,,,,,,,,,2.0,1.8,0.9*39
1521978005410,$GPVTG,41.5,T,41.5,M,1.7,N,3.2,K,D*21
1521978005412,$GPRMC,114006.00,A,3109.843440,N,03432.057227,E,1.7,41.5,250318,2.8,E,D*04
1521978005413,$GPGGA,114006.00,3109.843440,N,03432.057227,E,2,04,1.8,161.0,M,17.0,M,,*67
1521978006411,$GPGSV,3,1,12,15,50,279,22,17,62,080,20,19,63,136,19,30,16,104,12*7E
1521978006411,$GPGSV,3,2,12,01,00,000,,05,01,202,,06,09,142,,12,15,254,*72
1521978006412,$GPGSV,3,3,12,13,68,209,,20,03,262,,24,23,309,,28,25,046,*78
1521978006413,$GLGSV,3,1,10,10,11,077,12,02,29,291,,22,33,153,,12,34,322,*67
1521978006415,$GLGSV,3,2,10,11,45,026,,01,25,223,,20,11,028,,21,45,075,*6D
1521978006415,$GLGSV,3,3,10,03,02,336,,08,00,000,*6B
1521978006416,$GPGSA,A,3,15,17,19,30,,,,,,,,,2.0,1.8,0.9*39
1521978006416,$GPVTG,41.6,T,41.6,M,1.2,N,2.3,K,D*24
1521978006417,$GPRMC,114007.00,A,3109.843425,N,03432.057531,E,1.2,41.6,250318,2.8,E,D*00
1521978006417,$GPGGA,114007.00,3109.843425,N,03432.057531,E,2,04,1.8,158.0,M,17.0,M,,*6F
1521978007410,$GPGSV,3,1,12,15,50,279,22,17,62,080,20,19,63,136,19,30,16,104,12*7E
1521978007411,$GPGSV,3,2,12,01,00,000,,05,01,202,,06,09,142,,12,15,254,*72
1521978007412,$GPGSV,3,3,12,13,68,209,,20,03,262,,24,23,309,,28,25,046,*78
1521978007413,$GLGSV,3,1,10,10,11,077,12,02,29,291,,22,33,153,,12,34,322,*67
1521978007414,$GLGSV,3,2,10,11,45,026,,01,25,223,,20,11,028,,21,45,075,*6D
1521978007414,$GLGSV,3,3,10,03,02,336,,08,00,000,*6B
1521978007415,$GPGSA,A,3,15,17,19,30,,,,,,,,,2.0,1.8,0.9*39
1521978007416,$GPVTG,42.0,T,42.0,M,1.2,N,2.3,K,D*24
1521978007416,$GPRMC,114008.00,A,3109.843366,N,03432.057834,E,1.2,42.0,250318,2.8,E,D*02
1521978007417,$GPGGA,114008.00,3109.843366,N,03432.057834,E,2,04,1.8,159.0,M,17.0,M,,*69
1521978008413,$GPGSV,3,1,12,15,50,279,18,17,62,080,20,19,63,136,19,30,16,104,12*77
1521978008416,$GPGSV,3,2,12,01,00,000,,05,01,202,,06,09,142,,12,15,254,*72
1521978008418,$GPGSV,3,3,12,13,68,209,,20,03,262,,24,23,309,,28,25,046,*78
1521978008420,$GLGSV,3,1,10,10,11,077,12,02,29,291,,22,33,153,,12,34,322,*67
1521978008422,$GLGSV,3,2,10,11,45,026,,01,25,223,,20,11,028,,21,45,075,*6D
1521978008423,$GLGSV,3,3,10,03,02,336,,08,00,000,*6B
1521978008428,$GPGSA,A,3,15,17,19,30,,,,,,,,,2.0,1.8,0.9*39
1521978008429,$GPVTG,42.8,T,42.8,M,1.2,N,2.3,K,D*24
1521978008429,$GPRMC,114009.00,A,3109.843088,N,03432.058080,E,1.2,42.8,250318,2.8,E,D*00
1521978008431,$GPGGA,114009.00,3109.843088,N,03432.058080,E,2,04,1.8,159.0,M,17.0,M,,*63
1521978009411,$GPGSV,3,1,12,15,50,279,18,17,62,080,15,19,63,136,19,30,16,104,12*71
1521978009412,$GPGSV,3,2,12,01,00,000,,05,01,202,,06,09,142,,12,15,254,*72
1521978009414,$GPGSV,3,3,12,13,68,209,,20,03,262,,24,23,309,,28,25,046,*78
1521978009415,$GLGSV,3,1,10,10,11,077,12,02,29,291,,22,33,153,,12,34,322,*67
1521978009417,$GLGSV,3,2,10,11,45,026,,01,25,223,,20,11,028,,21,45,075,*6D
1521978009418,$GLGSV,3,3,10,03,02,336,,08,00,000,*6B
1521978009420,$GPGSA,A,3,15,17,19,30,,,,,,,,,2.0,1.8,0.9*39
1521978009421,$GPVTG,43.7,T,43.7,M,1.7,N,3.1,K,D*22
1521978009421,$GPRMC,114010.00,A,3109.842805,N,03432.058432,E,1.7,43.7,250318,2.8,E,D*02
1521978009421,$GPGGA,114010.00,3109.842805,N,03432.058432,E,2,04,1.8,158.0,M,17.0,M,,*6B
1521978010401,$GPGSV,3,1,12,15,50,279,18,17,62,080,15,19,63,136,15,30,16,104,12*7D
1521978010402,$GPGSV,3,2,12,01,00,000,,05,01,202,,06,09,142,,12,15,254,*72
1521978010403,$GPGSV,3,3,12,13,68,209,,20,03,262,,24,23,309,,28,25,046,*78
1521978010403,$GLGSV,3,1,10,10,11,077,12,02,29,291,,22,33,153,,12,34,322,*67
1521978010404,$GLGSV,3,2,10,11,45,026,,01,25,223,,20,11,028,,21,45,075,*6D
1521978010404,$GLGSV,3,3,10,03,02,336,,08,00,000,*6B
1521978010406,$GPGSA,A,3,15,17,19,30,,,,,,,,,2.0,1.8,0.9*39
1521978010406,$GPVTG,46.4,T,46.4,M,1.3,N,2.3,K,D*25
1521978010407,$GPRMC,114011.00,A,3109.842573,N,03432.058783,E,1.3,46.4,250318,2.8,E,D*04
1521978010407,$GPGGA,114011.00,3109.842573,N,03432.058783,E,2,04,1.8,158.0,M,17.0,M,,*6F
1521978011404,$GPGSV,3,1,12,15,50,279,18,17,62,080,15,19,63,136,15,30,16,104,12*7D
1521978011404,$GPGSV,3,2,12,01,00,000,,05,01,202,,06,09,142,,12,15,254,*72
1521978011404,$GPGSV,3,3,12,13,68,209,,20,03,262,,24,23,309,,28,25,046,*78
1521978011405,$GLGSV,3,1,09,02,29,291,,22,33,153,,12,34,322,,11,45,026,*68
1521978011406,$GLGSV,3,2,09,01,25,223,,20,11,028,,21,45,075,,03,02,336,*67
1521978011406,$GLGSV,3,3,09,08,00,000,*54
1521978011408,$GPGSA,A,3,15,17,19,30,,,,,,,,,2.0,1.8,0.9*39
1521978011410,$GPVTG,47.0,T,47.0,M,3.1,N,5.7,K,D*26
1521978011412,$GPRMC,114012.00,A,3109.841878,N,03432.059167,E,3.1,47.0,250318,2.8,E,D*0A
1521978011412,$GPGGA,114012.00,3109.841878,N,03432.059167,E,2,04,1.8,157.0,M,17.0,M,,*6B
1521978012407,$GPGSV,3,1,12,15,50,279,18,17,62,080,17,19,63,136,15,30,16,104,12*7F
1521978012408,$GPGSV,3,2,12,01,00,000,,05,01,202,,06,09,142,,12,15,254,*72
1521978012409,$GPGSV,3,3,12,13,68,209,,20,03,262,,24,23,309,,28,25,046,*78
1521978012410,$GLGSV,3,1,10,10,11,077,,02,29,291,,22,33,153,,12,34,322,*64
1521978012411,$GLGSV,3,2,10,11,45,026,,01,25,223,,20,11,028,,21,45,075,*6D
1521978012411,$GLGSV,3,3,10,03,02,336,,08,00,000,*6B
1521978012413,$GPGSA,A,3,15,17,19,30,,,,,,,,,2.0,1.8,0.9*39
1521978012413,$GPVTG,47.2,T,47.2,M,0.3,N,0.6,K,D*23
1521978012413,$GPRMC,114013.00,A,3109.842302,N,03432.059372,E,0.3,47.2,250318,2.8,E,D*0B
1521978012414,$GPGGA,114013.00,3109.842302,N,03432.059372,E,2,04,1.8,158.0,M,17.0,M,,*66
1521978013408,$GPGSV,3,1,12,15,50,279,18,17,62,080,17,19,63,136,15,30,16,104,12*7F
1521978013408,$GPGSV,3,2,12,01,00,000,,05,01,202,,06,09,142,,12,15,254,*72
1521978013409,$GPGSV,3,3,12,13,68,209,,20,03,262,,24,23,309,,28,25,046,*78
1521978013411,$GLGSV,3,1,10,10,11,077,,02,29,291,,22,33,153,,12,34,322,*64
1521978013412,$GLGSV,3,2,10,11,45,026,,01,25,223,,20,11,028,,21,45,075,*6D
1521978013412,$GLGSV,3,3,10,03,02,336,,08,00,000,*6B
1521978013415,$GPGSA,A,3,15,17,19,30,,,,,,,,,2.0,1.8,0.9*39
1521978013416,$GPVTG,47.2,T,47.2,M,1.4,N,2.6,K,D*27
1521978013419,$GPRMC,114014.00,A,3109.842633,N,03432.059415,E,1.4,47.2,250318,2.8,E,D*0B
1521978013420,$GPGGA,114014.00,3109.842633,N,03432.059415,E,2,04,1.8,159.0,M,17.0,M,,*61
1521978014408,$GPGSV,3,1,12,15,50,279,18,17,62,080,18,19,63,136,15,30,16,104,12*70
1521978014411,$GPGSV,3,2,12,01,00,000,,05,01,202,,06,09,142,,12,15,254,*72
1521978014411,$GPGSV,3,3,12,13,68,209,,20,03,262,,24,23,309,,28,25,046,*78
1521978014413,$GLGSV,3,1,10,10,11,077,,02,29,291,,22,33,153,,12,34,322,*64
1521978014413,$GLGSV,3,2,10,11,45,026,,01,25,223,,20,11,028,,21,45,075,*6D
1521978014413,$GLGSV,3,3,10,03,02,336,,08,00,000,*6B
1521978014414,$GPGSA,A,3,15,17,19,30,,,,,,,,,3.5,3.3,1.0*3C
1521978014415,$GPVTG,47.2,T,47.2,M,1.1,N,2.1,K,D*25
1521978014415,$GPRMC,114015.00,A,3109.842898,N,03432.059420,E,1.1,47.2,250318,2.8,E,D*06
1521978014416,$GPGGA,114015.00,3109.842898,N,03432.059420,E,2,04,3.3,159.0,M,17.0,M,,*60
1521978015407,$GPGSV,3,1,12,15,50,279,18,17,62,080,18,19,63,136,15,30,16,104,12*70
1521978015408,$GPGSV,3,2,12,01,00,000,,05,01,202,,06,09,142,,12,15,254,*72
1521978015409,$GPGSV,3,3,12,13,68,209,,20,03,262,,24,23,309,,28,25,046,*78
1521978015410,$GLGSV,3,1,10,10,11,077,,02,29,291,,22,33,153,,12,34,322,*64
1521978015410,$GLGSV,3,2,10,11,45,026,,01,25,223,,20,11,028,,21,45,075,*6D
1521978015410,$GLGSV,3,3,10,03,02,336,,08,00,000,*6B
1521978015412,$GPGSA,A,3,15,17,19,30,,,,,,,,,3.5,3.3,1.0*3C
1521978015413,$GPVTG,47.2,T,47.2,M,1.4,N,2.6,K,D*27
1521978015414,$GPRMC,114016.00,A,3109.842363,N,03432.059039,E,1.4,47.2,250318,2.8,E,D*03
1521978015416,$GPGGA,114016.00,3109.842363,N,03432.059039,E,2,04,3.3,159.0,M,17.0,M,,*60
1521978016407,$GPGSV,3,1,12,15,50,279,18,17,62,080,17,19,63,136,14,30,16,104,12*7E
1521978016407,$GPGSV,3,2,12,01,00,000,,05,01,202,,06,09,142,,12,15,254,*72
1521978016409,$GPGSV,3,3,12,13,68,209,,20,03,262,,24,23,309,,28,25,046,*78
1521978016410,$GLGSV,3,1,10,10,11,077,,02,29,291,,22,33,153,,12,34,322,*64
1521978016410,$GLGSV,3,2,10,11,45,026,,01,25,223,,20,11,028,,21,45,075,*6D
1521978016411,$GLGSV,3,3,10,03,02,336,,08,00,000,*6B
1521978016412,$GPGSA,A,3,15,17,19,30,,,,,,,,,3.5,3.3,1.0*3C
1521978016413,$GPVTG,47.2,T,47.2,M,1.6,N,3.0,K,D*22
1521978016413,$GPRMC,114017.00,A,3109.842090,N,03432.059444,E,1.6,47.2,250318,2.8,E,D*01
1521978016414,$GPGGA,114017.00,3109.842090,N,03432.059444,E,2,04,3.3,159.0,M,17.0,M,,*60
1521978017407,$GPGSV,3,1,12,15,50,279,18,17,62,080,19,19,63,136,14,30,16,104,12*70
1521978017407,$GPGSV,3,2,12,01,00,000,,05,01,202,,06,09,142,,12,15,254,*72
1521978017407,$GPGSV,3,3,12,13,68,209,,20,03,262,,24,23,309,,28,25,046,*78
1521978017408,$GLGSV,3,1,10,10,11,077,,02,29,291,,22,33,153,,12,34,322,*64
1521978017408,$GLGSV,3,2,10,11,45,026,,01,25,223,,20,11,028,,21,45,075,*6D
1521978017408,$GLGSV,3,3,10,03,02,336,,08,00,000,*6B
1521978017414,$GPGSA,A,3,15,17,19,30,,,,,,,,,3.5,3.3,1.0*3C
1521978017414,$GPVTG,47.1,T,47.1,M,1.1,N,2.1,K,D*25
1521978017415,$GPRMC,114018.00,A,3109.841717,N,03432.059641,E,1.1,47.1,250318,2.8,E,D*06
1521978017415,$GPGGA,114018.00,3109.841717,N,03432.059641,E,2,04,3.3,157.0,M,17.0,M,,*6D
1521978018407,$GPGSV,3,1,12,15,50,279,18,17,62,080,19,19,63,136,17,01,00,000,*70
1521978018407,$GPGSV,3,2,12,05,01,202,,06,09,142,,12,15,254,,13,68,209,*74
1521978018408,$GPGSV,3,3,12,20,03,262,,24,23,309,,28,25,046,,30,16,104,*7E
1521978018410,$GLGSV,3,1,10,10,11,077,,02,29,291,,22,33,153,,12,34,322,*64
1521978018410,$GLGSV,3,2,10,11,45,026,,01,25,223,,20,11,028,,21,45,075,*6D
1521978018411,$GLGSV,3,3,10,03,02,336,,08,00,000,*6B
1521978018413,$GPGSA,A,2,15,17,19,,,,,,,,,,3.5,3.3,1.0*3E
1521978018413,$GPVTG,47.1,T,47.1,M,1.3,N,2.5,K,D*23
1521978018414,$GPRMC,114019.00,A,3109.841059,N,03432.059700,E,1.3,47.1,250318,2.8,E,D*0C
1521978018414,$GPGGA,114019.00,3109.841059,N,03432.059700,E,2,03,3.3,158.0,M,17.0,M,,*6D
1521978019410,$GPGSV,3,1,12,15,50,279,12,17,62,080,19,19,63,136,19,01,00,000,*74
1521978019411,$GPGSV,3,2,12,05,01,202,,06,09,142,,12,15,254,,13,68,209,*74
1521978019411,$GPGSV,3,3,12,20,03,262,,24,23,309,,28,25,046,,30,16,104,*7E
1521978019412,$GLGSV,3,1,10,10,11,077,,02,29,291,,22,33,153,,12,34,322,*64
1521978019413,$GLGSV,3,2,10,11,45,026,,01,25,223,,20,11,028,,21,45,075,*6D
1521978019414,$GLGSV,3,3,10,03,02,336,,08,00,000,*6B
1521978019416,$GPGSA,A,2,15,17,19,,,,,,,,,,2.0,1.8,0.9*3B
1521978019416,$GPVTG,47.1,T,47.1,M,1.7,N,3.1,K,D*22
1521978019417,$GPRMC,114020.00,A,3109.840250,N,03432.060440,E,1.7,47.1,250318,2.8,E,D*05
1521978019418,$GPGGA,114020.00,3109.840250,N,03432.060440,E,2,03,1.8,157.0,M,17.0,M,,*66
1521978020407,$GPGSV,3,1,12,15,50,279,12,17,62,080,19,19,63,136,19,01,00,000,*74
1521978020410,$GPGSV,3,2,12,05,01,202,,06,09,142,,12,15,254,,13,68,209,*74
1521978020413,$GPGSV,3,3,12,20,03,262,,24,23,309,,28,25,046,,30,16,104,*7E
1521978020414,$GLGSV,3,1,10,10,11,077,,02,29,291,,22,33,153,,12,34,322,*64
1521978020416,$GLGSV,3,2,10,11,45,026,,01,25,223,,20,11,028,,21,45,075,*6D
1521978020416,$GLGSV,3,3,10,03,02,336,,08,00,000,*6B
1521978020418,$GPGSA,A,2,15,17,19,,,,,,,,,,2.0,1.8,0.9*3B
1521978020418,$GPVTG,47.1,T,47.1,M,0.7,N,1.4,K,D*24
1521978020419,$GPRMC,114021.00,A,3109.839845,N,03432.060906,E,0.7,47.1,250318,2.8,E,D*0A
1521978020419,$GPGGA,114021.00,3109.839845,N,03432.060906,E,2,03,1.8,158.0,M,17.0,M,,*67
1521978021402,$GPGSV,3,1,12,15,50,279,12,17,62,080,18,19,63,136,16,30,16,104,16*7D
1521978021402,$GPGSV,3,2,12,01,00,000,,05,01,202,,06,09,142,,12,15,254,*72
1521978021403,$GPGSV,3,3,12,13,68,209,,20,03,262,,24,23,309,,28,25,046,*78
1521978021403,$GLGSV,3,1,10,10,11,077,,02,29,291,,22,33,153,,12,34,322,*64
1521978021403,$GLGSV,3,2,10,11,45,026,,01,25,223,,20,11,028,,21,45,075,*6D
1521978021403,$GLGSV,3,3,10,03,02,336,,08,00,000,*6B
1521978021406,$GPGSA,A,3,15,17,19,30,,,,,,,,,1.9,1.7,0.9*3C
1521978021407,$GPVTG,47.1,T,47.1,M,1.0,N,1.8,K,D*2E
1521978021407,$GPRMC,114022.00,A,3109.839340,N,03432.061483,E,1.0,47.1,250318,2.8,E,D*00
1521978021407,$GPGGA,114022.00,3109.839340,N,03432.061483,E,2,04,1.7,157.0,M,17.0,M,,*6C
1521978022408,$GPGSV,3,1,12,15,50,279,12,17,62,080,18,19,63,136,16,30,16,104,15*7E
1521978022409,$GPGSV,3,2,12,01,00,000,,05,01,202,,06,09,142,,12,15,254,*72
1521978022410,$GPGSV,3,3,12,13,68,209,,20,03,262,,24,23,309,,28,25,046,*78
1521978022412,$GLGSV,3,1,10,10,11,077,,02,29,291,,22,33,153,,12,34,322,*64
1521978022416,$GLGSV,3,2,10,11,45,026,,01,25,223,,20,11,028,,21,45,075,*6D
1521978022417,$GLGSV,3,3,10,03,02,336,,08,00,000,*6B
1521978022419,$GPGSA,A,3,15,17,19,30,,,,,,,,,1.9,1.7,0.9*3C
1521978022420,$GPVTG,47.1,T,47.1,M,1.2,N,2.2,K,D*25
1521978022421,$GPRMC,114023.00,A,3109.839338,N,03432.061206,E,1.2,47.1,250318,2.8,E,D*07
1521978022422,$GPGGA,114023.00,3109.839338,N,03432.061206,E,2,04,1.7,158.0,M,17.0,M,,*66
1521978023415,$GPGSV,3,1,12,15,50,279,12,17,62,080,18,19,63,136,17,30,16,104,15*7F
1521978023415,$GPGSV,3,2,12,01,00,000,,05,01,202,,06,09,142,,12,15,254,*72
1521978023415,$GPGSV,3,3,12,13,68,209,,20,03,262,,24,23,309,,28,25,046,*78
1521978023416,$GLGSV,3,1,10,10,11,077,,02,29,291,,22,33,153,,12,34,322,*64
1521978023416,$GLGSV,3,2,10,11,45,026,,01,25,223,,20,11,028,,21,45,075,*6D
1521978023416,$GLGSV,3,3,10,03,02,336,,08,00,000,*6B
1521978023417,$GPGSA,A,3,15,17,19,30,,,,,,,,,1.9,1.7,0.9*3C
1521978023418,$GPVTG,47.1,T,47.1,M,1.7,N,3.1,K,D*22
1521978023418,$GPRMC,114024.00,A,3109.839613,N,03432.061037,E,1.7,47.1,250318,2.8,E,D*09
1521978023418,$GPGGA,114024.00,3109.839613,N,03432.061037,E,2,04,1.7,158.0,M,17.0,M,,*6D
1521978024412,$GPGSV,3,1,12,15,50,279,12,17,62,080,18,19,63,136,17,30,16,104,14*7E
1521978024413,$GPGSV,3,2,12,01,00,000,,05,01,202,,06,09,142,,12,15,254,*72
1521978024415,$GPGSV,3,3,12,13,68,209,,20,03,262,,24,23,309,,28,25,046,*78
1521978024415,$GLGSV,3,1,10,10,11,077,,02,29,291,,22,33,153,,12,34,322,*64
1521978024416,$GLGSV,3,2,10,11,45,026,,01,25,223,,20,11,028,,21,45,075,*6D
1521978024416,$GLGSV,3,3,10,03,02,336,,08,00,000,*6B
1521978024417,$GPGSA,A,3,15,17,19,30,,,,,,,,,2.2,2.0,0.9*30
1521978024417,$GPVTG,47.1,T,47.1,M,1.7,N,3.1,K,D*22
1521978024418,$GPRMC,114025.00,A,3109.839953,N,03432.060954,E,1.7,47.1,250318,2.8,E,D*0E
1521978024418,$GPGGA,114025.00,3109.839953,N,03432.060954,E,2,04,2.0,159.0,M,17.0,M,,*6F
1521978025403,$GPGSV,3,1,12,15,50,279,12,17,62,080,16,19,63,136,17,30,16,104,14*70
1521978025405,$GPGSV,3,2,12,01,00,000,,05,01,202,,06,09,142,,12,15,254,*72
1521978025405,$GPGSV,3,3,12,13,68,209,,20,03,262,,24,23,309,,28,25,046,*78
1521978025406,$GLGSV,3,1,10,10,11,077,,02,29,291,,22,33,153,,12,34,322,*64
1521978025406,$GLGSV,3,2,10,11,45,026,,01,25,223,,20,11,028,,21,45,075,*6D
1521978025407,$GLGSV,3,3,10,03,02,336,,08,00,000,*6B
1521978025408,$GPGSA,A,3,15,17,19,30,,,,,,,,,3.0,2.9,1.0*32
1521978025409,$GPVTG,47.1,T,47.1,M,1.2,N,2.2,K,D*25
1521978025410,$GPRMC,114026.00,A,3109.840089,N,03432.060920,E,1.2,47.1,250318,2.8,E,D*0B
1521978025410,$GPGGA,114026.00,3109.840089,N,03432.060920,E,2,04,2.9,158.0,M,17.0,M,,*67
1521978026409,$GPGSV,3,1,12,15,50,279,13,17,62,080,16,19,63,136,17,30,16,104,14*71
1521978026410,$GPGSV,3,2,12,01,00,000,,05,01,202,,06,09,142,,12,15,254,*72
1521978026411,$GPGSV,3,3,12,13,68,209,,20,03,262,,24,23,309,,28,25,046,*78
1521978026412,$GLGSV,3,1,10,10,11,077,,02,29,291,,22,33,153,,12,34,322,*64
1521978026412,$GLGSV,3,2,10,11,45,026,,01,25,223,,20,11,028,,21,45,075,*6D
1521978026412,$GLGSV,3,3,10,03,02,336,,08,00,000,*6B
1521978026414,$GPGSA,A,3,15,17,19,30,,,,,,,,,2.2,2.0,0.9*30
1521978026414,$GPVTG,47.2,T,47.2,M,2.1,N,3.8,K,D*2E
1521978026414,$GPRMC,114027.00,A,3109.840293,N,03432.061833,E,2.1,47.2,250318,2.8,E,D*02
1521978026415,$GPGGA,114027.00,3109.840293,N,03432.061833,E,2,04,2.0,160.0,M,17.0,M,,*6F
1521978027413,$GPGSV,3,1,12,15,50,279,13,17,62,080,16,19,63,136,17,30,16,104,14*71
1521978027413,$GPGSV,3,2,12,01,00,000,,05,01,202,,06,09,142,,12,15,254,*72
1521978027415,$GPGSV,3,3,12,13,68,209,,20,03,262,,24,23,309,,28,25,046,*78
1521978027415,$GLGSV,3,1,10,10,11,077,,02,29,291,,22,33,153,,12,34,322,*64
1521978027416,$GLGSV,3,2,10,11,45,026,,01,25,223,,20,11,028,,21,45,075,*6D
1521978027417,$GLGSV,3,3,10,03,02,336,,08,00,000,*6B
1521978027418,$GPGSA,A,3,15,17,19,30,,,,,,,,,2.2,2.0,0.9*30
1521978027419,$GPVTG,47.9,T,47.9,M,0.5,N,0.9,K,D*2A
1521978027420,$GPRMC,114028.00,A,3109.840264,N,03432.062483,E,0.5,47.9,250318,2.8,E,D*0C
1521978027420,$GPGGA,114028.00,3109.840264,N,03432.062483,E,2,04,2.0,160.0,M,17.0,M,,*6C
1521978028416,$GPGSV,3,1,12,15,50,279,13,17,62,080,15,19,63,136,17,30,16,104,14*72
1521978028418,$GPGSV,3,2,12,01,00,000,,05,01,202,,06,09,142,,12,15,254,*72
1521978028420,$GPGSV,3,3,12,13,68,209,,20,03,262,,24,23,309,,28,25,046,*78
1521978028421,$GLGSV,3,1,10,10,11,077,,02,29,291,,22,33,153,,12,34,322,*64
1521978028423,$GLGSV,3,2,10,11,45,026,,01,25,223,,20,11,028,,21,45,075,*6D
1521978028424,$GLGSV,3,3,10,03,02,336,,08,00,000,*6B
1521978028428,$GPGSA,A,3,15,17,19,30,,,,,,,,,1.9,1.7,0.9*3C
1521978028429,$GPVTG,49.0,T,49.0,M,0.4,N,0.8,K,D*2A
1521978028430,$GPRMC,114029.00,A,3109.840123,N,03432.062811,E,0.4,49.0,250318,2.8,E,D*0C
1521978028431,$GPGGA,114029.00,3109.840123,N,03432.062811,E,2,04,1.7,160.0,M,17.0,M,,*6E
1521978029410,$GPGSV,3,1,12,15,50,279,13,17,62,080,15,19,63,136,17,30,16,104,14*72
1521978029411,$GPGSV,3,2,12,01,00,000,,05,01,202,,06,09,142,,12,15,254,*72
1521978029411,$GPGSV,3,3,12,13,68,209,,20,03,262,,24,23,309,,28,25,046,*78
1521978029411,$GLGSV,3,1,10,10,11,077,,02,29,291,,22,33,153,,12,34,322,*64
1521978029412,$GLGSV,3,2,10,11,45,026,,01,25,223,,20,11,028,,21,45,075,*6D
1521978029412,$GLGSV,3,3,10,03,02,336,,08,00,000,*6B
1521978029413,$GPGSA,A,3,15,17,19,30,,,,,,,,,1.9,1.7,0.9*3C
1521978029413,$GPVTG,52.9,T,52.9,M,0.5,N,1.0,K,D*22
1521978029413,$GPRMC,114030.00,A,3109.840085,N,03432.063070,E,0.5,52.9,250318,2.8,E,D*05
1521978029413,$GPGGA,114030.00,3109.840085,N,03432.063070,E,2,04,1.7,160.0,M,17.0,M,,*65
1521978030410,$GPGSV,3,1,12,15,50,279,15,17,62,080,19,19,63,136,15,30,16,104,14*7A
1521978030411,$GPGSV,3,2,12,01,00,000,,05,01,202,,06,09,142,,12,15,254,*72
1521978030414,$GPGSV,3,3,12,13,68,209,,20,03,262,,24,23,309,,28,25,046,*78
1521978030418,$GLGSV,3,1,10,10,11,077,,02,29,291,,22,33,153,,12,34,322,*64
1521978030419,$GLGSV,3,2,10,11,45,026,,01,25,223,,20,11,028,,21,45,075,*6D
1521978030419,$GLGSV,3,3,10,03,02,336,,08,00,000,*6B
1521978030422,$GPGSA,A,3,15,17,19,30,,,,,,,,,1.9,1.7,0.9*3C
1521978030423,$GPVTG,55.2,T,55.2,M,3.6,N,6.7,K,D*22
1521978030423,$GPRMC,114031.00,A,3109.839781,N,03432.065580,E,3.6,55.2,250318,2.8,E,D*09
1521978030424,$GPGGA,114031.00,3109.839781,N,03432.065580,E,2,04,1.7,162.0,M,17.0,M,,*67
1521978031412,$GPGSV,3,1,12,15,50,279,15,17,62,080,20,19,63,136,19,30,16,104,14*7C
1521978031413,$GPGSV,3,2,12,01,00,000,,05,01,202,,06,09,142,,12,15,254,*72
1521978031413,$GPGSV,3,3,12,13,68,209,,20,03,262,,24,23,309,,28,25,046,*78
1521978031414,$GLGSV,3,1,10,10,11,077,,02,29,291,,22,33,153,,12,34,322,*64
1521978031414,$GLGSV,3,2,10,11,45,026,,01,25,223,,20,11,028,,21,45,075,*6D
1521978031414,$GLGSV,3,3,10,03,02,336,,08,00,000,*6B
1521978031416,$GPGSA,A,3,15,17,19,30,,,,,,,,,1.9,1.7,0.9*3C
1521978031417,$GPVTG,56.6,T,56.6,M,4.2,N,7.8,K,D*2F
1521978031417,$GPRMC,114032.00,A,3109.840254,N,03432.067909,E,4.2,56.6,250318,2.8,E,D*02
1521978031418,$GPGGA,114032.00,3109.840254,N,03432.067909,E,2,04,1.7,163.0,M,17.0,M,,*69
1521978032406,$GPGSV,3,1,12,15,50,279,15,17,62,080,19,19,63,136,19,30,16,104,14*76
1521978032407,$GPGSV,3,2,12,01,00,000,,05,01,202,,06,09,142,,12,15,254,*72
1521978032408,$GPGSV,3,3,12,13,68,209,,20,03,262,,24,23,309,,28,25,046,*78
1521978032408,$GLGSV,3,1,10,10,11,077,,02,29,291,,22,33,153,,12,34,322,*64
1521978032409,$GLGSV,3,2,10,11,45,026,,01,25,223,,20,11,028,,21,45,075,*6D
1521978032409,$GLGSV,3,3,10,03,02,336,,08,00,000,*6B
1521978032411,$GPGSA,A,3,15,17,19,30,,,,,,,,,1.9,1.7,0.9*3C
1521978032411,$GPVTG,57.1,T,57.1,M,4.5,N,8.4,K,D*2B
1521978032412,$GPRMC,114033.00,A,3109.840928,N,03432.070276,E,4.5,57.1,250318,2.8,E,D*07
1521978032412,$GPGGA,114033.00,3109.840928,N,03432.070276,E,2,04,1.7,163.0,M,17.0,M,,*6D
1521978033407,$GPGSV,3,1,12,15,50,279,16,17,62,080,19,19,63,136,17,30,16,104,14*7B
1521978033408,$GPGSV,3,2,12,01,00,000,,05,01,202,,06,09,142,,12,15,254,*72
1521978033409,$GPGSV,3,3,12,13,68,209,,20,03,262,,24,23,309,,28,25,046,*78
1521978033411,$GLGSV,3,1,10,10,11,077,,02,29,291,,22,33,153,,12,34,322,*64
1521978033411,$GLGSV,3,2,10,11,45,026,,01,25,223,,20,11,028,,21,45,075,*6D
1521978033412,$GLGSV,3,3,10,03,02,336,,08,00,000,*6B
1521978033413,$GPGSA,A,3,15,17,19,30,,,,,,,,,1.9,1.7,0.9*3C
1521978033414,$GPVTG,56.9,T,56.9,M,6.0,N,11.1,K,D*11
1521978033414,$GPRMC,114034.00,A,3109.841424,N,03432.072952,E,6.0,56.9,250318,2.8,E,D*01
1521978033415,$GPGGA,114034.00,3109.841424,N,03432.072952,E,2,04,1.7,164.0,M,17.0,M,,*62
1521978034414,$GPGSV,3,1,12,15,50,279,16,17,62,080,17,19,63,136,17,30,16,104,14*75
1521978034414,$GPGSV,3,2,12,01,00,000,,05,01,202,,06,09,142,,12,15,254,*72
1521978034415,$GPGSV,3,3,12,13,68,209,,20,03,262,,24,23,309,,28,25,046,*78
1521978034416,$GLGSV,3,1,10,10,11,077,,02,29,291,,22,33,153,,12,34,322,*64
1521978034416,$GLGSV,3,2,10,11,45,026,,01,25,223,,20,11,028,,21,45,075,*6D
1521978034417,$GLGSV,3,3,10,03,02,336,,08,00,000,*6B
1521978034419,$GPGSA,A,3,15,17,19,30,,,,,,,,,1.9,1.7,0.9*3C
1521978034419,$GPVTG,55.9,T,55.9,M,6.4,N,11.8,K,D*1C
1521978034420,$GPRMC,114035.00,A,3109.841774,N,03432.075833,E,6.4,55.9,250318,2.8,E,D*00
1521978034420,$GPGGA,114035.00,3109.841774,N,03432.075833,E,2,04,1.7,163.0,M,17.0,M,,*63
1521978035406,$GPGSV,3,1,12,15,50,279,16,17,62,080,17,19,63,136,17,30,16,104,14*75
1521978035407,$GPGSV,3,2,12,01,00,000,,05,01,202,,06,09,142,,12,15,254,*72
1521978035407,$GPGSV,3,3,12,13,68,209,,20,03,262,,24,23,309,,28,25,046,*78
1521978035408,$GLGSV,3,1,10,10,11,077,,02,29,291,,22,33,153,,12,34,322,*64
1521978035408,$GLGSV,3,2,10,11,45,026,,01,25,223,,20,11,028,,21,45,075,*6D
1521978035409,$GLGSV,3,3,10,03,02,336,,08,00,000,*6B
1521978035410,$GPGSA,A,3,15,17,19,30,,,,,,,,,1.9,1.7,0.9*3C
1521978035411,$GPVTG,56.4,T,56.4,M,6.6,N,12.2,K,D*17
1521978035411,$GPRMC,114036.00,A,3109.842551,N,03432.078609,E,6.6,56.4,250318,2.8,E,D*03
1521978035412,$GPGGA,114036.00,3109.842551,N,03432.078609,E,2,04,1.7,163.0,M,17.0,M,,*6C
1521978036406,$GPGSV,3,1,12,15,50,279,16,17,62,080,17,19,63,136,17,30,16,104,14*75
1521978036406,$GPGSV,3,2,12,01,00,000,,05,01,202,,06,09,142,,12,15,254,*72
1521978036407,$GPGSV,3,3,12,13,68,209,,20,03,262,,24,23,309,,28,25,046,*78
1521978036408,$GLGSV,3,1,10,10,11,077,,02,29,291,,22,33,153,,12,34,322,*64
1521978036409,$GLGSV,3,2,10,11,45,026,,01,25,223,,20,11,028,,21,45,075,*6D
1521978036409,$GLGSV,3,3,10,03,02,336,,08,00,000,*6B
1521978036411,$GPGSA,A,3,15,17,19,30,,,,,,,,,1.9,1.7,0.9*3C
1521978036412,$GPVTG,57.2,T,57.2,M,6.3,N,11.6,K,D*15
1521978036412,$GPRMC,114037.00,A,3109.843095,N,03432.081221,E,6.3,57.2,250318,2.8,E,D*04
1521978036412,$GPGGA,114037.00,3109.843095,N,03432.081221,E,2,04,1.7,163.0,M,17.0,M,,*69
1521978037410,$GPGSV,3,1,12,15,50,279,16,17,62,080,17,19,63,136,16,30,16,104,14*74
1521978037411,$GPGSV,3,2,12,01,00,000,,05,01,202,,06,09,142,,12,15,254,*72
1521978037412,$GPGSV,3,3,12,13,68,209,,20,03,262,,24,23,309,,28,25,046,*78
1521978037413,$GLGSV,3,1,10,10,11,077,,02,29,291,,22,33,153,,12,34,322,*64
1521978037413,$GLGSV,3,2,10,11,45,026,,01,25,223,,20,11,028,,21,45,075,*6D
1521978037414,$GLGSV,3,3,10,03,02,336,,08,00,000,*6B
1521978037414,$GPGSA,A,3,15,17,19,30,,,,,,,,,2.0,1.8,0.9*39
1521978037415,$GPVTG,57.6,T,57.6,M,6.8,N,12.5,K,D*1E
1521978037416,$GPRMC,114038.00,A,3109.843686,N,03432.083856,E,6.8,57.6,250318,2.8,E,D*08
1521978037416,$GPGGA,114038.00,3109.843686,N,03432.083856,E,2,04,1.8,163.0,M,17.0,M,,*65
1521978038406,$GPGSV,3,1,12,15,50,279,16,17,62,080,17,19,63,136,16,30,16,104,14*74
1521978038407,$GPGSV,3,2,12,01,00,000,,05,01,202,,06,09,142,,12,15,254,*72
1521978038407,$GPGSV,3,3,12,13,68,209,,20,03,262,,24,23,309,,28,25,046,*78
1521978038408,$GLGSV,3,1,10,10,11,077,,02,29,291,,22,33,153,,12,34,322,*64
1521978038408,$GLGSV,3,2,10,11,45,026,,01,25,223,,20,11,028,,21,45,075,*6D
1521978038408,$GLGSV,3,3,10,03,02,336,,08,00,000,*6B
1521978038410,$GPGSA,A,3,15,17,19,30,,,,,,,,,2.0,1.8,0.9*39
1521978038411,$GPVTG,55.1,T,55.1,M,6.7,N,12.4,K,D*10
1521978038411,$GPRMC,114039.00,A,3109.844129,N,03432.086415,E,6.7,55.1,250318,2.8,E,D*08
1521978038412,$GPGGA,114039.00,3109.844129,N,03432.086415,E,2,04,1.8,163.0,M,17.0,M,,*6F
1521978039405,$GPGSV,3,1,12,15,50,279,16,17,62,080,17,19,63,136,16,30,16,104,14*74
1521978039405,$GPGSV,3,2,12,01,00,000,,05,01,202,,06,09,142,,12,15,254,*72
1521978039406,$GPGSV,3,3,12,13,68,209,,20,03,262,,24,23,309,,28,25,046,*78
1521978039406,$GLGSV,3,1,10,10,11,077,,02,29,291,,22,33,153,,12,34,322,*64
1521978039407,$GLGSV,3,2,10,11,45,026,,01,25,223,,20,11,028,,21,45,075,*6D
1521978039408,$GLGSV,3,3,10,03,02,336,,08,00,000,*6B
1521978039409,$GPGSA,A,3,15,17,19,30,,,,,,,,,3.5,3.3,1.0*3C
1521978039409,$GPVTG,51.0,T,51.0,M,6.7,N,12.4,K,D*10
1521978039410,$GPRMC,114040.00,A,3109.844672,N,03432.088820,E,6.7,51.0,250318,2.8,E,D*0E
1521978039410,$GPGGA,114040.00,3109.844672,N,03432.088820,E,2,04,3.3,163.0,M,17.0,M,,*65
1521978040412,$GPGSV,3,1,12,15,50,279,16,17,62,080,17,19,63,136,16,30,16,104,14*74
1521978040415,$GPGSV,3,2,12,01,00,000,,05,01,202,,06,09,142,,12,15,254,*72
1521978040417,$GPGSV,3,3,12,13,68,209,,20,03,262,,24,23,309,,28,25,046,*78
1521978040418,$GLGSV,3,1,10,10,11,077,,02,29,291,,22,33,153,,12,34,322,*64
1521978040419,$GLGSV,3,2,10,11,45,026,,01,25,223,,20,11,028,,21,45,075,*6D
1521978040420,$GLGSV,3,3,10,03,02,336,,08,00,000,*6B
1521978040424,$GPGSA,A,3,15,17,19,30,,,,,,,,,3.6,3.5,1.0*39
1521978040429,$GPVTG,45.2,T,45.2,M,6.7,N,12.5,K,D*11
1521978040431,$GPRMC,114041.00,A,3109.845330,N,03432.091075,E,6.7,45.2,250318,2.8,E,D*0A
1521978040432,$GPGGA,114041.00,3109.845330,N,03432.091075,E,2,04,3.5,163.0,M,17.0,M,,*60
1521978041411,$GPGSV,3,1,12,15,50,279,16,17,62,080,17,19,63,136,16,30,16,104,14*74
1521978041412,$GPGSV,3,2,12,01,00,000,,05,01,202,,06,09,142,,12,15,254,*72
1521978041412,$GPGSV,3,3,12,13,68,209,,20,03,262,,24,23,309,,28,25,046,*78
1521978041413,$GLGSV,3,1,09,10,11,077,,02,29,291,,22,33,151,,12,34,322,*6E
1521978041415,$GLGSV,3,2,09,11,44,028,,01,23,223,,20,10,026,,21,45,074,*62
1521978041416,$GLGSV,3,3,09,03,02,334,*59
1521978041416,$GPGSA,A,3,15,17,19,30,,,,,,,,,3.6,3.5,1.0*39
1521978041417,$GPVTG,40.7,T,40.7,M,6.8,N,12.7,K,D*1C
1521978041417,$GPRMC,114042.00,A,3109.846073,N,03432.093212,E,6.8,40.7,250318,2.8,E,D*00
1521978041417,$GPGGA,114042.00,3109.846073,N,03432.093212,E,2,04,3.5,163.0,M,17.0,M,,*65
1521978042409,$GPGSV,3,1,12,15,50,279,16,17,62,080,17,19,63,136,16,30,16,104,14*74
1521978042410,$GPGSV,3,2,12,01,00,000,,05,01,202,,06,09,142,,12,15,254,*72
1521978042410,$GPGSV,3,3,12,13,68,209,,20,03,262,,24,23,309,,28,25,046,*78
1521978042410,$GLGSV,3,1,09,10,11,077,,02,29,291,,22,33,151,,12,34,322,*6E
1521978042414,$GLGSV,3,2,09,11,44,028,,01,23,223,,20,10,026,,21,45,074,*62
1521978042418,$GLGSV,3,3,09,03,02,334,*59
1521978042420,$GPGSA,A,3,15,17,19,30,,,,,,,,,3.6,3.5,1.0*39
1521978042423,$GPVTG,35.8,T,35.8,M,6.8,N,12.6,K,D*1D
1521978042424,$GPRMC,114043.00,A,3109.846842,N,03432.095250,E,6.8,35.8,250318,2.8,E,D*06
1521978042424,$GPGGA,114043.00,3109.846842,N,03432.095250,E,2,04,3.5,163.0,M,17.0,M,,*6E
1521978043402,$GPGSV,3,1,12,15,50,279,16,17,62,080,17,19,63,136,16,30,16,104,14*74
1521978043402,$GPGSV,3,2,12,01,00,000,,05,01,202,,06,09,142,,12,15,254,*72
1521978043403,$GPGSV,3,3,12,13,68,209,,20,03,262,,24,23,309,,28,25,046,*78
1521978043404,$GLGSV,3,1,09,10,11,077,,02,29,291,,22,33,151,,12,34,322,*6E
1521978043405,$GLGSV,3,2,09,11,44,028,,01,23,223,,20,10,026,,21,45,074,*62
1521978043405,$GLGSV,3,3,09,03,02,334,*59
1521978043412,$GPGSA,A,3,15,17,19,30,,,,,,,,,20.0,20.0,1.0*3A
1521978043413,$GPVTG,31.9,T,31.9,M,6.8,N,12.6,K,D*1D
1521978043414,$GPRMC,114044.00,A,3109.847612,N,03432.097200,E,6.8,31.9,250318,2.8,E,D*09
1521978043415,$GPGGA,114044.00,3109.847612,N,03432.097200,E,2,04,20.0,163.0,M,17.0,M,,*50
1521978044403,$GPGSV,3,1,12,15,50,279,16,17,62,080,17,19,63,136,16,30,16,104,14*74
1521978044405,$GPGSV,3,2,12,01,00,000,,05,01,202,,06,09,142,,12,15,254,*72
1521978044406,$GPGSV,3,3,12,13,68,209,,20,03,262,,24,23,309,,28,25,046,*78
1521978044406,$GLGSV,3,1,09,10,11,077,,02,29,291,,22,33,151,,12,34,322,*6E
1521978044407,$GLGSV,3,2,09,11,44,028,,01,23,223,,20,10,026,,21,45,074,*62
1521978044408,$GLGSV,3,3,09,03,02,334,*59
1521978044408,$GPGSA,A,1,,,,,,,,,,,,,,,*1E
1521978044408,$GPVTG,,T,,M,,N,,K,N*2C
1521978044409,$GPRMC,,V,,,,,,,,,,N*53
1521978044409,$GPGGA,,,,,,0,,,,,,,,*66
1521978045407,$GPGSV,3,1,12,15,50,279,16,17,62,080,17,19,63,136,16,30,16,104,14*74
1521978045408,$GPGSV,3,2,12,01,00,000,,05,01,202,,06,09,142,,12,15,254,*72
1521978045411,$GPGSV,3,3,12,13,68,209,,20,03,262,,24,23,309,,28,25,046,*78
1521978045411,$GLGSV,3,1,09,10,11,077,,02,29,291,,22,33,151,,12,34,322,*6E
1521978045412,$GLGSV,3,2,09,11,44,028,,01,23,223,,20,10,026,,21,45,074,*62
