SiRFLive Version: SiRFLive 2.06P1 Marketing
Friday, June 17, 2016
PC: ROI_KCG
Physical Connection: UART

DUT Name: SiRF_EVK
$GPGSV,3,1,10,05,28,243,41,07,20,081,37,13,57,320,35,15,22,316,40*7E
$GPGSV,3,2,10,17,40,144,22,19,21,171,34,20,17,290,30,28,67,023,39*7D
$GPGSV,3,3,10,30,42,062,34,33,24,246,36,,,,,,,,*7D
$GLGSV,2,1,08,74,31,040,37,66,15,330,,76,14,277,,75,47,331,36*68
$GLGSV,2,2,08,65,51,276,38,84,26,068,,85,24,125,39,72,36,202,33*63
06/17/2016 09:17:17.649	(1)	$PSRF125*21
06/17/2016 09:17:17.852	(255)	Cannot process message $GNGSA,A,3,,,,,,,,,,,,,1.7,0.8,1.5*26
$GPRMC,061718.800,A,3205.01920,N,03448.14943,E,0.1,0.0,170616,,A*4B
$GPGGA,061718.800,3205.01920,N,03448.14943,E,1,12,0.8,051.00,M,17.1,M,,*6B
$GNGSA,A,3,30,15,28,05,13,20,07,,,,,,1.7,0.8,1.5*29
$GNGSA,A,3,85,75,65,72,74,,,,,,,,1.7,0.8,1.5*2C
$GNGSA,A,3,,,,,,,,,,,,,1.7,0.8,1.5*26
$GPGSV,3,1,10,05,28,243,42,07,20,081,38,13,57,320,37,15,22,316,40*70
$GPGSV,3,2,10,17,40,144,,19,21,171,35,20,17,290,30,28,67,023,36*73
$GPGSV,3,3,10,30,42,062,34,33,24,246,35,,,,,,,,*7E
$GLGSV,2,1,08,74,31,040,37,66,15,330,,76,14,277,,75,47,331,36*68
$GLGSV,2,2,08,65,51,276,38,84,26,068,,85,24,125,41,72,36,202,33*6C
06/17/2016 09:17:18.351	(255)	Cannot process message $GNGSA,A,3,,,,,,,,,,,,,1.5,0.7,1.3*2D
$GPRMC,061719.200,A,3205.01862,N,03448.14892,E,0.0,0.0,170616,,A*4B
$GPGGA,061719.200,3205.01862,N,03448.14892,E,1,14,0.7,051.22,M,17.1,M,,*63
$GNGSA,A,3,30,15,17,28,05,13,20,07,,,,,1.5,0.7,1.3*24
$GNGSA,A,3,85,75,65,66,72,74,,,,,,,1.5,0.7,1.3*27
$GNGSA,A,3,,,,,,,,,,,,,1.5,0.7,1.3*2D
$GPGSV,3,1,10,05,28,243,43,07,20,081,38,13,57,320,37,15,22,316,40*71
$GPGSV,3,2,10,17,40,144,23,19,21,171,34,20,17,290,30,28,67,023,36*73
$GPGSV,3,3,10,30,42,062,33,33,24,246,37,,,,,,,,*7B
$GLGSV,2,1,08,74,31,040,38,66,15,330,30,76,14,277,,75,47,331,36*64
$GLGSV,2,2,08,65,51,276,38,84,26,068,,85,24,125,41,72,36,202,35*6A
06/17/2016 09:17:18.851	(255)	Cannot process message $GNGSA,A,3,,,,,,,,,,,,,1.5,0.7,1.3*2D
$GPRMC,061719.600,A,3205.01863,N,03448.14892,E,0.1,0.0,170616,,A*4F
$GPGGA,061719.600,3205.01863,N,03448.14892,E,1,14,0.7,051.19,M,17.1,M,,*6E
$GNGSA,A,3,30,15,17,28,05,13,20,07,,,,,1.5,0.7,1.3*24
$GNGSA,A,3,85,75,65,66,72,74,,,,,,,1.5,0.7,1.3*27
$GNGSA,A,3,,,,,,,,,,,,,1.5,0.7,1.3*2D
$GPGSV,3,1,10,05,28,243,44,07,20,081,38,13,57,320,37,15,22,316,40*76
$GPGSV,3,2,10,17,40,144,23,19,21,171,34,20,17,290,30,28,67,023,36*73
$GPGSV,3,3,10,30,42,062,33,33,24,246,37,,,,,,,,*7B
$GLGSV,2,1,08,74,31,040,38,66,15,330,30,76,14,277,,75,47,331,36*64
$GLGSV,2,2,08,65,51,276,39,84,26,068,,85,24,125,41,72,36,202,36*68
06/17/2016 09:17:19.226	(255)	Cannot process message $GNGSA,A,3,,,,,,,,,,,,,1.5,0.7,1.3*2D
$GPRMC,061720.200,A,3205.01864,N,03448.14893,E,0.1,0.0,170616,,A*47
$GPGGA,061720.200,3205.01864,N,03448.14893,E,1,14,0.7,051.14,M,17.1,M,,*6B
$GNGSA,A,3,30,15,17,28,05,13,20,07,,,,,1.5,0.7,1.3*24
$GNGSA,A,3,85,75,65,66,72,74,,,,,,,1.5,0.7,1.3*27
$GNGSA,A,3,,,,,,,,,,,,,1.5,0.7,1.3*2D
$GPGSV,3,1,10,05,28,243,45,07,20,081,38,13,57,320,38,15,22,316,40*78
$GPGSV,3,2,10,17,40,144,23,19,21,171,33,20,17,290,30,28,67,023,36*74
$GPGSV,3,3,10,30,42,062,32,33,24,246,38,,,,,,,,*75
$GLGSV,2,1,08,74,31,040,38,66,15,330,30,76,14,277,,75,47,331,36*64
$GLGSV,2,2,08,65,51,276,38,84,26,068,,85,24,125,41,72,36,202,36*69
06/17/2016 09:17:19.757	(255)	Cannot process message $GNGSA,A,3,,,,,,,,,,,,,1.5,0.7,1.3*2D
$GPRMC,061720.600,A,3205.01863,N,03448.14897,E,0.6,108.3,170616,,A*4D
$GPGGA,061720.600,3205.01863,N,03448.14897,E,1,14,0.7,051.12,M,17.1,M,,*6A
$GNGSA,A,3,30,15,17,28,05,13,20,07,,,,,1.5,0.7,1.3*24
$GNGSA,A,3,85,75,65,66,72,74,,,,,,,1.5,0.7,1.3*27
$GNGSA,A,3,,,,,,,,,,,,,1.5,0.7,1.3*2D
$GPGSV,3,1,10,05,28,243,45,07,20,081,38,13,57,320,37,15,22,316,40*77
$GPGSV,3,2,10,17,40,144,23,19,21,171,32,20,17,290,30,28,67,023,36*75
$GPGSV,3,3,10,30,42,062,32,33,24,246,38,,,,,,,,*75
$GLGSV,2,1,08,74,31,040,38,66,15,330,30,76,14,277,,75,47,331,36*64
$GLGSV,2,2,08,65,51,276,38,84,26,068,27,85,24,125,42,72,36,202,36*6F
06/17/2016 09:17:20.195	(255)	Cannot process message $GNGSA,A,3,,,,,,,,,,,,,1.5,0.7,1.3*2D
$GPRMC,061721.000,A,3205.01863,N,03448.14911,E,1.6,87.5,170616,,A*74
$GPGGA,061721.000,3205.01863,N,03448.14911,E,1,14,0.7,051.11,M,17.1,M,,*61
$GNGSA,A,3,30,15,17,28,05,13,20,07,,,,,1.5,0.7,1.3*24
$GNGSA,A,3,85,75,65,66,72,74,,,,,,,1.5,0.7,1.3*27
$GNGSA,A,3,,,,,,,,,,,,,1.5,0.7,1.3*2D
$GPGSV,3,1,10,05,28,243,44,07,20,081,38,13,57,320,37,15,22,316,39*78
$GPGSV,3,2,10,17,40,144,24,19,21,171,32,20,17,290,29,28,67,023,36*7A
$GPGSV,3,3,10,30,42,062,32,33,24,246,36,,,,,,,,*7B
$GLGSV,2,1,08,74,31,040,37,66,15,330,30,76,14,277,,75,47,331,36*6B
$GLGSV,2,2,08,65,51,276,38,84,26,068,26,85,24,125,42,72,36,202,36*6E
06/17/2016 09:17:20.601	(255)	Cannot process message $GNGSA,A,3,,,,,,,,,,,,,1.5,0.7,1.3*2D
$GPRMC,061721.600,A,3205.01848,N,03448.14923,E,1.7,42.1,170616,,A*76
$GPGGA,061721.600,3205.01848,N,03448.14923,E,1,14,0.7,050.12,M,17.1,M,,*6D
$GNGSA,A,3,30,15,17,28,05,13,20,07,,,,,1.5,0.7,1.3*24
$GNGSA,A,3,85,75,65,66,72,74,,,,,,,1.5,0.7,1.3*27
$GNGSA,A,3,,,,,,,,,,,,,1.5,0.7,1.3*2D
$GPGSV,3,1,10,05,28,243,44,07,20,081,39,13,57,320,38,15,22,316,39*76
$GPGSV,3,2,10,17,40,144,25,19,21,171,32,20,17,290,29,28,67,023,36*7B
$GPGSV,3,3,10,30,42,062,32,33,24,246,37,,,,,,,,*7A
$GLGSV,2,1,08,74,31,040,37,66,15,330,30,76,14,277,,75,47,331,36*6B
$GLGSV,2,2,08,65,51,276,38,84,26,068,26,85,24,125,40,72,36,202,34*6E
06/17/2016 09:17:21.039	(255)	Cannot process message $GNGSA,A,3,,,,,,,,,,,,,1.5,0.7,1.3*2D
$GPRMC,061722.000,A,3205.01865,N,03448.14937,E,2.0,28.7,170616,,A*77
$GPGGA,061722.000,3205.01865,N,03448.14937,E,1,14,0.7,050.04,M,17.1,M,,*65
$GNGSA,A,3,30,15,17,28,05,13,20,07,,,,,1.5,0.7,1.3*24
$GNGSA,A,3,85,75,65,66,72,74,,,,,,,1.5,0.7,1.3*27
$GNGSA,A,3,,,,,,,,,,,,,1.5,0.7,1.3*2D
$GPGSV,3,1,10,05,28,243,43,07,20,081,39,13,57,320,38,15,22,316,38*70
$GPGSV,3,2,10,17,40,144,25,19,21,171,32,20,17,290,29,28,67,023,36*7B
$GPGSV,3,3,10,30,42,063,32,33,24,246,37,,,,,,,,*7B
$GLGSV,2,1,08,74,31,040,37,66,15,330,30,76,14,277,,75,47,331,36*6B
$GLGSV,2,2,08,65,51,276,38,84,26,068,26,85,24,125,40,72,36,202,34*6E
06/17/2016 09:17:21.507	(255)	Cannot process message $GNGSA,A,3,,,,,,,,,,,,,1.6,0.8,1.4*26
$GPRMC,061722.400,A,3205.01883,N,03448.14957,E,2.6,53.9,170616,,A*79
$GPGGA,061722.400,3205.01883,N,03448.14957,E,1,13,0.8,049.91,M,17.1,M,,*63
$GNGSA,A,3,30,15,17,28,05,13,20,07,,,,,1.6,0.8,1.4*2F
$GNGSA,A,3,75,65,66,72,74,,,,,,,,1.6,0.8,1.4*21
$GNGSA,A,3,,,,,,,,,,,,,1.6,0.8,1.4*26
$GPGSV,3,1,10,05,28,243,43,07,20,081,39,13,57,320,38,15,22,316,37*7F
$GPGSV,3,2,10,17,40,144,27,19,21,171,32,20,17,290,29,28,67,023,36*79
$GPGSV,3,3,10,30,42,063,31,33,24,246,35,,,,,,,,*7A
$GLGSV,2,1,08,74,31,040,38,66,15,330,30,76,14,277,,75,47,331,36*64
$GLGSV,2,2,08,65,51,276,38,84,26,068,25,85,24,125,,72,36,202,34*69
06/17/2016 09:17:21.882	(255)	Cannot process message $GNGSA,A,3,,,,,,,,,,,,,1.5,0.7,1.3*2D
$GPRMC,061722.800,A,3205.01899,N,03448.14982,E,2.2,51.5,170616,,A*7C
$GPGGA,061722.800,3205.01899,N,03448.14982,E,1,14,0.7,049.75,M,17.1,M,,*6E
$GNGSA,A,3,30,15,17,28,05,13,20,07,,,,,1.5,0.7,1.3*24
$GNGSA,A,3,85,75,65,66,72,74,,,,,,,1.5,0.7,1.3*27
$GNGSA,A,3,,,,,,,,,,,,,1.5,0.7,1.3*2D
$GPGSV,3,1,10,05,28,243,43,07,20,081,40,13,57,320,39,15,22,316,37*70
$GPGSV,3,2,10,17,40,144,27,19,21,171,32,20,17,290,29,28,67,023,36*79
$GPGSV,3,3,10,30,42,063,31,33,24,246,36,,,,,,,,*79
$GLGSV,2,1,08,74,31,040,37,66,15,330,31,76,14,277,,75,47,331,37*6B
$GLGSV,2,2,08,65,51,276,38,84,26,068,25,85,24,125,38,72,36,202,34*62
06/17/2016 09:17:22.383	(255)	Cannot process message $GNGSA,A,3,,,,,,,,,,,,,1.5,0.7,1.3*2D
$GPRMC,061723.200,A,3205.01911,N,03448.15006,E,2.2,66.2,170616,,A*71
$GPGGA,061723.200,3205.01911,N,03448.15006,E,1,14,0.7,049.55,M,17.1,M,,*62
$GNGSA,A,3,30,15,17,28,05,13,20,07,,,,,1.5,0.7,1.3*24
$GNGSA,A,3,85,75,65,66,72,74,,,,,,,1.5,0.7,1.3*27
$GNGSA,A,3,,,,,,,,,,,,,1.5,0.7,1.3*2D
$GPGSV,3,1,10,05,28,243,42,07,20,081,40,13,57,320,39,15,22,316,37*71
$GPGSV,3,2,10,17,40,144,28,19,21,171,32,20,17,290,29,28,67,023,38*78
$GPGSV,3,3,10,30,42,063,31,33,24,246,39,,,,,,,,*76
$GLGSV,2,1,08,74,31,040,38,66,15,330,31,76,14,277,,75,47,331,37*64
$GLGSV,2,2,08,65,51,276,38,84,26,068,24,85,24,125,37,72,36,202,34*6C
06/17/2016 09:17:23.008	(255)	Cannot process message $GNGSA,A,3,,,,,,,,,,,,,1.5,0.7,1.3*2D
$GPRMC,061723.800,A,3205.01950,N,03448.15029,E,2.3,65.7,170616,,A*74
$GPGGA,061723.800,3205.01950,N,03448.15029,E,1,14,0.7,048.07,M,17.1,M,,*66
$GNGSA,A,3,30,15,17,28,05,13,20,07,,,,,1.5,0.7,1.3*24
$GNGSA,A,3,85,75,65,66,72,74,,,,,,,1.5,0.7,1.3*27
$GNGSA,A,3,,,,,,,,,,,,,1.5,0.7,1.3*2D
$GPGSV,3,1,10,05,28,243,42,07,20,081,40,13,57,320,38,15,22,316,37*70
$GPGSV,3,2,10,17,40,144,30,19,21,171,32,20,17,290,29,28,67,023,40*7E
$GPGSV,3,3,10,30,42,063,31,33,24,246,37,,,,,,,,*78
$GLGSV,2,1,08,74,31,040,38,66,15,330,31,76,14,277,,75,47,331,37*64
$GLGSV,2,2,08,65,51,276,38,84,26,068,24,85,24,125,37,72,36,202,34*6C
06/17/2016 09:17:23.415	(255)	Cannot process message $GNGSA,A,3,,,,,,,,,,,,,1.4,0.7,1.2*2D
$GPRMC,061724.200,A,3205.01958,N,03448.15058,E,2.3,75.3,170616,,A*72
$GPGGA,061724.200,3205.01958,N,03448.15058,E,1,15,0.7,047.80,M,17.1,M,,*64
$GNGSA,A,3,30,15,17,28,05,13,20,07,,,,,1.4,0.7,1.2*24
$GNGSA,A,3,85,75,65,66,72,74,76,,,,,,1.4,0.7,1.2*26
$GNGSA,A,3,,,,,,,,,,,,,1.4,0.7,1.2*2D
$GPGSV,3,1,10,05,28,243,42,07,20,081,41,13,57,320,38,15,22,316,36*70
$GPGSV,3,2,10,17,40,144,30,19,21,171,32,20,17,290,29,28,67,023,40*7E
$GPGSV,3,3,10,30,42,063,32,33,24,246,41,,,,,,,,*7A
$GLGSV,2,1,08,74,31,040,39,66,15,330,30,76,14,277,20,75,47,331,36*67
$GLGSV,2,2,08,65,51,276,38,84,26,068,24,85,24,125,37,72,36,202,33*6B
06/17/2016 09:17:23.946	(255)	Cannot process message $GNGSA,A,3,,,,,,,,,,,,,1.5,0.7,1.3*2D
$GPRMC,061724.800,A,3205.01972,N,03448.15099,E,2.3,60.4,170616,,A*7E
$GPGGA,061724.800,3205.01972,N,03448.15099,E,1,14,0.7,047.35,M,17.1,M,,*64
$GNGSA,A,3,30,15,17,28,05,13,20,07,,,,,1.5,0.7,1.3*24
$GNGSA,A,3,85,75,65,66,72,74,,,,,,,1.5,0.7,1.3*27
$GNGSA,A,3,,,,,,,,,,,,,1.5,0.7,1.3*2D
$GPGSV,3,1,10,05,28,243,43,07,20,081,41,13,57,320,37,15,22,316,35*7D
$GPGSV,3,2,10,17,40,144,32,19,21,171,32,20,17,290,29,28,67,023,41*7D
$GPGSV,3,3,10,30,42,063,31,33,24,246,37,,,,,,,,*78
$GLGSV,2,1,08,74,31,040,39,66,15,330,30,76,14,277,,75,47,331,36*65
$GLGSV,2,2,08,65,51,276,38,84,26,068,24,85,24,125,37,72,36,202,34*6C
06/17/2016 09:17:24.352	(255)	Cannot process message $GNGSA,A,3,,,,,,,,,,,,,1.4,0.7,1.2*2D
$GPRMC,061725.200,A,3205.01981,N,03448.15125,E,2.1,79.9,170616,,A*78
$GPGGA,061725.200,3205.01981,N,03448.15125,E,1,15,0.7,047.02,M,17.1,M,,*60
$GNGSA,A,3,30,15,17,28,05,13,20,07,,,,,1.4,0.7,1.2*24
$GNGSA,A,3,85,75,65,66,72,74,76,,,,,,1.4,0.7,1.2*26
$GNGSA,A,3,,,,,,,,,,,,,1.4,0.7,1.2*2D
$GPGSV,3,1,10,05,28,243,42,07,20,081,41,13,57,320,37,15,22,316,34*7D
$GPGSV,3,2,10,17,40,144,35,19,21,171,31,20,17,290,29,28,67,023,41*79
$GPGSV,3,3,10,30,42,063,31,33,24,246,40,,,,,,,,*78
$GLGSV,2,1,08,74,31,040,40,66,15,330,30,76,14,277,21,75,47,331,36*68
$GLGSV,2,2,08,65,51,276,38,84,26,068,24,85,24,125,37,72,36,202,34*6C
06/17/2016 09:17:24.759	(255)	Cannot process message $GNGSA,A,3,,,,,,,,,,,,,1.5,0.7,1.3*2D
$GPRMC,061725.600,A,3205.01986,N,03448.15154,E,2.4,77.5,170616,,A*7A
$GPGGA,061725.600,3205.01986,N,03448.15154,E,1,14,0.7,046.67,M,17.1,M,,*66
$GNGSA,A,3,30,15,17,28,05,13,20,07,,,,,1.5,0.7,1.3*24
$GNGSA,A,3,85,75,65,66,72,74,,,,,,,1.5,0.7,1.3*27
$GNGSA,A,3,,,,,,,,,,,,,1.5,0.7,1.3*2D
$GPGSV,3,1,10,05,28,243,42,07,20,081,41,13,57,320,36,15,22,316,34*7C
$GPGSV,3,2,10,17,40,144,35,19,21,171,31,20,17,290,29,28,67,023,40*78
$GPGSV,3,3,10,30,42,063,31,33,24,246,38,,,,,,,,*77
$GLGSV,2,1,08,74,31,040,40,66,15,330,31,76,14,277,,75,47,331,37*6B
$GLGSV,2,2,08,65,51,276,38,84,26,068,25,85,24,125,37,72,36,202,33*6A
06/17/2016 09:17:25.259	(255)	Cannot process message $GNGSA,A,3,,,,,,,,,,,,,1.5,0.7,1.3*2D
$GPRMC,061726.000,A,3205.01979,N,03448.15228,E,2.4,82.4,170616,,A*7C
$GPGGA,061726.000,3205.01979,N,03448.15228,E,1,14,0.7,046.34,M,17.1,M,,*6D
$GNGSA,A,3,30,15,17,28,05,13,20,07,,,,,1.5,0.7,1.3*24
$GNGSA,A,3,85,75,65,66,72,74,,,,,,,1.5,0.7,1.3*27
$GNGSA,A,3,,,,,,,,,,,,,1.5,0.7,1.3*2D
$GPGSV,3,1,10,05,28,243,42,07,20,081,41,13,57,320,36,15,22,316,34*7C
$GPGSV,3,2,10,17,40,144,36,19,21,171,31,20,17,290,29,28,67,023,40*7B
$GPGSV,3,3,10,30,42,063,30,33,24,246,38,,,,,,,,*76
$GLGSV,2,1,08,74,31,040,40,66,15,330,32,76,14,277,,75,47,331,37*68
$GLGSV,2,2,08,65,51,276,38,84,26,068,24,85,24,125,37,72,36,202,33*6B
06/17/2016 09:17:25.696	(255)	Cannot process message $GNGSA,A,3,,,,,,,,,,,,,1.5,0.7,1.3*2D
$GPRMC,061726.400,A,3205.01984,N,03448.15258,E,2.3,76.0,170616,,A*75
$GPGGA,061726.400,3205.01984,N,03448.15258,E,1,14,0.7,046.01,M,17.1,M,,*6A
$GNGSA,A,3,30,15,17,28,05,13,20,07,,,,,1.5,0.7,1.3*24
$GNGSA,A,3,85,75,65,66,72,74,,,,,,,1.5,0.7,1.3*27
$GNGSA,A,3,,,,,,,,,,,,,1.5,0.7,1.3*2D
$GPGSV,3,1,10,05,28,243,41,07,20,081,41,13,57,320,36,15,22,316,34*7F
$GPGSV,3,2,10,17,40,144,37,19,21,171,30,20,17,290,29,28,67,023,39*75
$GPGSV,3,3,10,30,42,063,29,33,24,246,41,,,,,,,,*70
$GLGSV,2,1,08,74,31,040,40,66,15,330,32,76,14,277,,75,47,331,39*66
$GLGSV,2,2,08,65,51,276,37,84,26,068,24,85,24,125,38,72,36,202,33*6B
06/17/2016 09:17:26.071	(255)	Cannot process message $GNGSA,A,3,,,,,,,,,,,,,1.5,0.7,1.3*2D
$GPRMC,061727.000,A,3205.01995,N,03448.15303,E,2.3,72.8,170616,,A*73
$GPGGA,061727.000,3205.01995,N,03448.15303,E,1,14,0.7,045.54,M,17.1,M,,*63
$GNGSA,A,3,30,15,17,28,05,13,20,07,,,,,1.5,0.7,1.3*24
$GNGSA,A,3,85,75,65,66,72,74,,,,,,,1.5,0.7,1.3*27
$GNGSA,A,3,,,,,,,,,,,,,1.5,0.7,1.3*2D
$GPGSV,3,1,10,05,28,243,41,07,20,081,41,13,57,320,36,15,22,316,33*78
$GPGSV,3,2,10,17,40,144,37,19,21,171,30,20,17,290,29,28,67,023,39*75
$GPGSV,3,3,10,30,42,063,29,33,24,246,37,,,,,,,,*71
$GLGSV,2,1,08,74,31,040,39,66,15,330,33,76,14,277,,75,47,331,41*66
$GLGSV,2,2,08,65,51,276,37,84,26,068,24,85,24,125,38,72,36,202,33*6B
06/17/2016 09:17:26.446	(255)	Cannot process message $GNGSA,A,3,,,,,,,,,,,,,1.5,0.7,1.3*2D
$GPRMC,061727.400,A,3205.02001,N,03448.15332,E,2.3,82.6,170616,,A*73
$GPGGA,061727.400,3205.02001,N,03448.15332,E,1,14,0.7,045.26,M,17.1,M,,*67
$GNGSA,A,3,30,15,17,28,05,13,20,07,,,,,1.5,0.7,1.3*24
$GNGSA,A,3,85,75,65,66,72,74,,,,,,,1.5,0.7,1.3*27
$GNGSA,A,3,,,,,,,,,,,,,1.5,0.7,1.3*2D
$GPGSV,3,1,10,05,28,243,41,07,20,081,42,13,57,320,37,15,22,316,34*7D
$GPGSV,3,2,10,17,40,144,37,19,21,171,29,20,17,290,29,28,67,023,38*7C
$GPGSV,3,3,10,30,42,063,29,33,24,246,38,,,,,,,,*7E
$GLGSV,2,1,08,74,31,040,39,66,15,330,35,76,14,277,,75,47,331,41*60
$GLGSV,2,2,08,65,51,276,37,84,26,068,24,85,24,125,38,72,36,202,33*6B
06/17/2016 09:17:26.946	(255)	Cannot process message $GNGSA,A,3,,,,,,,,,,,,,1.5,0.7,1.4*2A
$GPRMC,061727.800,A,3205.02003,N,03448.15363,E,2.4,86.3,170616,,A*7F
$GPGGA,061727.800,3205.02003,N,03448.15363,E,1,13,0.7,044.99,M,17.1,M,,*6F
$GNGSA,A,3,30,17,28,05,13,20,07,,,,,,1.5,0.7,1.4*27
$GNGSA,A,3,85,75,65,66,72,74,,,,,,,1.5,0.7,1.4*20
$GNGSA,A,3,,,,,,,,,,,,,1.5,0.7,1.4*2A
$GPGSV,3,1,10,05,28,243,41,07,20,081,42,13,57,320,37,15,22,316,*7A
$GPGSV,3,2,10,17,40,144,37,19,21,171,29,20,17,290,29,28,67,023,37*73
$GPGSV,3,3,10,30,42,063,29,33,24,246,37,,,,,,,,*71
$GLGSV,2,1,08,74,31,040,39,66,15,330,36,76,14,277,,75,47,331,42*60
$GLGSV,2,2,08,65,51,276,37,84,26,068,24,85,24,125,38,72,36,202,33*6B
06/17/2016 09:17:27.415	(255)	Cannot process message $GNGSA,A,3,,,,,,,,,,,,,1.4,0.7,1.3*2C
$GPRMC,061728.200,A,3205.02128,N,03448.15375,E,2.0,85.1,170616,,A*70
$GPGGA,061728.200,3205.02128,N,03448.15375,E,1,14,0.7,043.10,M,17.1,M,,*64
$GNGSA,A,3,30,17,28,05,13,20,07,,,,,,1.4,0.7,1.3*21
$GNGSA,A,3,85,75,65,66,72,74,76,,,,,,1.4,0.7,1.3*27
$GNGSA,A,3,,,,,,,,,,,,,1.4,0.7,1.3*2C
$GPGSV,3,1,10,05,28,243,41,07,20,081,42,13,57,320,37,15,22,316,*7A
$GPGSV,3,2,10,17,40,144,38,19,21,171,29,20,17,290,29,28,67,023,37*7C
$GPGSV,3,3,10,30,42,063,29,33,24,246,36,,,,,,,,*70
$GLGSV,2,1,08,74,31,040,39,66,15,330,36,76,14,277,21,75,47,331,42*63
$GLGSV,2,2,08,65,51,276,37,84,26,068,25,85,24,125,38,72,36,202,33*6A
06/17/2016 09:17:27.790	(255)	Cannot process message $GNGSA,A,3,,,,,,,,,,,,,1.4,0.7,1.3*2C
$GPRMC,061728.600,A,3205.02132,N,03448.15404,E,2.5,75.8,170616,,A*7D
$GPGGA,061728.600,3205.02132,N,03448.15404,E,1,14,0.7,042.88,M,17.1,M,,*6A
$GNGSA,A,3,30,17,28,05,13,20,07,,,,,,1.4,0.7,1.3*21
$GNGSA,A,3,85,75,65,66,72,74,76,,,,,,1.4,0.7,1.3*27
$GNGSA,A,3,,,,,,,,,,,,,1.4,0.7,1.3*2C
$GPGSV,3,1,10,05,28,243,41,07,20,081,42,13,57,320,37,15,22,316,*7A
$GPGSV,3,2,10,17,40,144,38,19,21,171,28,20,17,290,29,28,67,023,37*7D
$GPGSV,3,3,10,30,42,063,29,33,24,246,38,,,,,,,,*7E
$GLGSV,2,1,08,74,31,040,38,66,15,330,37,76,14,277,21,75,47,331,42*63
$GLGSV,2,2,08,65,51,276,37,84,26,068,25,85,24,125,38,72,36,202,34*6D
06/17/2016 09:17:28.446	(255)	Cannot process message $GNGSA,A,3,,,,,,,,,,,,,1.4,0.7,1.2*2D
$GPRMC,061729.200,A,3205.02147,N,03448.15451,E,2.7,64.0,170616,,A*70
$GPGGA,061729.200,3205.02147,N,03448.15451,E,1,15,0.7,042.59,M,17.1,M,,*60
$GNGSA,A,3,30,15,17,28,05,13,20,07,,,,,1.4,0.7,1.2*24
$GNGSA,A,3,85,75,65,66,72,74,76,,,,,,1.4,0.7,1.2*26
$GNGSA,A,3,,,,,,,,,,,,,1.4,0.7,1.2*2D
$GPGSV,3,1,10,05,28,243,41,07,20,081,42,13,57,320,37,15,22,316,34*7D
$GPGSV,3,2,10,17,40,144,38,19,21,171,28,20,17,290,30,28,67,023,36*74
$GPGSV,3,3,10,30,42,063,29,33,24,246,35,,,,,,,,*73
$GLGSV,2,1,08,74,31,040,38,66,15,330,40,76,14,277,21,75,47,331,42*63
$GLGSV,2,2,08,65,51,276,37,84,26,068,25,85,24,125,38,72,36,202,33*6A
06/17/2016 09:17:28.853	(255)	Cannot process message $GNGSA,A,3,,,,,,,,,,,,,1.4,0.7,1.2*2D
$GPRMC,061729.600,A,3205.02165,N,03448.15479,E,2.8,45.0,170616,,A*72
$GPGGA,061729.600,3205.02165,N,03448.15479,E,1,15,0.7,042.42,M,17.1,M,,*64
$GNGSA,A,3,30,15,17,28,05,13,20,07,,,,,1.4,0.7,1.2*24
$GNGSA,A,3,85,75,65,66,72,74,76,,,,,,1.4,0.7,1.2*26
$GNGSA,A,3,,,,,,,,,,,,,1.4,0.7,1.2*2D
$GPGSV,3,1,10,05,28,243,41,07,20,081,42,13,57,320,37,15,22,316,35*7C
$GPGSV,3,2,10,17,40,144,38,19,21,171,29,20,17,290,30,28,67,023,33*70
$GPGSV,3,3,10,30,42,063,29,33,24,246,34,,,,,,,,*72
$GLGSV,2,1,08,74,31,040,38,66,15,330,40,76,14,277,22,75,47,331,42*60
$GLGSV,2,2,08,65,51,276,37,84,26,068,25,85,24,125,37,72,36,202,34*62
06/17/2016 09:17:29.353	(255)	Cannot process message $GNGSA,A,3,,,,,,,,,,,,,1.4,0.7,1.2*2D
$GPRMC,061730.200,A,3205.02203,N,03448.15506,E,2.8,15.5,170616,,A*74
$GPGGA,061730.200,3205.02203,N,03448.15506,E,1,15,0.7,042.18,M,17.1,M,,*6D
$GNGSA,A,3,30,15,17,28,05,13,20,07,,,,,1.4,0.7,1.2*24
$GNGSA,A,3,85,75,65,66,72,74,76,,,,,,1.4,0.7,1.2*26
$GNGSA,A,3,,,,,,,,,,,,,1.4,0.7,1.2*2D
$GPGSV,3,1,10,05,28,243,41,07,20,081,41,13,57,320,37,15,22,316,35*7F
$GPGSV,3,2,10,17,40,144,39,19,21,171,28,20,17,290,29,28,67,023,32*79
$GPGSV,3,3,10,30,42,063,29,33,24,246,34,,,,,,,,*72
$GLGSV,2,1,08,74,31,040,38,66,15,330,40,76,14,277,22,75,47,331,41*63
$GLGSV,2,2,08,65,51,276,36,84,26,068,25,85,24,125,38,72,36,202,33*6B
06/17/2016 09:17:29.821	(255)	Cannot process message $GNGSA,A,3,,,,,,,,,,,,,1.4,0.7,1.2*2D
$GPRMC,061730.600,A,3205.02268,N,03448.15494,E,2.3,358.6,170616,,A*45
$GPGGA,061730.600,3205.02268,N,03448.15494,E,1,15,0.7,040.73,M,17.1,M,,*61
$GNGSA,A,3,30,15,17,28,05,13,20,07,,,,,1.4,0.7,1.2*24
$GNGSA,A,3,85,75,65,66,72,74,76,,,,,,1.4,0.7,1.2*26
$GNGSA,A,3,,,,,,,,,,,,,1.4,0.7,1.2*2D
$GPGSV,3,1,10,05,28,243,40,07,20,081,35,13,57,320,37,15,22,316,35*7D
$GPGSV,3,2,10,17,40,144,39,19,21,171,28,20,17,290,29,28,67,023,31*7A
$GPGSV,3,3,10,30,42,063,30,33,24,246,37,,,,,,,,*79
$GLGSV,2,1,08,74,31,040,38,66,15,330,40,76,14,277,22,75,47,331,41*63
$GLGSV,2,2,08,65,51,276,36,84,26,068,25,85,24,125,39,72,36,202,33*6A
06/17/2016 09:17:30.259	(255)	Cannot process message $GNGSA,A,3,,,,,,,,,,,,,1.4,0.7,1.3*2C
$GPRMC,061731.000,A,3205.02297,N,03448.15492,E,2.9,355.2,170616,,A*47
$GPGGA,061731.000,3205.02297,N,03448.15492,E,1,14,0.7,040.58,M,17.1,M,,*68
$GNGSA,A,3,30,17,28,05,13,20,07,,,,,,1.4,0.7,1.3*21
$GNGSA,A,3,85,75,65,66,72,74,76,,,,,,1.4,0.7,1.3*27
$GNGSA,A,3,,,,,,,,,,,,,1.4,0.7,1.3*2C
$GPGSV,3,1,10,05,28,243,41,07,20,081,35,13,57,320,38,15,22,316,*75
$GPGSV,3,2,10,17,40,144,39,19,21,171,28,20,17,290,29,28,67,023,31*7A
$GPGSV,3,3,10,30,42,063,29,33,24,246,35,,,,,,,,*73
$GLGSV,2,1,08,74,31,040,39,66,15,330,40,76,14,277,21,75,47,331,40*60
$GLGSV,2,2,08,65,51,276,35,84,26,068,24,85,24,125,39,72,36,202,33*68
06/17/2016 09:17:30.790	(255)	Cannot process message $GNGSA,A,3,,,,,,,,,,,,,1.4,0.7,1.3*2C
$GPRMC,061731.600,A,3205.02342,N,03448.15489,E,2.5,359.8,170616,,A*48
$GPGGA,061731.600,3205.02342,N,03448.15489,E,1,14,0.7,040.38,M,17.1,M,,*6B
$GNGSA,A,3,30,17,28,05,13,20,07,,,,,,1.4,0.7,1.3*21
$GNGSA,A,3,85,75,65,66,72,74,76,,,,,,1.4,0.7,1.3*27
$GNGSA,A,3,,,,,,,,,,,,,1.4,0.7,1.3*2C
$GPGSV,3,1,10,05,28,243,40,07,20,081,34,13,57,320,38,15,22,316,*75
$GPGSV,3,2,10,17,40,144,39,19,21,171,27,20,17,290,28,28,67,023,31*74
$GPGSV,3,3,10,30,42,063,30,33,24,246,37,,,,,,,,*79
$GLGSV,2,1,08,74,31,040,38,66,15,330,40,76,14,277,21,75,47,331,40*61
$GLGSV,2,2,08,65,51,276,32,84,26,068,25,85,24,125,39,72,36,202,34*69
06/17/2016 09:17:31.165	(255)	Cannot process message $GNGSA,A,3,,,,,,,,,,,,,1.4,0.7,1.3*2C
$GPRMC,061732.000,A,3205.02370,N,03448.15487,E,2.6,352.4,170616,,A*46
$GPGGA,061732.000,3205.02370,N,03448.15487,E,1,14,0.7,040.27,M,17.1,M,,*6F
$GNGSA,A,3,30,17,28,05,13,20,07,,,,,,1.4,0.7,1.3*21
$GNGSA,A,3,85,75,65,66,72,74,76,,,,,,1.4,0.7,1.3*27
$GNGSA,A,3,,,,,,,,,,,,,1.4,0.7,1.3*2C
$GPGSV,3,1,10,05,28,243,40,07,20,081,33,13,57,320,38,15,22,316,*72
$GPGSV,3,2,10,17,40,144,39,19,21,171,27,20,17,290,29,28,67,023,31*75
$GPGSV,3,3,10,30,42,063,30,33,24,246,35,,,,,,,,*7B
$GLGSV,2,1,08,74,31,040,37,66,15,330,40,76,14,277,21,75,47,331,39*60
$GLGSV,2,2,08,65,51,276,32,84,26,068,25,85,24,125,39,72,36,202,34*69
06/17/2016 09:17:31.665	(255)	Cannot process message $GNGSA,A,3,,,,,,,,,,,,,1.4,0.7,1.2*2D
$GPRMC,061732.600,A,3205.02413,N,03448.15483,E,2.6,358.6,170616,,A*4E
$GPGGA,061732.600,3205.02413,N,03448.15483,E,1,15,0.7,040.10,M,17.1,M,,*6A
$GNGSA,A,3,30,15,17,28,05,13,20,07,,,,,1.4,0.7,1.2*24
$GNGSA,A,3,85,75,65,66,72,74,76,,,,,,1.4,0.7,1.2*26
$GNGSA,A,3,,,,,,,,,,,,,1.4,0.7,1.2*2D
$GPGSV,3,1,10,05,28,243,40,07,20,081,27,13,57,320,38,15,22,316,35*71
$GPGSV,3,2,10,17,40,144,40,19,21,171,27,20,17,290,29,28,67,023,30*7A
$GPGSV,3,3,10,30,42,063,30,33,24,246,34,,,,,,,,*7A
$GLGSV,2,1,08,74,31,040,40,66,15,330,41,76,14,277,20,75,47,331,38*61
$GLGSV,2,2,08,65,51,276,31,84,26,068,24,85,24,125,39,72,36,202,34*6B
06/17/2016 09:17:32.040	(255)	Cannot process message $GNGSA,A,3,,,,,,,,,,,,,1.4,0.7,1.3*2C
$GPRMC,061733.000,A,3205.02356,N,03448.15404,E,2.8,354.1,170616,,A*45
$GPGGA,061733.000,3205.02356,N,03448.15404,E,1,14,0.7,039.27,M,17.1,M,,*6F
$GNGSA,A,3,30,17,28,05,13,20,07,,,,,,1.4,0.7,1.3*21
$GNGSA,A,3,85,75,65,66,72,74,76,,,,,,1.4,0.7,1.3*27
$GNGSA,A,3,,,,,,,,,,,,,1.4,0.7,1.3*2C
$GPGSV,3,1,10,05,28,243,40,07,20,081,26,13,57,320,38,15,22,316,*76
$GPGSV,3,2,10,17,40,144,40,19,21,171,27,20,17,290,29,28,67,023,29*72
$GPGSV,3,3,10,30,42,063,30,33,24,246,33,,,,,,,,*7D
$GLGSV,2,1,08,74,31,040,42,66,15,330,41,76,14,277,20,75,47,331,38*63
$GLGSV,2,2,08,65,51,276,31,84,26,068,25,85,24,125,39,72,36,202,34*6A
06/17/2016 09:17:32.447	(255)	Cannot process message $GNGSA,A,3,,,,,,,,,,,,,1.4,0.7,1.3*2C
$GPRMC,061733.400,A,3205.02385,N,03448.15401,E,2.4,355.7,170616,,A*41
$GPGGA,061733.400,3205.02385,N,03448.15401,E,1,14,0.7,039.14,M,17.1,M,,*60
$GNGSA,A,3,30,17,28,05,13,20,07,,,,,,1.4,0.7,1.3*21
$GNGSA,A,3,85,75,65,66,72,74,76,,,,,,1.4,0.7,1.3*27
$GNGSA,A,3,,,,,,,,,,,,,1.4,0.7,1.3*2C
$GPGSV,3,1,10,05,28,243,40,07,20,081,26,13,57,320,38,15,22,316,*76
$GPGSV,3,2,10,17,40,144,40,19,21,171,28,20,17,290,29,28,67,023,29*7D
$GPGSV,3,3,10,30,42,063,30,33,24,246,32,,,,,,,,*7C
$GLGSV,2,1,08,74,31,040,42,66,15,330,40,76,14,277,20,75,47,331,37*6D
$GLGSV,2,2,08,65,51,276,30,84,26,068,,85,24,125,39,72,36,202,34*6C
06/17/2016 09:17:32.822	(255)	Cannot process message $GNGSA,A,3,,,,,,,,,,,,,1.4,0.7,1.3*2C
$GPRMC,061733.800,A,3205.02413,N,03448.15399,E,2.6,357.9,170616,,A*4D
$GPGGA,061733.800,3205.02413,N,03448.15399,E,1,14,0.7,039.00,M,17.1,M,,*67
$GNGSA,A,3,30,17,28,05,13,20,07,,,,,,1.4,0.7,1.3*21
$GNGSA,A,3,85,75,65,66,72,74,76,,,,,,1.4,0.7,1.3*27
$GNGSA,A,3,,,,,,,,,,,,,1.4,0.7,1.3*2C
$GPGSV,3,1,10,05,28,243,40,07,20,081,26,13,57,320,37,15,22,316,*79
$GPGSV,3,2,10,17,40,144,41,19,21,171,28,20,17,290,29,28,67,023,28*7D
$GPGSV,3,3,10,30,42,063,30,33,24,246,32,,,,,,,,*7C
$GLGSV,2,1,08,74,31,040,42,66,15,330,40,76,14,277,20,75,47,331,34*6E
$GLGSV,2,2,08,65,51,276,30,84,26,068,,85,24,125,39,72,36,202,34*6C
06/17/2016 09:17:33.290	(255)	Cannot process message $GNGSA,A,3,,,,,,,,,,,,,1.5,0.7,1.3*2D
$GPRMC,061734.200,A,3205.02443,N,03448.15397,E,2.7,356.0,170616,,A*42
$GPGGA,061734.200,3205.02443,N,03448.15397,E,1,14,0.7,038.85,M,17.1,M,,*6D
$GNGSA,A,3,30,15,17,28,05,13,20,07,,,,,1.5,0.7,1.3*24
$GNGSA,A,3,85,75,65,66,72,74,,,,,,,1.5,0.7,1.3*27
$GNGSA,A,3,,,,,,,,,,,,,1.5,0.7,1.3*2D
$GPGSV,3,1,10,05,28,243,40,07,20,081,25,13,57,320,37,15,22,316,35*7C
$GPGSV,3,2,10,17,40,144,40,19,21,171,28,20,17,290,29,28,67,023,28*7C
$GPGSV,3,3,10,30,42,063,30,33,24,246,31,,,,,,,,*7F
$GLGSV,2,1,08,74,31,040,42,66,15,330,40,76,14,277,,75,47,331,34*6C
$GLGSV,2,2,08,65,51,276,30,84,26,068,,85,24,125,39,72,36,202,33*6B
06/17/2016 09:17:33.790	(255)	Cannot process message $GNGSA,A,3,,,,,,,,,,,,,1.5,0.7,1.3*2D
$GPRMC,061734.600,A,3205.02471,N,03448.15397,E,2.5,1.8,170616,,A*4C
$GPGGA,061734.600,3205.02471,N,03448.15397,E,1,14,0.7,038.71,M,17.1,M,,*63
$GNGSA,A,3,30,15,17,28,05,13,20,07,,,,,1.5,0.7,1.3*24
$GNGSA,A,3,85,75,65,66,72,74,,,,,,,1.5,0.7,1.3*27
$GNGSA,A,3,,,,,,,,,,,,,1.5,0.7,1.3*2D
$GPGSV,3,1,10,05,28,243,40,07,20,081,25,13,57,320,37,15,22,316,34*7D
$GPGSV,3,2,10,17,40,144,41,19,21,171,28,20,17,290,29,28,67,023,28*7D
$GPGSV,3,3,10,30,42,063,29,33,24,246,30,,,,,,,,*76
$GLGSV,2,1,08,74,31,040,42,66,15,330,40,76,14,277,,75,47,331,34*6C
$GLGSV,2,2,08,65,51,276,29,84,26,068,,85,24,125,40,72,36,202,33*6D
06/17/2016 09:17:34.290	(255)	Cannot process message $GNGSA,A,3,,,,,,,,,,,,,1.5,0.7,1.3*2D
$GPRMC,061735.200,A,3205.02411,N,03448.15343,E,2.8,354.8,170616,,A*48
$GPGGA,061735.200,3205.02411,N,03448.15343,E,1,14,0.7,038.31,M,17.1,M,,*6D
$GNGSA,A,3,30,15,17,28,05,13,20,07,,,,,1.5,0.7,1.3*24
$GNGSA,A,3,85,75,65,66,72,74,,,,,,,1.5,0.7,1.3*27
$GNGSA,A,3,,,,,,,,,,,,,1.5,0.7,1.3*2D
$GPGSV,3,1,10,05,28,243,40,07,20,081,25,13,57,320,38,15,22,316,35*73
$GPGSV,3,2,10,17,40,144,41,19,21,171,28,20,17,290,29,28,67,023,28*7D
$GPGSV,3,3,10,30,42,063,29,33,24,246,29,,,,,,,,*7E
$GLGSV,2,1,08,74,31,040,42,66,15,330,39,76,14,277,,75,47,331,34*62
$GLGSV,2,2,08,65,51,276,29,84,26,068,24,85,24,125,40,72,36,202,34*6C
06/17/2016 09:17:34.696	(255)	Cannot process message $GNGSA,A,3,,,,,,,,,,,,,1.5,0.7,1.3*2D
$GPRMC,061735.600,A,3205.02441,N,03448.15341,E,2.6,359.0,170616,,A*40
$GPGGA,061735.600,3205.02441,N,03448.15341,E,1,14,0.7,038.17,M,17.1,M,,*6A
$GNGSA,A,3,30,15,17,28,05,13,20,07,,,,,1.5,0.7,1.3*24
$GNGSA,A,3,85,75,65,66,72,74,,,,,,,1.5,0.7,1.3*27
$GNGSA,A,3,,,,,,,,,,,,,1.5,0.7,1.3*2D
$GPGSV,3,1,10,05,28,243,41,07,20,081,25,13,57,320,38,15,22,316,36*71
$GPGSV,3,2,10,17,40,144,40,19,21,171,27,20,17,290,29,28,67,023,28*73
$GPGSV,3,3,10,30,42,063,29,33,24,246,31,,,,,,,,*77
$GLGSV,2,1,08,74,31,040,43,66,15,330,39,76,14,277,,75,47,331,34*63
$GLGSV,2,2,08,65,51,276,28,84,26,068,24,85,24,125,40,72,36,202,35*6C
06/17/2016 09:17:35.165	(255)	Cannot process message $GNGSA,A,3,,,,,,,,,,,,,1.5,0.7,1.3*2D
$GPRMC,061736.000,A,3205.02471,N,03448.15340,E,2.7,358.2,170616,,A*45
$GPGGA,061736.000,3205.02471,N,03448.15340,E,1,14,0.7,038.05,M,17.1,M,,*6E
$GNGSA,A,3,30,15,17,28,05,13,20,07,,,,,1.5,0.7,1.3*24
$GNGSA,A,3,85,75,65,66,72,74,,,,,,,1.5,0.7,1.3*27
$GNGSA,A,3,,,,,,,,,,,,,1.5,0.7,1.3*2D
$GPGSV,3,1,10,05,28,243,41,07,20,081,25,13,57,320,38,15,22,316,37*70
$GPGSV,3,2,10,17,40,144,41,19,21,171,27,20,17,290,29,28,67,023,28*72
$GPGSV,3,3,10,30,42,063,30,33,24,246,31,,,,,,,,*7F
$GLGSV,2,1,08,74,31,040,43,66,15,330,39,76,14,277,,75,47,331,34*63
$GLGSV,2,2,08,65,51,276,28,84,26,068,24,85,24,125,39,72,36,202,35*62
06/17/2016 09:17:35.633	(255)	Cannot process message $GNGSA,A,3,,,,,,,,,,,,,1.6,0.7,1.4*29
$GPRMC,061736.600,A,3205.02514,N,03448.15339,E,2.5,359.6,170616,,A*48
$GPGGA,061736.600,3205.02514,N,03448.15339,E,1,13,0.7,037.90,M,17.1,M,,*60
$GNGSA,A,3,30,15,17,28,05,13,20,,,,,,1.6,0.7,1.4*27
$GNGSA,A,3,85,75,65,66,72,74,,,,,,,1.6,0.7,1.4*23
$GNGSA,A,3,,,,,,,,,,,,,1.6,0.7,1.4*29
$GPGSV,3,1,10,05,28,243,41,07,20,081,,13,57,320,40,15,22,316,37*78
$GPGSV,3,2,10,17,40,144,40,19,21,171,27,20,17,290,30,28,67,023,28*7B
$GPGSV,3,3,10,30,42,063,30,33,24,246,31,,,,,,,,*7F
$GLGSV,2,1,08,74,31,040,43,66,15,330,39,76,14,277,,75,47,331,34*63
$GLGSV,2,2,08,65,51,276,28,84,26,068,24,85,24,125,39,72,36,202,36*61
06/17/2016 09:17:35.977	(255)	Cannot process message $GNGSA,A,3,,,,,,,,,,,,,1.6,0.7,1.4*29
$GPRMC,061737.000,A,3205.02542,N,03448.15338,E,2.5,354.7,170616,,A*41
$GPGGA,061737.000,3205.02542,N,03448.15338,E,1,13,0.7,037.81,M,17.1,M,,*65
$GNGSA,A,3,30,15,17,28,05,13,20,,,,,,1.6,0.7,1.4*27
$GNGSA,A,3,85,75,65,66,72,74,,,,,,,1.6,0.7,1.4*23
$GNGSA,A,3,,,,,,,,,,,,,1.6,0.7,1.4*29
$GPGSV,3,1,10,05,28,243,41,07,20,081,,13,57,320,39,15,22,316,38*79
$GPGSV,3,2,10,17,40,144,41,19,21,171,27,20,17,290,32,28,67,023,28*78
$GPGSV,3,3,10,30,42,063,29,33,24,246,29,,,,,,,,*7E
$GLGSV,2,1,08,74,31,040,43,66,15,330,39,76,14,277,,75,47,331,34*63
$GLGSV,2,2,08,65,51,276,28,84,26,068,24,85,24,125,39,72,36,202,36*61
06/17/2016 09:17:36.383	(255)	Cannot process message $GNGSA,A,3,,,,,,,,,,,,,1.6,0.7,1.4*29
$GPRMC,061737.400,A,3205.02541,N,03448.15245,E,2.6,351.7,170616,,A*4B
$GPGGA,061737.400,3205.02541,N,03448.15245,E,1,13,0.7,037.57,M,17.1,M,,*62
$GNGSA,A,3,30,15,17,28,05,13,20,,,,,,1.6,0.7,1.4*27
$GNGSA,A,3,85,75,65,66,72,74,,,,,,,1.6,0.7,1.4*23
$GNGSA,A,3,,,,,,,,,,,,,1.6,0.7,1.4*29
$GPGSV,3,1,10,05,28,243,40,07,20,081,,13,57,320,40,15,22,316,41*78
$GPGSV,3,2,10,17,40,144,41,19,21,171,27,20,17,290,32,28,67,023,28*78
$GPGSV,3,3,10,30,42,063,29,33,24,246,27,,,,,,,,*70
$GLGSV,2,1,08,74,31,040,42,66,15,330,39,76,14,277,,75,47,331,34*62
$GLGSV,2,2,08,65,51,276,27,84,26,068,24,85,24,125,38,72,36,202,35*6C
06/17/2016 09:17:36.790	(255)	Cannot process message $GNGSA,A,3,,,,,,,,,,,,,1.7,0.8,1.5*26
$GPRMC,061737.800,A,3205.02570,N,03448.15240,E,2.6,352.6,170616,,A*42
$GPGGA,061737.800,3205.02570,N,03448.15240,E,1,13,0.8,037.52,M,17.1,M,,*63
$GNGSA,A,3,30,15,17,28,05,13,20,,,,,,1.7,0.8,1.5*28
$GNGSA,A,3,75,65,66,72,74,76,,,,,,,1.7,0.8,1.5*20
$GNGSA,A,3,,,,,,,,,,,,,1.7,0.8,1.5*26
$GPGSV,3,1,10,05,28,243,40,07,20,081,,13,57,320,40,15,22,316,42*7B
$GPGSV,3,2,10,17,40,144,41,19,21,171,27,20,17,290,31,28,67,023,28*7B
$GPGSV,3,3,10,30,42,063,29,33,24,246,26,,,,,,,,*71
$GLGSV,2,1,08,74,31,040,42,66,15,330,39,76,14,277,20,75,47,331,34*60
$GLGSV,2,2,08,65,51,276,26,84,26,068,24,85,24,125,,72,36,202,35*66
06/17/2016 09:17:37.258	(255)	Cannot process message $GNGSA,A,3,,,,,,,,,,,,,1.7,0.8,1.5*26
$GPRMC,061738.200,A,3205.02598,N,03448.15233,E,2.5,343.4,170616,,A*44
$GPGGA,061738.200,3205.02598,N,03448.15233,E,1,13,0.8,037.47,M,17.1,M,,*60
$GNGSA,A,3,30,15,17,28,05,13,20,,,,,,1.7,0.8,1.5*28
$GNGSA,A,3,75,65,66,72,74,76,,,,,,,1.7,0.8,1.5*20
$GNGSA,A,3,,,,,,,,,,,,,1.7,0.8,1.5*26
$GPGSV,3,1,10,05,28,243,39,07,20,081,,13,57,320,40,15,22,316,42*75
$GPGSV,3,2,10,17,40,144,41,19,21,171,27,20,17,290,31,28,67,023,28*7B
$GPGSV,3,3,10,30,42,063,29,33,24,246,25,,,,,,,,*72
$GLGSV,2,1,08,74,31,040,41,66,15,330,38,76,14,277,20,75,47,331,34*62
$GLGSV,2,2,08,65,51,276,26,84,26,068,24,85,24,125,,72,36,202,35*66
06/17/2016 09:17:37.665	(255)	Cannot process message $GNGSA,A,3,,,,,,,,,,,,,1.7,0.8,1.5*26
$GPRMC,061738.600,A,3205.02623,N,03448.15224,E,2.3,341.2,170616,,A*47
$GPGGA,061738.600,3205.02623,N,03448.15224,E,1,13,0.8,037.42,M,17.1,M,,*64
$GNGSA,A,3,30,15,17,28,05,13,20,,,,,,1.7,0.8,1.5*28
$GNGSA,A,3,75,65,66,72,74,76,,,,,,,1.7,0.8,1.5*20
$GNGSA,A,3,,,,,,,,,,,,,1.7,0.8,1.5*26
$GPGSV,3,1,10,05,28,243,38,07,20,081,,13,57,320,40,15,22,316,42*74
$GPGSV,3,2,10,17,40,144,42,19,21,171,27,20,17,290,31,28,67,023,28*78
$GPGSV,3,3,10,30,42,063,29,33,24,246,24,,,,,,,,*73
$GLGSV,2,1,08,74,31,040,40,66,15,330,38,76,14,277,20,75,47,331,34*63
$GLGSV,2,2,08,65,51,276,26,84,26,068,24,85,24,125,,72,36,202,36*65
06/17/2016 09:17:38.134	(255)	Cannot process message $GNGSA,A,3,,,,,,,,,,,,,1.7,0.8,1.5*26
$GPRMC,061739.000,A,3205.02645,N,03448.15212,E,2.1,326.4,170616,,A*40
$GPGGA,061739.000,3205.02645,N,03448.15212,E,1,13,0.8,037.37,M,17.1,M,,*64
$GNGSA,A,3,30,15,17,28,05,13,20,,,,,,1.7,0.8,1.5*28
$GNGSA,A,3,75,65,66,72,74,76,,,,,,,1.7,0.8,1.5*20
$GNGSA,A,3,,,,,,,,,,,,,1.7,0.8,1.5*26
$GPGSV,3,1,10,05,28,243,35,07,20,081,,13,57,320,39,15,22,316,42*77
$GPGSV,3,2,10,17,40,144,42,19,21,171,27,20,17,290,31,28,67,023,24*74
$GPGSV,3,3,10,30,42,063,30,33,24,246,25,,,,,,,,*7A
$GLGSV,2,1,08,74,31,040,37,66,15,330,38,76,14,277,20,75,47,331,34*63
$GLGSV,2,2,08,65,51,276,26,84,26,068,24,85,24,125,,72,36,202,36*65
06/17/2016 09:17:38.511	(255)	Cannot process message $GNGSA,A,3,,,,,,,,,,,,,1.7,0.8,1.5*26
$GPRMC,061739.400,A,3205.02684,N,03448.15150,E,2.1,318.4,170616,,A*41
$GPGGA,061739.400,3205.02684,N,03448.15150,E,1,13,0.8,037.40,M,17.1,M,,*68
$GNGSA,A,3,30,15,17,28,05,13,20,,,,,,1.7,0.8,1.5*28
$GNGSA,A,3,75,65,66,72,74,76,,,,,,,1.7,0.8,1.5*20
$GNGSA,A,3,,,,,,,,,,,,,1.7,0.8,1.5*26
$GPGSV,3,1,10,05,28,243,35,07,20,081,,13,57,320,40,15,22,316,42*79
$GPGSV,3,2,10,17,40,144,42,19,21,171,27,20,17,290,32,28,67,023,24*77
$GPGSV,3,3,10,30,42,063,29,33,24,246,25,,,,,,,,*72
$GLGSV,2,1,08,74,31,040,37,66,15,330,38,76,14,277,20,75,47,331,34*63
$GLGSV,2,2,08,65,51,276,26,84,26,068,24,85,24,125,,72,36,202,36*65
06/17/2016 09:17:39.011	(255)	Cannot process message $GNGSA,A,3,,,,,,,,,,,,,1.7,0.8,1.5*26
$GPRMC,061739.800,A,3205.02705,N,03448.15139,E,2.3,352.1,170616,,A*43
$GPGGA,061739.800,3205.02705,N,03448.15139,E,1,13,0.8,037.37,M,17.1,M,,*63
$GNGSA,A,3,30,15,17,28,05,13,20,,,,,,1.7,0.8,1.5*28
$GNGSA,A,3,75,65,66,72,74,76,,,,,,,1.7,0.8,1.5*20
$GNGSA,A,3,,,,,,,,,,,,,1.7,0.8,1.5*26
$GPGSV,3,1,10,05,28,243,36,07,20,081,,13,57,320,40,15,22,316,42*7A
$GPGSV,3,2,10,17,40,144,42,19,21,171,28,20,17,290,32,28,67,023,24*78
$GPGSV,3,3,10,30,42,063,29,33,24,246,25,,,,,,,,*72
$GLGSV,2,1,08,74,31,040,36,66,15,330,38,76,14,277,20,75,47,331,34*62
$GLGSV,2,2,08,65,51,276,26,84,26,068,23,85,24,125,,72,36,202,36*62
06/17/2016 09:17:39.636	(255)	Cannot process message $GNGSA,A,3,,,,,,,,,,,,,1.7,0.8,1.5*26
$GPRMC,061740.200,A,3205.02731,N,03448.15133,E,2.4,346.7,170616,,A*4E
$GPGGA,061740.200,3205.02731,N,03448.15133,E,1,13,0.8,037.34,M,17.1,M,,*69
$GNGSA,A,3,30,15,17,28,05,13,20,,,,,,1.7,0.8,1.5*28
$GNGSA,A,3,75,65,66,72,74,76,,,,,,,1.7,0.8,1.5*20
$GNGSA,A,3,,,,,,,,,,,,,1.7,0.8,1.5*26
$GPGSV,3,1,10,05,28,242,36,07,20,081,,13,57,320,39,15,22,316,42*75
$GPGSV,3,2,10,17,40,144,42,19,21,171,29,20,17,290,32,28,67,023,24*79
$GPGSV,3,3,10,30,42,063,29,33,24,246,26,,,,,,,,*71
$GLGSV,2,1,08,74,31,040,35,66,15,330,38,76,14,277,20,75,47,331,34*61
$GLGSV,2,2,08,65,51,276,26,84,26,068,23,85,24,125,,72,36,202,36*62
06/17/2016 09:17:40.042	(255)	Cannot process message $GNGSA,A,3,,,,,,,,,,,,,1.5,0.7,1.3*2D
$GPRMC,061741.000,A,3205.02778,N,03448.15117,E,2.1,340.4,170616,,A*46
$GPGGA,061741.000,3205.02778,N,03448.15117,E,1,14,0.7,037.30,M,17.1,M,,*6D
$GNGSA,A,3,30,15,17,28,05,13,20,,,,,,1.5,0.7,1.3*23
$GNGSA,A,3,85,75,65,66,72,74,76,,,,,,1.5,0.7,1.3*26
$GNGSA,A,3,,,,,,,,,,,,,1.5,0.7,1.3*2D
$GPGSV,3,1,10,05,28,242,36,07,20,081,,13,57,320,39,15,22,316,42*75
$GPGSV,3,2,10,17,40,144,43,19,21,171,29,20,17,290,31,28,67,023,24*7B
$GPGSV,3,3,10,30,42,063,28,33,24,246,25,,,,,,,,*73
$GLGSV,2,1,08,74,31,040,34,66,15,330,37,76,14,277,20,75,47,331,34*6F
$GLGSV,2,2,08,65,51,276,26,84,26,068,23,85,24,125,37,72,36,202,36*66
06/17/2016 09:17:40.449	(255)	Cannot process message $GNGSA,A,3,,,,,,,,,,,,,1.5,0.7,1.3*2D
$GPRMC,061741.400,A,3205.02801,N,03448.15110,E,2.2,348.5,170616,,A*4E
$GPGGA,061741.400,3205.02801,N,03448.15110,E,1,14,0.7,037.30,M,17.1,M,,*6F
$GNGSA,A,3,30,15,17,28,05,13,20,,,,,,1.5,0.7,1.3*23
$GNGSA,A,3,85,75,65,66,72,74,76,,,,,,1.5,0.7,1.3*26
$GNGSA,A,3,,,,,,,,,,,,,1.5,0.7,1.3*2D
$GPGSV,3,1,10,05,28,242,36,07,20,081,,13,57,320,38,15,22,316,42*74
$GPGSV,3,2,10,17,40,144,43,19,21,171,29,20,17,290,31,28,67,023,24*7B
$GPGSV,3,3,10,30,42,063,28,33,24,246,25,,,,,,,,*73
$GLGSV,2,1,08,74,31,040,33,66,15,330,37,76,14,277,20,75,47,331,34*68
$GLGSV,2,2,08,65,51,276,25,84,26,068,23,85,24,125,37,72,36,202,37*64
06/17/2016 09:17:40.855	(255)	Cannot process message $GNGSA,A,3,,,,,,,,,,,,,1.5,0.7,1.3*2D
$GPRMC,061741.800,A,3205.02896,N,03448.15125,E,2.4,347.8,170616,,A*4E
$GPGGA,061741.800,3205.02896,N,03448.15125,E,1,14,0.7,037.13,M,17.1,M,,*6A
$GNGSA,A,3,30,15,17,28,05,13,20,,,,,,1.5,0.7,1.3*23
$GNGSA,A,3,85,75,65,66,72,74,76,,,,,,1.5,0.7,1.3*26
$GNGSA,A,3,,,,,,,,,,,,,1.5,0.7,1.3*2D
$GPGSV,3,1,10,05,28,242,36,07,20,081,,13,57,320,38,15,22,316,42*74
$GPGSV,3,2,10,17,40,144,43,19,21,171,29,20,17,290,32,28,67,023,24*78
$GPGSV,3,3,10,30,42,063,28,33,24,246,23,,,,,,,,*75
$GLGSV,2,1,08,74,31,040,33,66,15,330,36,76,14,277,20,75,47,331,34*69
$GLGSV,2,2,08,65,51,276,25,84,26,068,23,85,24,125,37,72,36,202,37*64
06/17/2016 09:17:41.386	(255)	Cannot process message $GNGSA,A,3,,,,,,,,,,,,,1.6,0.8,1.4*26
$GPRMC,061742.200,A,3205.02921,N,03448.15119,E,2.3,348.5,170616,,A*40
$GPGGA,061742.200,3205.02921,N,03448.15119,E,1,13,0.8,037.13,M,17.1,M,,*69
$GNGSA,A,3,30,15,17,28,05,13,20,,,,,,1.6,0.8,1.4*28
$GNGSA,A,3,85,75,65,66,72,76,,,,,,,1.6,0.8,1.4*2E
$GNGSA,A,3,,,,,,,,,,,,,1.6,0.8,1.4*26
$GPGSV,3,1,10,05,28,242,36,07,20,081,,13,57,320,38,15,22,316,42*74
$GPGSV,3,2,10,17,40,144,43,19,21,171,29,20,17,290,33,28,67,023,24*79
$GPGSV,3,3,10,30,42,063,28,33,24,246,23,,,,,,,,*75
$GLGSV,2,1,08,74,31,040,,66,15,330,36,76,14,277,20,75,47,331,35*68
$GLGSV,2,2,08,65,51,276,25,84,26,068,23,85,24,125,37,72,36,202,36*65
06/17/2016 09:17:41.730	(255)	Cannot process message $GNGSA,A,3,,,,,,,,,,,,,1.6,0.8,1.4*26
$GPRMC,061742.600,A,3205.02947,N,03448.15113,E,2.4,350.6,170616,,A*43
$GPGGA,061742.600,3205.02947,N,03448.15113,E,1,13,0.8,037.12,M,17.1,M,,*66
$GNGSA,A,3,30,15,17,28,05,13,20,,,,,,1.6,0.8,1.4*28
$GNGSA,A,3,85,75,65,66,72,76,,,,,,,1.6,0.8,1.4*2E
$GNGSA,A,3,,,,,,,,,,,,,1.6,0.8,1.4*26
$GPGSV,3,1,10,05,28,242,36,07,20,081,,13,57,320,38,15,22,316,42*74
$GPGSV,3,2,10,17,40,144,43,19,21,171,28,20,17,290,33,28,67,023,24*78
$GPGSV,3,3,10,30,42,063,28,33,24,246,22,,,,,,,,*74
$GLGSV,2,1,08,74,31,040,,66,15,330,35,76,14,277,20,75,47,331,34*6A
$GLGSV,2,2,08,65,51,276,25,84,26,068,23,85,24,125,36,72,36,202,35*67
06/17/2016 09:17:42.230	(255)	Cannot process message $GNGSA,A,3,,,,,,,,,,,,,1.6,0.8,1.5*27
$GPRMC,061743.000,A,3205.02973,N,03448.15109,E,2.3,351.8,170616,,A*40
$GPGGA,061743.000,3205.02973,N,03448.15109,E,1,13,0.8,037.11,M,17.1,M,,*6E
$GNGSA,A,3,30,15,17,28,05,13,20,,,,,,1.6,0.8,1.5*29
$GNGSA,A,3,85,75,66,72,74,76,,,,,,,1.6,0.8,1.5*2F
$GNGSA,A,3,,,,,,,,,,,,,1.6,0.8,1.5*27
$GPGSV,3,1,10,05,28,242,36,07,20,081,,13,57,320,38,15,22,316,41*77
$GPGSV,3,2,10,17,40,144,42,19,21,171,28,20,17,290,33,28,67,023,24*79
$GPGSV,3,3,10,30,42,063,27,33,24,246,23,,,,,,,,*7A
$GLGSV,2,1,08,74,31,040,32,66,15,330,34,76,14,277,20,75,47,331,34*6A
$GLGSV,2,2,08,65,51,276,,84,26,068,23,85,25,124,36,72,36,202,35*60
06/17/2016 09:17:42.636	(255)	Cannot process message $GNGSA,A,3,,,,,,,,,,,,,1.6,0.8,1.5*27
$GPRMC,061743.600,A,3205.03013,N,03448.15101,E,2.6,350.0,170616,,A*4C
$GPGGA,061743.600,3205.03013,N,03448.15101,E,1,13,0.8,037.10,M,17.1,M,,*6F
$GNGSA,A,3,30,15,17,28,05,13,20,,,,,,1.6,0.8,1.5*29
$GNGSA,A,3,85,75,66,72,74,76,,,,,,,1.6,0.8,1.5*2F
$GNGSA,A,3,,,,,,,,,,,,,1.6,0.8,1.5*27
$GPGSV,3,1,10,05,28,242,36,07,20,081,,13,57,320,37,15,22,316,41*78
$GPGSV,3,2,10,17,40,144,41,19,21,171,28,20,17,290,33,28,67,023,24*7A
$GPGSV,3,3,10,30,42,063,28,33,24,246,23,,,,,,,,*75
$GLGSV,2,1,08,74,31,040,32,66,15,330,34,76,14,277,19,75,47,331,34*60
$GLGSV,2,2,08,65,51,276,,84,26,068,23,85,25,124,35,72,36,202,35*63
06/17/2016 09:17:43.105	(255)	Cannot process message $GNGSA,A,3,,,,,,,,,,,,,1.6,0.8,1.5*27
$GPRMC,061744.000,A,3205.03107,N,03448.15115,E,2.6,355.9,170616,,A*40
$GPGGA,061744.000,3205.03107,N,03448.15115,E,1,13,0.8,036.86,M,17.1,M,,*61
$GNGSA,A,3,30,15,17,28,05,13,20,,,,,,1.6,0.8,1.5*29
$GNGSA,A,3,85,75,66,72,74,76,,,,,,,1.6,0.8,1.5*2F
$GNGSA,A,3,,,,,,,,,,,,,1.6,0.8,1.5*27
$GPGSV,3,1,10,05,28,242,36,07,20,081,,13,57,320,38,15,22,316,41*77
$GPGSV,3,2,10,17,40,144,41,19,21,171,27,20,17,290,33,28,67,023,24*75
$GPGSV,3,3,10,30,42,063,28,33,24,246,23,,,,,,,,*75
$GLGSV,2,1,08,74,31,040,32,66,15,330,34,76,14,277,19,75,47,331,34*60
$GLGSV,2,2,08,65,51,276,,84,26,068,23,85,25,124,34,72,36,202,34*63
06/17/2016 09:17:43.448	(255)	Cannot process message $GNGSA,A,3,,,,,,,,,,,,,1.6,0.8,1.5*27
$GPRMC,061744.400,A,3205.03134,N,03448.15111,E,2.4,349.3,170616,,A*45
$GPGGA,061744.400,3205.03134,N,03448.15111,E,1,13,0.8,036.87,M,17.1,M,,*60
$GNGSA,A,3,30,15,17,28,05,13,20,,,,,,1.6,0.8,1.5*29
$GNGSA,A,3,85,75,66,72,74,76,,,,,,,1.6,0.8,1.5*2F
$GNGSA,A,3,,,,,,,,,,,,,1.6,0.8,1.5*27
$GPGSV,3,1,10,05,28,242,36,07,20,081,,13,57,320,37,15,22,316,41*78
$GPGSV,3,2,10,17,40,144,40,19,21,171,27,20,17,290,32,28,67,023,24*75
$GPGSV,3,3,10,30,42,063,29,33,24,246,24,,,,,,,,*73
$GLGSV,2,1,08,74,31,040,31,66,15,330,33,76,14,277,19,75,47,331,34*64
$GLGSV,2,2,08,65,51,276,,84,26,068,23,85,25,124,34,72,36,202,34*63
06/17/2016 09:17:43.948	(255)	Cannot process message $GNGSA,A,3,,,,,,,,,,,,,1.5,0.7,1.3*2D
$GPRMC,061744.800,A,3205.03161,N,03448.15105,E,2.5,349.5,170616,,A*4B
$GPGGA,061744.800,3205.03161,N,03448.15105,E,1,14,0.7,036.87,M,17.1,M,,*61
$GNGSA,A,3,30,15,17,28,05,13,20,,,,,,1.5,0.7,1.3*23
$GNGSA,A,3,85,75,65,66,72,74,76,,,,,,1.5,0.7,1.3*26
$GNGSA,A,3,,,,,,,,,,,,,1.5,0.7,1.3*2D
$GPGSV,3,1,10,05,28,242,35,07,20,081,,13,57,320,38,15,22,316,41*74
$GPGSV,3,2,10,17,40,144,37,19,21,171,27,20,17,290,32,28,67,023,24*75
$GPGSV,3,3,10,30,42,063,29,33,24,246,24,,,,,,,,*73
$GLGSV,2,1,08,74,31,040,31,66,15,330,33,76,14,277,19,75,47,331,36*66
$GLGSV,2,2,08,65,51,276,26,84,26,068,,85,25,124,34,72,36,202,34*66
06/17/2016 09:17:44.323	(255)	Cannot process message $GNGSA,A,3,,,,,,,,,,,,,1.5,0.7,1.3*2D
$GPRMC,061745.200,A,3205.03189,N,03448.15094,E,2.8,332.6,170616,,A*4D
$GPGGA,061745.200,3205.03189,N,03448.15094,E,1,14,0.7,036.88,M,17.1,M,,*6A
$GNGSA,A,3,30,15,17,28,05,13,20,,,,,,1.5,0.7,1.3*23
$GNGSA,A,3,85,75,65,66,72,74,76,,,,,,1.5,0.7,1.3*26
$GNGSA,A,3,,,,,,,,,,,,,1.5,0.7,1.3*2D
$GPGSV,3,1,10,05,28,242,35,07,20,081,,13,57,320,38,15,22,316,41*74
$GPGSV,3,2,10,17,40,144,35,19,21,171,27,20,17,290,32,28,67,023,24*77
$GPGSV,3,3,10,30,42,063,31,33,24,246,24,,,,,,,,*7A
$GLGSV,2,1,08,74,31,040,31,66,15,330,33,76,14,277,19,75,47,331,35*65
$GLGSV,2,2,08,65,51,276,25,84,26,068,23,85,25,124,34,72,36,202,35*65
06/17/2016 09:17:44.760	(255)	Cannot process message $GNGSA,A,3,,,,,,,,,,,,,1.4,0.7,1.2*2D
$GPRMC,061745.600,A,3205.03215,N,03448.15079,E,2.5,336.8,170616,,A*4B
$GPGGA,061745.600,3205.03215,N,03448.15079,E,1,15,0.7,036.88,M,17.1,M,,*6A
$GNGSA,A,3,30,15,17,28,05,13,20,07,,,,,1.4,0.7,1.2*24
$GNGSA,A,3,85,75,65,66,72,74,76,,,,,,1.4,0.7,1.2*26
$GNGSA,A,3,,,,,,,,,,,,,1.4,0.7,1.2*2D
$GPGSV,3,1,10,05,28,242,35,07,19,082,25,13,57,320,38,15,22,316,41*7A
$GPGSV,3,2,10,17,40,144,34,19,21,171,27,20,17,290,32,28,67,023,24*76
$GPGSV,3,3,10,30,42,063,31,33,24,246,23,,,,,,,,*7D
$GLGSV,2,1,08,74,31,040,31,66,15,330,33,76,14,277,19,75,47,331,35*65
$GLGSV,2,2,08,65,51,276,26,84,26,068,22,85,25,124,33,72,36,202,34*61
06/17/2016 09:17:45.385	(255)	Cannot process message $GNGSA,A,3,,,,,,,,,,,,,1.4,0.7,1.2*2D
$GPRMC,061746.000,A,3205.03296,N,03448.15095,E,2.4,338.5,170616,,A*45
$GPGGA,061746.000,3205.03296,N,03448.15095,E,1,15,0.7,036.55,M,17.1,M,,*66
$GNGSA,A,3,30,15,17,28,05,13,20,07,,,,,1.4,0.7,1.2*24
$GNGSA,A,3,85,75,65,66,72,74,76,,,,,,1.4,0.7,1.2*26
$GNGSA,A,3,,,,,,,,,,,,,1.4,0.7,1.2*2D
$GPGSV,3,1,10,05,28,242,34,07,19,082,25,13,57,320,38,15,22,316,41*7B
$GPGSV,3,2,10,17,40,144,33,19,21,171,28,20,17,290,32,28,67,023,24*7E
$GPGSV,3,3,10,30,42,063,31,33,24,246,22,,,,,,,,*7C
$GLGSV,2,1,08,74,31,040,30,66,15,330,32,76,14,277,19,75,47,331,35*65
$GLGSV,2,2,08,65,51,276,26,84,26,068,,85,25,124,33,72,36,202,34*61
06/17/2016 09:17:45.792	(255)	Cannot process message $GNGSA,A,3,,,,,,,,,,,,,1.4,0.7,1.2*2D
$GPRMC,061746.600,A,3205.03332,N,03448.15076,E,2.4,334.7,170616,,A*4F
$GPGGA,061746.600,3205.03332,N,03448.15076,E,1,15,0.7,036.57,M,17.1,M,,*60
$GNGSA,A,3,30,15,17,28,05,13,20,07,,,,,1.4,0.7,1.2*24
$GNGSA,A,3,85,75,65,66,72,74,76,,,,,,1.4,0.7,1.2*26
$GNGSA,A,3,,,,,,,,,,,,,1.4,0.7,1.2*2D
$GPGSV,3,1,10,05,28,242,33,07,19,082,24,13,57,320,38,15,22,316,41*7D
$GPGSV,3,2,10,17,40,144,32,19,21,171,27,20,17,290,31,28,67,023,24*73
$GPGSV,3,3,10,30,42,063,34,33,24,246,22,,,,,,,,*79
$GLGSV,2,1,08,74,31,040,30,66,15,330,32,76,14,277,19,75,47,331,35*65
$GLGSV,2,2,08,65,51,276,26,84,26,068,,85,25,124,33,72,36,202,33*66
06/17/2016 09:17:46.260	(255)	Cannot process message $GNGSA,A,3,,,,,,,,,,,,,1.5,0.7,1.3*2D
$GPRMC,061747.200,A,3205.03370,N,03448.15063,E,2.4,350.8,170616,,A*45
$GPGGA,061747.200,3205.03370,N,03448.15063,E,1,14,0.7,036.58,M,17.1,M,,*69
$GNGSA,A,3,30,15,17,28,05,13,20,,,,,,1.5,0.7,1.3*23
$GNGSA,A,3,85,75,65,66,72,74,76,,,,,,1.5,0.7,1.3*26
$GNGSA,A,3,,,,,,,,,,,,,1.5,0.7,1.3*2D
$GPGSV,3,1,10,05,28,242,32,07,19,082,,13,57,320,39,15,22,316,41*7B
$GPGSV,3,2,10,17,40,144,31,19,21,171,27,20,17,290,31,28,67,023,25*71
$GPGSV,3,3,10,30,42,063,34,33,24,246,22,,,,,,,,*79
$GLGSV,2,1,08,74,31,040,29,66,15,330,32,76,14,277,19,75,47,331,35*6D
$GLGSV,2,2,08,65,51,276,26,84,26,068,,85,25,124,34,72,36,202,36*64
06/17/2016 09:17:46.698	(255)	Cannot process message $GNGSA,A,3,,,,,,,,,,,,,1.4,0.7,1.2*2D
$GPRMC,061747.600,A,3205.03398,N,03448.15058,E,2.7,351.4,170616,,A*41
$GPGGA,061747.600,3205.03398,N,03448.15058,E,1,15,0.7,036.58,M,17.1,M,,*62
$GNGSA,A,3,30,15,17,28,05,13,20,07,,,,,1.4,0.7,1.2*24
$GNGSA,A,3,85,75,65,66,72,74,76,,,,,,1.4,0.7,1.2*26
$GNGSA,A,3,,,,,,,,,,,,,1.4,0.7,1.2*2D
$GPGSV,3,1,10,05,28,242,32,07,19,082,24,13,57,320,41,15,22,316,41*72
$GPGSV,3,2,10,17,40,144,31,19,21,171,27,20,17,290,31,28,67,023,26*72
$GPGSV,3,3,10,30,42,063,36,33,24,246,22,,,,,,,,*7B
$GLGSV,2,1,08,74,31,040,29,66,15,330,32,76,14,277,19,75,47,331,35*6D
$GLGSV,2,2,08,65,51,276,26,84,26,068,,85,25,124,33,72,36,202,36*63
06/17/2016 09:17:47.167	(255)	Cannot process message $GNGSA,A,3,,,,,,,,,,,,,1.6,0.7,1.4*29
$GPRMC,061748.000,A,3205.03427,N,03448.15052,E,2.7,351.6,170616,,A*43
$GPGGA,061748.000,3205.03427,N,03448.15052,E,1,13,0.7,036.59,M,17.1,M,,*65
$GNGSA,A,3,30,15,17,28,05,13,20,,,,,,1.6,0.7,1.4*27
$GNGSA,A,3,85,75,65,66,72,74,,,,,,,1.6,0.7,1.4*23
$GNGSA,A,3,,,,,,,,,,,,,1.6,0.7,1.4*29
$GPGSV,3,1,10,05,28,242,32,07,19,082,,13,57,320,42,15,22,316,41*77
$GPGSV,3,2,10,17,40,144,31,19,21,171,27,20,17,290,31,28,67,023,26*72
$GPGSV,3,3,10,30,42,063,36,33,24,246,22,,,,,,,,*7B
$GLGSV,2,1,08,74,31,040,29,66,15,330,32,76,14,277,,75,47,331,35*65
$GLGSV,2,2,08,65,51,276,26,84,26,068,,85,25,124,33,72,35,202,36*60
06/17/2016 09:17:47.667	(255)	Cannot process message $GNGSA,A,3,,,,,,,,,,,,,1.5,0.7,1.3*2D
$GPRMC,061748.600,A,3205.03509,N,03448.15023,E,2.5,350.4,170616,,A*4F
$GPGGA,061748.600,3205.03509,N,03448.15023,E,1,14,0.7,035.95,M,17.1,M,,*6C
$GNGSA,A,3,30,15,17,28,05,13,20,07,,,,,1.5,0.7,1.3*24
$GNGSA,A,3,85,75,65,66,72,74,,,,,,,1.5,0.7,1.3*27
$GNGSA,A,3,,,,,,,,,,,,,1.5,0.7,1.3*2D
$GPGSV,3,1,10,05,28,242,31,07,19,082,24,13,57,320,41,15,22,316,41*71
$GPGSV,3,2,10,17,40,144,30,19,21,171,27,20,17,290,31,28,67,023,26*73
$GPGSV,3,3,10,30,42,063,36,33,24,246,22,,,,,,,,*7B
$GLGSV,2,1,08,74,31,040,29,66,15,330,32,76,14,277,,75,47,331,35*65
$GLGSV,2,2,08,65,51,276,27,84,26,068,,85,25,124,32,72,35,202,36*60
06/17/2016 09:17:48.042	(255)	Cannot process message $GNGSA,A,3,,,,,,,,,,,,,1.4,0.7,1.2*2D
$GPRMC,061748.800,A,3205.03520,N,03448.15020,E,1.4,340.6,170616,,A*48
$GPGGA,061748.800,3205.03520,N,03448.15020,E,1,15,0.7,035.95,M,17.1,M,,*6B
$GNGSA,A,3,30,15,17,28,05,13,20,07,,,,,1.4,0.7,1.2*24
$GNGSA,A,3,85,75,65,66,72,74,76,,,,,,1.4,0.7,1.2*26
$GNGSA,A,3,,,,,,,,,,,,,1.4,0.7,1.2*2D
$GPGSV,3,1,10,05,28,242,31,07,19,082,24,13,57,320,42,15,22,316,41*72
$GPGSV,3,2,10,17,40,144,30,19,21,171,26,20,17,290,32,28,67,023,26*71
$GPGSV,3,3,10,30,42,063,36,33,24,246,23,,,,,,,,*7A
$GLGSV,2,1,08,74,31,040,29,66,15,330,32,76,14,277,19,75,47,331,35*6D
$GLGSV,2,2,08,65,51,276,27,84,26,068,,85,25,124,32,72,35,202,36*60
06/17/2016 09:17:48.448	(255)	Cannot process message $GNGSA,A,3,,,,,,,,,,,,,1.4,0.7,1.2*2D
$GPRMC,061749.400,A,3205.03544,N,03448.15006,E,1.8,330.1,170616,,A*4F
$GPGGA,061749.400,3205.03544,N,03448.15006,E,1,15,0.7,035.93,M,17.1,M,,*66
$GNGSA,A,3,30,15,17,28,05,13,20,07,,,,,1.4,0.7,1.2*24
$GNGSA,A,3,85,75,65,66,72,74,76,,,,,,1.4,0.7,1.2*26
$GNGSA,A,3,,,,,,,,,,,,,1.4,0.7,1.2*2D
$GPGSV,3,1,10,05,28,242,31,07,19,082,24,13,57,320,41,15,22,316,41*71
$GPGSV,3,2,10,17,40,144,30,19,21,171,26,20,17,290,32,28,67,023,26*71
$GPGSV,3,3,10,30,42,063,35,33,24,246,24,,,,,,,,*7E
$GLGSV,2,1,08,74,31,040,29,66,15,330,31,76,14,277,20,75,47,331,35*64
$GLGSV,2,2,08,65,51,276,28,84,26,068,,85,25,124,31,72,35,202,35*6F
06/17/2016 09:17:48.886	(255)	Cannot process message $GNGSA,A,3,,,,,,,,,,,,,1.4,0.7,1.2*2D
$GPRMC,061749.800,A,3205.03563,N,03448.14993,E,2.2,330.9,170616,,A*43
$GPGGA,061749.800,3205.03563,N,03448.14993,E,1,15,0.7,035.93,M,17.1,M,,*6B
$GNGSA,A,3,30,15,17,28,05,13,20,07,,,,,1.4,0.7,1.2*24
$GNGSA,A,3,85,75,65,66,72,74,76,,,,,,1.4,0.7,1.2*26
$GNGSA,A,3,,,,,,,,,,,,,1.4,0.7,1.2*2D
$GPGSV,3,1,10,05,28,242,31,07,19,082,24,13,57,320,42,15,22,316,41*72
$GPGSV,3,2,10,17,40,144,29,19,21,171,27,20,17,290,31,28,67,023,26*7B
$GPGSV,3,3,10,30,42,063,35,33,24,246,23,,,,,,,,*79
$GLGSV,2,1,08,74,31,040,29,66,15,330,31,76,14,277,20,75,47,331,35*64
$GLGSV,2,2,08,65,51,276,30,84,26,068,,85,25,124,31,72,35,202,35*66
06/17/2016 09:17:49.354	(255)	Cannot process message $GNGSA,A,3,,,,,,,,,,,,,1.4,0.7,1.2*2D
$GPRMC,061750.200,A,3205.03585,N,03448.14979,E,2.2,331.6,170616,,A*43
$GPGGA,061750.200,3205.03585,N,03448.14979,E,1,15,0.7,035.93,M,17.1,M,,*65
$GNGSA,A,3,30,15,17,28,05,13,20,07,,,,,1.4,0.7,1.2*24
$GNGSA,A,3,85,75,65,66,72,74,76,,,,,,1.4,0.7,1.2*26
$GNGSA,A,3,,,,,,,,,,,,,1.4,0.7,1.2*2D
$GPGSV,3,1,10,05,28,242,31,07,19,082,25,13,57,320,41,15,22,316,40*71
$GPGSV,3,2,10,17,40,144,29,19,21,171,28,20,17,290,31,28,67,023,26*74
$GPGSV,3,3,10,30,42,063,34,33,24,246,24,,,,,,,,*7F
$GLGSV,2,1,08,74,31,040,29,66,15,330,31,76,14,277,20,75,47,331,35*64
$GLGSV,2,2,08,65,51,276,31,84,26,068,,85,25,124,31,72,35,202,35*67
06/17/2016 09:17:49.792	(255)	Cannot process message $GNGSA,A,3,,,,,,,,,,,,,1.4,0.7,1.2*2D
$GPRMC,061750.600,A,3205.03666,N,03448.14962,E,2.2,331.6,170616,,A*43
$GPGGA,061750.600,3205.03666,N,03448.14962,E,1,15,0.7,035.19,M,17.1,M,,*67
$GNGSA,A,3,30,15,17,28,05,13,20,07,,,,,1.4,0.7,1.2*24
$GNGSA,A,3,85,75,65,66,72,74,76,,,,,,1.4,0.7,1.2*26
$GNGSA,A,3,,,,,,,,,,,,,1.4,0.7,1.2*2D
$GPGSV,3,1,10,05,28,242,30,07,19,082,25,13,57,320,40,15,22,316,40*71
$GPGSV,3,2,10,17,40,144,28,19,21,171,29,20,17,290,31,28,67,023,28*7A
$GPGSV,3,3,10,30,42,063,34,33,24,246,24,,,,,,,,*7F
$GLGSV,2,1,08,74,30,040,29,66,15,330,30,76,14,277,20,75,47,331,34*65
$GLGSV,2,2,08,65,51,276,32,84,26,068,25,85,25,124,32,72,35,202,35*60
06/17/2016 09:17:50.292	(255)	Cannot process message $GNGSA,A,3,,,,,,,,,,,,,1.4,0.7,1.2*2D
$GPRMC,061751.200,A,3205.03698,N,03448.14941,E,2.1,331.9,170616,,A*4A
$GPGGA,061751.200,3205.03698,N,03448.14941,E,1,15,0.7,035.21,M,17.1,M,,*69
$GNGSA,A,3,30,15,17,28,05,13,20,07,,,,,1.4,0.7,1.2*24
$GNGSA,A,3,85,75,65,66,72,74,76,,,,,,1.4,0.7,1.2*26
$GNGSA,A,3,,,,,,,,,,,,,1.4,0.7,1.2*2D
$GPGSV,3,1,10,05,28,242,31,07,19,082,25,13,57,320,39,15,22,316,40*7E
$GPGSV,3,2,10,17,40,144,27,19,21,171,29,20,17,290,31,28,67,023,28*75
$GPGSV,3,3,10,30,42,063,33,33,24,246,24,,,,,,,,*78
$GLGSV,2,1,08,74,30,040,28,66,15,330,30,76,14,277,20,75,47,331,34*64
$GLGSV,2,2,08,65,51,276,31,84,26,068,25,85,25,124,32,72,35,202,34*62
06/17/2016 09:17:50.948	(255)	Cannot process message $GNGSA,A,3,,,,,,,,,,,,,1.4,0.7,1.2*2D
$GPRMC,061751.600,A,3205.03719,N,03448.14927,E,2.3,329.6,170616,,A*42
$GPGGA,061751.600,3205.03719,N,03448.14927,E,1,15,0.7,035.21,M,17.1,M,,*65
$GNGSA,A,3,30,15,17,28,05,13,20,07,,,,,1.4,0.7,1.2*24
$GNGSA,A,3,85,75,65,66,72,74,76,,,,,,1.4,0.7,1.2*26
$GNGSA,A,3,,,,,,,,,,,,,1.4,0.7,1.2*2D
$GPGSV,3,1,10,05,28,242,31,07,19,082,25,13,57,320,39,15,22,316,40*7E
$GPGSV,3,2,10,17,40,144,27,19,21,171,29,20,17,290,30,28,67,023,29*75
$GPGSV,3,3,10,30,42,063,33,33,24,246,24,,,,,,,,*78
$GLGSV,2,1,08,74,30,040,28,66,15,330,30,76,14,277,20,75,47,331,34*64
$GLGSV,2,2,08,65,51,276,31,84,26,068,24,85,25,124,33,72,35,202,33*65
06/17/2016 09:17:51.354	(255)	Cannot process message $GNGSA,A,3,,,,,,,,,,,,,1.5,0.7,1.3*2D
$GPRMC,061752.200,A,3205.03754,N,03448.14906,E,2.4,335.9,170616,,A*4A
$GPGGA,061752.200,3205.03754,N,03448.14906,E,1,14,0.7,035.21,M,17.1,M,,*69
$GNGSA,A,3,30,15,17,28,05,13,20,07,,,,,1.5,0.7,1.3*24
$GNGSA,A,3,75,65,66,72,74,76,,,,,,,1.5,0.7,1.3*2B
$GNGSA,A,3,,,,,,,,,,,,,1.5,0.7,1.3*2D
$GPGSV,3,1,10,05,28,242,31,07,19,082,25,13,57,320,38,15,22,316,40*7F
$GPGSV,3,2,10,17,40,144,27,19,21,171,28,20,17,290,30,28,67,023,30*7C
$GPGSV,3,3,10,30,42,063,32,33,24,246,25,,,,,,,,*78
$GLGSV,2,1,08,74,30,040,28,66,15,330,30,76,14,277,20,75,47,331,35*65
$GLGSV,2,2,08,65,51,276,33,84,26,068,24,85,25,124,,72,35,202,35*61
06/17/2016 09:17:51.886	(255)	Cannot process message $GNGSA,A,3,,,,,,,,,,,,,1.5,0.7,1.3*2D
$GPRMC,061752.600,A,3205.03778,N,03448.14894,E,2.3,337.3,170616,,A*45
$GPGGA,061752.600,3205.03778,N,03448.14894,E,1,14,0.7,035.21,M,17.1,M,,*69
$GNGSA,A,3,30,15,17,28,05,13,20,07,,,,,1.5,0.7,1.3*24
$GNGSA,A,3,75,65,66,72,74,76,,,,,,,1.5,0.7,1.3*2B
$GNGSA,A,3,,,,,,,,,,,,,1.5,0.7,1.3*2D
$GPGSV,3,1,10,05,28,242,31,07,19,082,25,13,57,320,38,15,22,316,40*7F
$GPGSV,3,2,10,17,40,144,27,19,21,171,28,20,17,290,30,28,67,023,31*7D
$GPGSV,3,3,10,30,42,063,29,33,24,246,29,,,,,,,,*7E
$GLGSV,2,1,08,74,30,040,28,66,15,330,30,76,14,277,19,75,47,331,35*6F
$GLGSV,2,2,08,65,51,276,34,84,26,068,24,85,25,124,,72,35,202,35*66
06/17/2016 09:17:52.323	(255)	Cannot process message $GNGSA,A,3,,,,,,,,,,,,,1.5,0.7,1.3*2D
$GPRMC,061753.200,A,3205.03898,N,03448.14889,E,2.2,336.6,170616,,A*48
$GPGGA,061753.200,3205.03898,N,03448.14889,E,1,14,0.7,034.85,M,17.1,M,,*6E
$GNGSA,A,3,30,15,17,28,05,13,20,07,,,,,1.5,0.7,1.3*24
$GNGSA,A,3,75,65,66,72,74,76,,,,,,,1.5,0.7,1.3*2B
$GNGSA,A,3,,,,,,,,,,,,,1.5,0.7,1.3*2D
$GPGSV,3,1,10,05,28,242,33,07,19,082,25,13,57,320,40,15,22,316,40*72
$GPGSV,3,2,10,17,40,144,26,19,21,171,29,20,17,290,29,28,67,023,31*75
$GPGSV,3,3,10,30,42,063,29,33,24,246,28,,,,,,,,*7F
$GLGSV,2,1,08,74,30,040,28,66,15,330,30,76,14,277,20,75,47,331,35*65
$GLGSV,2,2,08,65,51,276,35,84,26,068,23,85,25,124,,72,35,202,36*63
06/17/2016 09:17:52.667	(255)	Cannot process message $GNGSA,A,3,,,,,,,,,,,,,1.5,0.7,1.3*2D
$GPRMC,061753.600,A,3205.03923,N,03448.14877,E,2.6,339.7,170616,,A*46
$GPGGA,061753.600,3205.03923,N,03448.14877,E,1,14,0.7,034.86,M,17.1,M,,*69
$GNGSA,A,3,30,15,17,28,05,13,20,07,,,,,1.5,0.7,1.3*24
$GNGSA,A,3,75,65,66,72,74,76,,,,,,,1.5,0.7,1.3*2B
$GNGSA,A,3,,,,,,,,,,,,,1.5,0.7,1.3*2D
$GPGSV,3,1,10,05,28,242,33,07,19,082,25,13,57,320,39,15,22,316,40*7C
$GPGSV,3,2,10,17,40,144,26,19,21,171,29,20,17,290,29,28,67,023,31*75
$GPGSV,3,3,10,30,42,063,29,33,24,246,29,,,,,,,,*7E
$GLGSV,2,1,08,74,30,040,28,66,15,330,29,76,14,277,20,75,47,331,36*6E
$GLGSV,2,2,08,65,51,276,36,84,26,068,23,85,25,124,,72,35,202,36*60
06/17/2016 09:17:53.042	(255)	Cannot process message $GNGSA,A,3,,,,,,,,,,,,,1.5,0.7,1.3*2D
$GPRMC,061754.000,A,3205.03950,N,03448.14865,E,2.7,339.4,170616,,A*42
$GPGGA,061754.000,3205.03950,N,03448.14865,E,1,14,0.7,034.88,M,17.1,M,,*61
$GNGSA,A,3,30,15,17,28,05,13,20,07,,,,,1.5,0.7,1.3*24
$GNGSA,A,3,75,65,66,72,74,76,,,,,,,1.5,0.7,1.3*2B
$GNGSA,A,3,,,,,,,,,,,,,1.5,0.7,1.3*2D
$GPGSV,3,1,10,05,28,242,33,07,19,082,28,13,57,320,40,15,22,316,40*7F
$GPGSV,3,2,10,17,40,144,26,19,21,171,29,20,17,290,29,28,67,023,33*77
$GPGSV,3,3,10,30,42,063,30,33,24,246,27,,,,,,,,*78
$GLGSV,2,1,08,74,30,040,28,66,15,330,30,76,14,277,20,75,47,331,36*66
$GLGSV,2,2,08,65,51,276,37,84,26,068,23,85,25,124,,72,35,202,35*62
06/17/2016 09:17:53.573	(255)	Cannot process message $GNGSA,A,3,,,,,,,,,,,,,1.4,0.7,1.2*2D
$GPRMC,061754.400,A,3205.03976,N,03448.14858,E,2.1,356.8,170616,,A*4F
$GPGGA,061754.400,3205.03976,N,03448.14858,E,1,15,0.7,034.91,M,17.1,M,,*66
$GNGSA,A,3,30,15,17,28,05,13,20,07,,,,,1.4,0.7,1.2*24
$GNGSA,A,3,85,75,65,66,72,74,76,,,,,,1.4,0.7,1.2*26
$GNGSA,A,3,,,,,,,,,,,,,1.4,0.7,1.2*2D
$GPGSV,3,1,10,05,28,242,34,07,19,082,29,13,57,320,40,15,22,316,40*79
$GPGSV,3,2,10,17,40,144,26,19,21,171,29,20,17,290,29,28,67,023,33*77
$GPGSV,3,3,10,30,42,063,30,33,24,246,26,,,,,,,,*79
$GLGSV,2,1,08,74,30,040,28,66,15,330,30,76,14,277,20,75,47,331,36*66
$GLGSV,2,2,08,65,51,276,38,84,26,068,23,85,25,124,36,72,35,202,35*68
06/17/2016 09:17:54.010	(255)	Cannot process message $GNGSA,A,3,,,,,,,,,,,,,1.4,0.7,1.2*2D
$GPRMC,061754.800,A,3205.04001,N,03448.14857,E,2.3,0.1,170616,,A*49
$GPGGA,061754.800,3205.04001,N,03448.14857,E,1,15,0.7,034.93,M,17.1,M,,*69
$GNGSA,A,3,30,15,17,28,05,13,20,07,,,,,1.4,0.7,1.2*24
$GNGSA,A,3,85,75,65,66,72,74,76,,,,,,1.4,0.7,1.2*26
$GNGSA,A,3,,,,,,,,,,,,,1.4,0.7,1.2*2D
$GPGSV,3,1,10,05,28,242,35,07,19,082,31,13,57,320,40,15,22,316,40*71
$GPGSV,3,2,10,17,40,144,26,19,21,171,29,20,17,290,29,28,67,023,33*77
$GPGSV,3,3,10,30,42,063,30,33,24,246,25,,,,,,,,*7A
$GLGSV,2,1,08,74,30,040,28,66,15,330,31,76,14,277,20,75,47,331,35*64
$GLGSV,2,2,08,65,51,276,39,84,26,068,22,85,25,124,36,72,35,202,35*68
06/17/2016 09:17:54.479	(255)	Cannot process message $GNGSA,A,3,,,,,,,,,,,,,1.4,0.7,1.2*2D
$GPRMC,061755.200,A,3205.04092,N,03448.14828,E,1.8,5.5,170616,,A*49
$GPGGA,061755.200,3205.04092,N,03448.14828,E,1,15,0.7,036.23,M,17.1,M,,*69
$GNGSA,A,3,30,15,17,28,05,13,20,07,,,,,1.4,0.7,1.2*24
$GNGSA,A,3,85,75,65,66,72,74,76,,,,,,1.4,0.7,1.2*26
$GNGSA,A,3,,,,,,,,,,,,,1.4,0.7,1.2*2D
$GPGSV,3,1,10,05,28,242,35,07,19,082,32,13,57,320,39,15,22,316,39*72
$GPGSV,3,2,10,17,40,144,26,19,21,171,28,20,17,290,28,28,67,023,34*70
$GPGSV,3,3,10,30,42,063,30,33,24,246,25,,,,,,,,*7A
$GLGSV,2,1,08,74,30,040,28,66,15,330,31,76,14,277,20,75,47,331,35*64
$GLGSV,2,2,08,65,51,276,39,84,26,068,22,85,25,124,35,72,35,202,35*6B
06/17/2016 09:17:54.979	(255)	Cannot process message $GNGSA,A,3,,,,,,,,,,,,,1.5,0.7,1.3*2D
$GPRMC,061755.800,A,3205.04116,N,03448.14836,E,1.2,31.1,170616,,A*78
$GPGGA,061755.800,3205.04116,N,03448.14836,E,1,14,0.7,036.26,M,17.1,M,,*65
$GNGSA,A,3,30,15,17,28,05,13,20,07,,,,,1.5,0.7,1.3*24
$GNGSA,A,3,85,75,65,66,72,74,,,,,,,1.5,0.7,1.3*27
$GNGSA,A,3,,,,,,,,,,,,,1.5,0.7,1.3*2D
$GPGSV,3,1,10,05,28,242,35,07,19,082,35,13,57,320,39,15,22,316,38*74
$GPGSV,3,2,10,17,40,144,25,19,21,171,28,20,17,290,28,28,67,023,35*72
$GPGSV,3,3,10,30,42,063,30,33,24,246,25,,,,,,,,*7A
$GLGSV,2,1,08,74,30,040,29,66,15,330,31,76,14,277,,75,47,331,35*67
$GLGSV,2,2,08,65,51,276,39,84,26,068,23,85,25,124,35,72,35,202,35*6A
06/17/2016 09:17:55.385	(255)	Cannot process message $GNGSA,A,3,,,,,,,,,,,,,1.5,0.7,1.3*2D
$GPRMC,061756.200,A,3205.04129,N,03448.14848,E,1.8,45.7,170616,,A*7B
$GPGGA,061756.200,3205.04129,N,03448.14848,E,1,14,0.7,036.29,M,17.1,M,,*66
$GNGSA,A,3,30,15,17,28,05,13,20,07,,,,,1.5,0.7,1.3*24
$GNGSA,A,3,85,75,65,66,72,74,,,,,,,1.5,0.7,1.3*27
$GNGSA,A,3,,,,,,,,,,,,,1.5,0.7,1.3*2D
$GPGSV,3,1,10,05,28,242,34,07,19,082,37,13,57,320,38,15,22,316,35*7B
$GPGSV,3,2,10,17,40,144,26,19,21,171,28,20,17,290,28,28,67,023,36*72
$GPGSV,3,3,10,30,42,063,30,33,24,246,25,,,,,,,,*7A
$GLGSV,2,1,08,74,30,040,30,66,15,330,31,76,14,277,,75,47,331,36*6C
$GLGSV,2,2,08,65,51,276,39,84,26,068,23,85,25,124,35,72,35,202,35*6A
06/17/2016 09:17:55.823	(255)	Cannot process message $GNGSA,A,3,,,,,,,,,,,,,1.5,0.7,1.3*2D
$GPRMC,061756.800,A,3205.04147,N,03448.14864,E,1.0,20.4,170616,,A*7F
$GPGGA,061756.800,3205.04147,N,03448.14864,E,1,14,0.7,036.33,M,17.1,M,,*61
$GNGSA,A,3,30,15,17,28,05,13,20,07,,,,,1.5,0.7,1.3*24
$GNGSA,A,3,85,75,65,66,72,74,,,,,,,1.5,0.7,1.3*27
$GNGSA,A,3,,,,,,,,,,,,,1.5,0.7,1.3*2D
$GPGSV,3,1,10,05,28,242,34,07,19,082,38,13,57,320,38,15,22,316,35*74
$GPGSV,3,2,10,17,40,144,26,19,21,171,28,20,17,290,28,28,67,023,36*72
