,*61
$GLGSV,2,2,06,80,64,359,,79,44,119,,,,,,,,,*61
$GPRMC,134356.800,A,3206.16338,N,03512.50671,E,0.8,215.5,030516,,A*4E
$GPGGA,134356.800,3206.16338,N,03512.50671,E,1,05,4.0,668.68,M,16.8,M,,*62
$GNGSA,A,3,25,29,32,15,,,,,,,,,4.6,4.0,2.4*25
$GNGSA,A,3,83,,,,,,,,,,,,4.6,4.0,2.4*27
$GNGSA,A,3,,,,,,,,,,,,,4.6,4.0,2.4*2C
$GPGSV,3,1,10,02,56,120,,06,35,058,,12,56,345,,14,10,311,*70
$GPGSV,3,2,10,15,10,202,29,19,23,044,,24,74,193,,25,29,306,22*79
$GPGSV,3,3,10,29,24,240,26,32,09,308,22,,,,,,,,*74
$GLGSV,2,1,06,73,13,326,,82,76,001,,83,40,220,33,81,25,029,*61
$GLGSV,2,2,06,80,64,359,,79,44,119,,,,,,,,,*61
$GPRMC,134357.200,A,3206.16330,N,03512.50666,E,0.8,213.2,030516,,A*4A
$GPGGA,134357.200,3206.16330,N,03512.50666,E,1,05,4.0,668.80,M,16.8,M,,*61
$GNGSA,A,3,25,29,32,15,,,,,,,,,4.6,4.0,2.4*25
$GNGSA,A,3,83,,,,,,,,,,,,4.6,4.0,2.4*27
$GNGSA,A,3,,,,,,,,,,,,,4.6,4.0,2.4*2C
$GPGSV,3,1,10,02,56,120,,06,35,058,,12,56,345,,14,10,311,*70
$GPGSV,3,2,10,15,10,202,29,19,23,044,,24,74,193,,25,29,306,22*79
$GPGSV,3,3,10,29,24,240,26,32,09,308,22,,,,,,,,*74
$GLGSV,2,1,06,73,13,326,,82,76,001,,83,40,220,33,81,25,029,*61
$GLGSV,2,2,06,80,64,359,,79,44,119,,,,,,,,,*61
$GPRMC,134357.600,A,3206.16323,N,03512.50660,E,0.7,211.9,030516,,A*4C
$GPGGA,134357.600,3206.16323,N,03512.50660,E,1,05,4.0,668.92,M,16.8,M,,*62
$GNGSA,A,3,25,29,32,15,,,,,,,,,4.6,4.0,2.4*25
$GNGSA,A,3,83,,,,,,,,,,,,4.6,4.0,2.4*27
$GNGSA,A,3,,,,,,,,,,,,,4.6,4.0,2.4*2C
$GPGSV,3,1,10,02,56,120,,06,35,058,,12,56,345,,14,10,311,*70
$GPGSV,3,2,10,15,10,202,29,19,23,044,,24,74,193,,25,29,306,22*79
$GPGSV,3,3,10,29,24,240,26,32,09,308,21,,,,,,,,*77
$GLGSV,2,1,06,73,13,326,,82,76,001,,83,40,220,33,81,25,029,*61
$GLGSV,2,2,06,80,64,359,,79,44,119,,,,,,,,,*61
$GPRMC,134357.800,A,3206.16320,N,03512.50658,E,0.6,211.0,030516,,A*42
$GPGGA,134357.800,3206.16320,N,03512.50658,E,1,05,4.0,668.98,M,16.8,M,,*6E
$GNGSA,A,3,25,29,32,15,,,,,,,,,4.6,4.0,2.4*25
$GNGSA,A,3,83,,,,,,,,,,,,4.6,4.0,2.4*27
$GNGSA,A,3,,,,,,,,,,,,,4.6,4.0,2.4*2C
$GPGSV,3,1,10,02,56,120,,06,35,058,,12,56,345,,14,10,311,*70
$GPGSV,3,2,10,15,10,202,29,19,23,044,,24,74,193,,25,29,306,22*79
$GPGSV,3,3,10,29,24,240,25,32,09,308,21,,,,,,,,*74
$GLGSV,2,1,06,73,13,326,,82,76,001,,83,40,220,33,81,25,029,*61
$GLGSV,2,2,06,80,64,359,,79,44,119,,,,,,,,,*61
$GPRMC,134358.400,A,3206.16313,N,03512.50651,E,0.5,230.9,030516,,A*41
$GPGGA,134358.400,3206.16313,N,03512.50651,E,1,05,4.0,669.15,M,16.8,M,,*60
$GNGSA,A,3,25,29,32,15,,,,,,,,,4.6,4.0,2.4*25
$GNGSA,A,3,83,,,,,,,,,,,,4.6,4.0,2.4*27
$GNGSA,A,3,,,,,,,,,,,,,4.6,4.0,2.4*2C
$GPGSV,3,1,10,02,56,120,,06,35,058,,12,56,345,,14,10,311,*70
$GPGSV,3,2,10,15,10,202,29,19,23,044,,24,74,193,,25,29,306,22*79
$GPGSV,3,3,10,29,24,240,26,32,09,308,21,,,,,,,,*77
$GLGSV,2,1,06,73,13,326,,82,76,001,,83,40,220,33,81,25,029,*61
$GLGSV,2,2,06,80,64,359,,79,44,119,,,,,,,,,*61
$GPRMC,134359.000,A,3206.16332,N,03512.50684,E,0.6,227.3,030516,,A*40
$GPGGA,134359.000,3206.16332,N,03512.50684,E,1,05,4.0,669.11,M,16.8,M,,*6A
$GNGSA,A,3,25,29,32,15,,,,,,,,,4.6,4.0,2.4*25
$GNGSA,A,3,83,,,,,,,,,,,,4.6,4.0,2.4*27
$GNGSA,A,3,,,,,,,,,,,,,4.6,4.0,2.4*2C
$GPGSV,3,1,10,02,56,120,,06,35,058,,12,56,345,,14,10,311,*70
$GPGSV,3,2,10,15,10,202,29,19,23,044,,24,74,193,,25,29,306,22*79
$GPGSV,3,3,10,29,24,240,25,32,09,308,21,,,,,,,,*74
$GLGSV,2,1,06,73,13,326,,82,76,001,,83,40,220,33,81,25,029,*61
$GLGSV,2,2,06,80,64,359,,79,44,119,,,,,,,,,*61
$GPRMC,134359.400,A,3206.16327,N,03512.50678,E,0.7,222.3,030516,,A*47
$GPGGA,134359.400,3206.16327,N,03512.50678,E,1,05,4.0,669.22,M,16.8,M,,*69
$GNGSA,A,3,25,29,32,15,,,,,,,,,4.6,4.0,2.4*25
$GNGSA,A,3,83,,,,,,,,,,,,4.6,4.0,2.4*27
$GNGSA,A,3,,,,,,,,,,,,,4.6,4.0,2.4*2C
$GPGSV,3,1,10,02,56,120,,06,35,058,,12,56,345,,14,10,311,*70
$GPGSV,3,2,10,15,10,202,29,19,23,044,,24,74,193,,25,29,306,22*79
$GPGSV,3,3,10,29,24,240,24,32,09,308,21,,,,,,,,*75
$GLGSV,2,1,06,73,13,326,,82,76,001,,83,40,220,33,81,25,029,*61
$GLGSV,2,2,06,80,64,359,,79,44,119,,,,,,,,,*61
$GPRMC,134359.800,A,3206.16321,N,03512.50671,E,0.9,221.6,030516,,A*4C
$GPGGA,134359.800,3206.16321,N,03512.50671,E,1,05,4.0,669.33,M,16.8,M,,*6A
$GNGSA,A,3,25,29,32,15,,,,,,,,,4.6,4.0,2.4*25
$GNGSA,A,3,83,,,,,,,,,,,,4.6,4.0,2.4*27
$GNGSA,A,3,,,,,,,,,,,,,4.6,4.0,2.4*2C
$GPGSV,3,1,10,02,56,120,,06,35,058,,12,56,345,,14,10,311,*70
$GPGSV,3,2,10,15,10,202,29,19,23,044,,24,74,193,,25,29,306,22*79
$GPGSV,3,3,10,29,24,240,24,32,09,308,21,,,,,,,,*75
$GLGSV,2,1,06,73,13,326,,82,76,001,,83,40,220,33,81,25,029,*61
$GLGSV,2,2,06,80,64,359,,79,44,119,,,,,,,,,*61
$GPRMC,134400.200,A,3206.16314,N,03512.50664,E,0.8,222.3,030516,,A*48
$GPGGA,134400.200,3206.16314,N,03512.50664,E,1,05,4.0,669.44,M,16.8,M,,*69
$GNGSA,A,3,25,29,32,15,,,,,,,,,4.6,4.0,2.4*25
$GNGSA,A,3,83,,,,,,,,,,,,4.6,4.0,2.4*27
$GNGSA,A,3,,,,,,,,,,,,,4.6,4.0,2.4*2C
$GPGSV,3,1,10,02,56,120,,06,35,058,,12,56,345,,14,10,311,*70
$GPGSV,3,2,10,15,10,202,30,19,23,044,,24,74,193,,25,29,306,22*71
$GPGSV,3,3,10,29,24,240,24,32,09,308,20,,,,,,,,*74
$GLGSV,2,1,06,73,13,326,,82,76,001,,83,40,220,33,81,25,029,*61
$GLGSV,2,2,06,80,64,359,,79,44,119,,,,,,,,,*61
$GPRMC,134400.600,A,3206.16308,N,03512.50658,E,0.6,226.6,030516,,A*41
$GPGGA,134400.600,3206.16308,N,03512.50658,E,1,05,4.0,669.54,M,16.8,M,,*6E
$GNGSA,A,3,25,29,32,15,,,,,,,,,4.6,4.0,2.4*25
$GNGSA,A,3,83,,,,,,,,,,,,4.6,4.0,2.4*27
$GNGSA,A,3,,,,,,,,,,,,,4.6,4.0,2.4*2C
$GPGSV,3,1,10,02,56,120,,06,35,058,,12,56,345,,14,10,311,*70
$GPGSV,3,2,10,15,10,202,30,19,23,044,,24,74,193,,25,29,306,22*71
$GPGSV,3,3,10,29,24,240,24,32,09,308,20,,,,,,,,*74
$GLGSV,2,1,06,73,13,326,,82,76,001,,83,40,220,33,81,25,029,*61
$GLGSV,2,2,06,80,64,359,,79,44,119,,,,,,,,,*61
$GPRMC,134401.000,A,3206.16305,N,03512.50703,E,0.4,233.2,030516,,A*46
$GPGGA,134401.000,3206.16305,N,03512.50703,E,1,05,4.0,669.53,M,16.8,M,,*6C
$GNGSA,A,3,25,29,32,15,,,,,,,,,4.6,4.0,2.4*25
$GNGSA,A,3,83,,,,,,,,,,,,4.6,4.0,2.4*27
$GNGSA,A,3,,,,,,,,,,,,,4.6,4.0,2.4*2C
$GPGSV,3,1,10,02,56,120,,06,35,058,,12,56,345,,14,10,311,*70
$GPGSV,3,2,10,15,10,202,30,19,23,044,,24,74,193,,25,29,306,22*71
$GPGSV,3,3,10,29,24,240,24,32,09,308,20,,,,,,,,*74
$GLGSV,2,1,06,73,13,326,,82,76,001,,83,40,220,33,81,25,029,*61
$GLGSV,2,2,06,80,64,359,,79,44,119,,,,,,,,,*61
$GPRMC,134401.400,A,3206.16303,N,03512.50699,E,0.4,235.7,030516,,A*45
$GPGGA,134401.400,3206.16303,N,03512.50699,E,1,05,4.0,669.63,M,16.8,M,,*6F
$GNGSA,A,3,25,29,32,15,,,,,,,,,4.6,4.0,2.4*25
$GNGSA,A,3,83,,,,,,,,,,,,4.6,4.0,2.4*27
$GNGSA,A,3,,,,,,,,,,,,,4.6,4.0,2.4*2C
$GPGSV,3,1,10,02,56,120,,06,35,058,,12,56,345,,14,10,311,*70
$GPGSV,3,2,10,15,10,202,30,19,23,044,,24,74,193,,25,29,306,22*71
$GPGSV,3,3,10,29,24,240,24,32,09,308,20,,,,,,,,*74
$GLGSV,2,1,06,73,13,326,,82,76,001,,83,40,220,33,81,25,029,*61
$GLGSV,2,2,06,80,64,359,,79,44,119,,,,,,,,,*61
$GPRMC,134401.800,A,3206.16301,N,03512.50694,E,0.4,245.9,030516,,A*4F
$GPGGA,134401.800,3206.16301,N,03512.50694,E,1,05,4.0,669.73,M,16.8,M,,*6D
$GNGSA,A,3,25,29,32,15,,,,,,,,,4.6,4.0,2.4*25
$GNGSA,A,3,83,,,,,,,,,,,,4.6,4.0,2.4*27
$GNGSA,A,3,,,,,,,,,,,,,4.6,4.0,2.4*2C
$GPGSV,3,1,10,02,56,120,,06,35,058,,12,56,345,,14,10,311,*70
$GPGSV,3,2,10,15,10,202,30,19,23,044,,24,74,193,,25,29,306,22*71
$GPGSV,3,3,10,29,24,240,23,32,09,308,20,,,,,,,,*73
$GLGSV,2,1,06,73,13,326,,82,76,001,,83,40,220,33,81,25,029,*61
$GLGSV,2,2,06,80,64,359,,79,44,119,,,,,,,,,*61
$GPRMC,134402.400,A,3206.16299,N,03512.50688,E,0.3,264.2,030516,,A*42
$GPGGA,134402.400,3206.16299,N,03512.50688,E,1,05,4.0,669.87,M,16.8,M,,*64
$GNGSA,A,3,25,29,32,15,,,,,,,,,4.6,4.0,2.4*25
$GNGSA,A,3,83,,,,,,,,,,,,4.6,4.0,2.4*27
$GNGSA,A,3,,,,,,,,,,,,,4.6,4.0,2.4*2C
$GPGSV,3,1,10,02,56,120,,06,35,058,,12,56,345,,14,10,311,*70
$GPGSV,3,2,10,15,10,202,30,19,23,044,,24,74,193,,25,29,306,22*71
$GPGSV,3,3,10,29,24,240,23,32,09,308,20,,,,,,,,*73
$GLGSV,2,1,06,73,13,326,,82,76,001,,83,40,220,33,81,25,029,*61
$GLGSV,2,2,06,80,64,359,,79,44,119,,,,,,,,,*61
$GPRMC,134403.000,A,3206.16299,N,03512.50684,E,0.1,0.0,030516,,A*4B
$GPGGA,134403.000,3206.16299,N,03512.50684,E,1,05,4.0,670.01,M,16.8,M,,*6B
$GNGSA,A,3,25,29,32,15,,,,,,,,,4.6,4.0,2.4*25
$GNGSA,A,3,83,,,,,,,,,,,,4.6,4.0,2.4*27
$GNGSA,A,3,,,,,,,,,,,,,4.6,4.0,2.4*2C
$GPGSV,3,1,10,02,56,120,,06,35,058,,12,56,345,,14,10,311,*70
$GPGSV,3,2,10,15,10,202,30,19,23,044,,24,74,193,,25,29,306,23*70
$GPGSV,3,3,10,29,24,240,23,32,09,308,20,,,,,,,,*73
$GLGSV,2,1,06,73,13,326,,82,76,001,,83,40,220,33,81,25,029,*61
$GLGSV,2,2,06,80,64,359,,79,44,119,17,,,,,,,,*67
$GPRMC,134403.400,A,3206.16320,N,03512.50724,E,0.1,0.0,030516,,A*47
$GPGGA,134403.400,3206.16320,N,03512.50724,E,1,05,4.0,669.88,M,16.8,M,,*6E
$GNGSA,A,3,25,29,32,15,,,,,,,,,4.6,4.0,2.4*25
$GNGSA,A,3,83,,,,,,,,,,,,4.6,4.0,2.4*27
$GNGSA,A,3,,,,,,,,,,,,,4.6,4.0,2.4*2C
$GPGSV,3,1,10,02,56,120,,06,35,058,,12,56,345,,14,10,311,*70
$GPGSV,3,2,10,15,10,202,30,19,23,044,,24,74,193,,25,29,306,23*70
$GPGSV,3,3,10,29,24,240,23,32,09,308,20,,,,,,,,*73
$GLGSV,2,1,06,73,13,326,,82,76,001,,83,40,220,33,81,25,029,*61
$GLGSV,2,2,06,80,64,359,,79,44,119,17,,,,,,,,*67
$GPRMC,134403.800,A,3206.16321,N,03512.50726,E,0.4,79.6,030516,,A*75
$GPGGA,134403.800,3206.16321,N,03512.50726,E,1,05,4.0,669.96,M,16.8,M,,*6E
$GNGSA,A,3,25,29,32,15,,,,,,,,,4.6,4.0,2.4*25
$GNGSA,A,3,83,,,,,,,,,,,,4.6,4.0,2.4*27
$GNGSA,A,3,,,,,,,,,,,,,4.6,4.0,2.4*2C
$GPGSV,3,1,10,02,56,120,,06,35,058,,12,56,345,,14,10,311,*70
$GPGSV,3,2,10,15,10,202,30,19,23,044,,24,74,193,,25,29,306,23*70
$GPGSV,3,3,10,29,24,240,23,32,09,308,20,,,,,,,,*73
$GLGSV,2,1,06,73,13,326,,82,76,001,,83,40,220,33,81,25,029,*61
$GLGSV,2,2,06,80,64,359,,79,44,119,17,,,,,,,,*67
$GPRMC,134404.200,A,3206.16322,N,03512.50732,E,0.5,80.5,030516,,A*7A
$GPGGA,134404.200,3206.16322,N,03512.50732,E,1,05,4.0,670.05,M,16.8,M,,*67
$GNGSA,A,3,25,29,32,15,,,,,,,,,4.6,4.0,2.4*25
$GNGSA,A,3,83,,,,,,,,,,,,4.6,4.0,2.4*27
$GNGSA,A,3,,,,,,,,,,,,,4.6,4.0,2.4*2C
$GPGSV,3,1,10,02,56,120,,06,35,058,,12,56,345,,14,10,311,*70
$GPGSV,3,2,10,15,10,202,30,19,23,044,,24,74,193,,25,29,306,23*70
$GPGSV,3,3,10,29,24,240,23,32,09,308,20,,,,,,,,*73
$GLGSV,2,1,06,73,13,326,,82,76,001,,83,40,220,33,81,25,029,*61
$GLGSV,2,2,06,80,64,359,,79,44,119,17,,,,,,,,*67
$GPRMC,134404.800,A,3206.16324,N,03512.50743,E,0.7,69.5,030516,,A*75
$GPGGA,134404.800,3206.16324,N,03512.50743,E,1,05,4.0,670.16,M,16.8,M,,*6F
$GNGSA,A,3,25,29,32,15,,,,,,,,,4.6,4.0,2.4*25
$GNGSA,A,3,83,,,,,,,,,,,,4.6,4.0,2.4*27
$GNGSA,A,3,,,,,,,,,,,,,4.6,4.0,2.4*2C
$GPGSV,3,1,10,02,56,120,,06,35,058,,12,56,345,,14,10,311,*70
$GPGSV,3,2,10,15,10,202,30,19,23,044,,24,74,193,,25,29,306,23*70
$GPGSV,3,3,10,29,24,240,23,32,09,308,20,,,,,,,,*73
$GLGSV,2,1,06,73,13,326,,82,76,001,,83,40,220,33,81,25,029,*61
$GLGSV,2,2,06,80,64,359,,79,44,119,17,,,,,,,,*67
$GPRMC,134405.200,A,3206.16328,N,03512.50752,E,0.8,64.2,030516,,A*77
$GPGGA,134405.200,3206.16328,N,03512.50752,E,1,05,4.0,670.24,M,16.8,M,,*69
$GNGSA,A,3,25,29,32,15,,,,,,,,,4.6,4.0,2.4*25
$GNGSA,A,3,83,,,,,,,,,,,,4.6,4.0,2.4*27
$GNGSA,A,3,,,,,,,,,,,,,4.6,4.0,2.4*2C
$GPGSV,3,1,10,02,56,120,,06,35,058,,12,56,345,,14,10,311,*70
$GPGSV,3,2,10,15,10,202,30,19,22,044,,24,74,193,,25,29,306,23*71
$GPGSV,3,3,10,29,24,240,23,32,09,308,20,,,,,,,,*73
$GLGSV,2,1,06,73,13,326,,82,76,001,,83,40,220,32,81,25,029,*60
$GLGSV,2,2,06,80,64,359,,79,44,119,,,,,,,,,*61
$GPRMC,134405.600,A,3206.16339,N,03512.50814,E,0.6,69.9,030516,,A*76
$GPGGA,134405.600,3206.16339,N,03512.50814,E,1,05,4.0,670.04,M,16.8,M,,*62
$GNGSA,A,3,25,29,32,15,,,,,,,,,4.6,4.0,2.4*25
$GNGSA,A,3,83,,,,,,,,,,,,4.6,4.0,2.4*27
$GNGSA,A,3,,,,,,,,,,,,,4.6,4.0,2.4*2C
$GPGSV,3,1,10,02,56,120,,06,35,058,,12,56,345,,14,10,311,*70
$GPGSV,3,2,10,15,10,202,31,19,22,044,,24,74,193,,25,29,306,24*77
$GPGSV,3,3,10,29,24,240,24,32,09,308,20,,,,,,,,*74
$GLGSV,2,1,06,73,13,326,,82,76,001,,83,40,220,32,81,25,029,*60
$GLGSV,2,2,06,80,64,359,,79,44,119,,,,,,,,,*61
$GPRMC,134406.000,A,3206.16341,N,03512.50821,E,0.6,67.9,030516,,A*74
$GPGGA,134406.000,3206.16341,N,03512.50821,E,1,05,4.0,670.11,M,16.8,M,,*6A
$GNGSA,A,3,25,29,32,15,,,,,,,,,4.6,4.0,2.4*25
$GNGSA,A,3,83,,,,,,,,,,,,4.6,4.0,2.4*27
$GNGSA,A,3,,,,,,,,,,,,,4.6,4.0,2.4*2C
$GPGSV,3,1,10,02,56,120,,06,35,058,,12,56,345,,14,10,311,*70
$GPGSV,3,2,10,15,10,202,31,19,22,044,,24,74,193,,25,29,306,24*77
$GPGSV,3,3,10,29,24,240,24,32,09,308,20,,,,,,,,*74
$GLGSV,2,1,06,73,13,326,,82,76,001,,83,40,220,32,81,25,029,*60
$GLGSV,2,2,06,80,64,359,,79,44,119,,,,,,,,,*61
$GPRMC,134406.600,A,3206.16344,N,03512.50831,E,0.5,73.6,030516,,A*7F
$GPGGA,134406.600,3206.16344,N,03512.50831,E,1,05,4.0,670.22,M,16.8,M,,*68
$GNGSA,A,3,25,29,32,15,,,,,,,,,4.6,4.0,2.4*25
$GNGSA,A,3,83,,,,,,,,,,,,4.6,4.0,2.4*27
$GNGSA,A,3,,,,,,,,,,,,,4.6,4.0,2.4*2C
$GPGSV,3,1,10,02,56,120,,06,35,058,,12,56,345,,14,10,311,*70
$GPGSV,3,2,10,15,10,202,31,19,22,044,,24,74,193,,25,29,306,24*77
$GPGSV,3,3,10,29,24,240,24,32,09,308,20,,,,,,,,*74
$GLGSV,2,1,06,73,13,326,,82,76,001,,83,40,220,32,81,25,029,*60
$GLGSV,2,2,06,80,64,359,,79,44,119,,,,,,,,,*61
$GPRMC,134407.000,A,3206.16346,N,03512.50838,E,0.5,75.4,030516,,A*77
$GPGGA,134407.000,3206.16346,N,03512.50838,E,1,05,4.0,670.30,M,16.8,M,,*67
$GNGSA,A,3,25,29,32,15,,,,,,,,,4.6,4.0,2.4*25
$GNGSA,A,3,83,,,,,,,,,,,,4.6,4.0,2.4*27
$GNGSA,A,3,,,,,,,,,,,,,4.6,4.0,2.4*2C
$GPGSV,3,1,10,02,56,120,,06,35,058,,12,56,345,,14,10,311,*70
$GPGSV,3,2,10,15,10,202,30,19,22,044,,24,74,193,,25,29,306,24*76
$GPGSV,3,3,10,29,24,240,24,32,09,308,20,,,,,,,,*74
$GLGSV,2,1,06,73,13,326,,82,76,001,,83,40,220,31,81,25,029,*63
$GLGSV,2,2,06,80,64,359,,79,44,119,,,,,,,,,*61
$GPRMC,134407.400,A,3206.16346,N,03512.50844,E,0.4,91.7,030516,,A*70
$GPGGA,134407.400,3206.16346,N,03512.50844,E,1,05,4.0,670.37,M,16.8,M,,*6F
$GNGSA,A,3,25,29,32,15,,,,,,,,,4.6,4.0,2.4*25
$GNGSA,A,3,83,,,,,,,,,,,,4.6,4.0,2.4*27
$GNGSA,A,3,,,,,,,,,,,,,4.6,4.0,2.4*2C
$GPGSV,3,1,10,02,56,120,,06,35,058,,12,56,345,,14,10,311,*70
$GPGSV,3,2,10,15,10,202,30,19,22,044,,24,74,193,,25,29,306,24*76
$GPGSV,3,3,10,29,24,240,24,32,09,308,21,,,,,,,,*75
$GLGSV,2,1,06,73,13,326,,82,76,001,,83,40,220,31,81,25,029,*63
$GLGSV,2,2,06,80,64,359,,79,44,119,,,,,,,,,*61
$GPRMC,134408.000,A,3206.16358,N,03512.50892,E,0.4,110.1,030516,,A*41
$GPGGA,134408.000,3206.16358,N,03512.50892,E,1,05,4.0,670.39,M,16.8,M,,*6E
$GNGSA,A,3,25,29,32,15,,,,,,,,,4.6,4.0,2.4*25
$GNGSA,A,3,83,,,,,,,,,,,,4.6,4.0,2.4*27
$GNGSA,A,3,,,,,,,,,,,,,4.6,4.0,2.4*2C
$GPGSV,3,1,10,02,56,120,,06,35,058,,12,56,345,,14,10,311,*70
$GPGSV,3,2,10,15,10,202,30,19,22,044,,24,74,193,,25,29,306,24*76
$GPGSV,3,3,10,29,24,240,24,32,09,308,22,,,,,,,,*76
$GLGSV,2,1,06,73,13,326,,82,76,001,,83,40,220,31,81,25,029,*63
$GLGSV,2,2,06,80,64,359,,79,44,119,,,,,,,,,*61
$GPRMC,134408.200,A,3206.16357,N,03512.50894,E,0.4,106.3,030516,,A*4F
$GPGGA,134408.200,3206.16357,N,03512.50894,E,1,05,4.0,670.42,M,16.8,M,,*69
$GNGSA,A,3,25,29,32,15,,,,,,,,,4.6,4.0,2.4*25
$GNGSA,A,3,83,,,,,,,,,,,,4.6,4.0,2.4*27
$GNGSA,A,3,,,,,,,,,,,,,4.6,4.0,2.4*2C
$GPGSV,3,1,10,02,56,120,,06,35,058,,12,56,345,,14,10,311,*70
$GPGSV,3,2,10,15,10,202,30,19,22,044,,24,74,193,,25,29,306,24*76
$GPGSV,3,3,10,29,24,240,24,32,09,308,22,,,,,,,,*76
$GLGSV,2,1,06,73,13,326,,82,76,001,,83,40,220,31,81,25,029,*63
$GLGSV,2,2,06,80,64,359,,79,44,119,,,,,,,,,*61
$GPRMC,134408.800,A,3206.16355,N,03512.50901,E,0.4,119.6,030516,,A*41
$GPGGA,134408.800,3206.16355,N,03512.50901,E,1,05,4.0,670.53,M,16.8,M,,*6C
$GNGSA,A,3,25,29,32,15,,,,,,,,,4.6,4.0,2.4*25
$GNGSA,A,3,83,,,,,,,,,,,,4.6,4.0,2.4*27
$GNGSA,A,3,,,,,,,,,,,,,4.6,4.0,2.4*2C
$GPGSV,3,1,10,02,56,120,,06,35,058,,12,56,345,,14,10,311,*70
$GPGSV,3,2,10,15,10,202,30,19,22,044,,24,74,193,,25,29,306,24*76
$GPGSV,3,3,10,29,24,240,24,32,09,308,23,,,,,,,,*77
$GLGSV,2,1,06,73,13,326,,82,76,001,,83,40,220,31,81,25,029,*63
$GLGSV,2,2,06,80,64,359,,79,44,119,,,,,,,,,*61
$GPRMC,134409.400,A,3206.16352,N,03512.50908,E,0.4,107.8,030516,,A*43
$GPGGA,134409.400,3206.16352,N,03512.50908,E,1,05,4.0,670.63,M,16.8,M,,*6C
$GNGSA,A,3,25,29,32,15,,,,,,,,,4.6,4.0,2.4*25
$GNGSA,A,3,83,,,,,,,,,,,,4.6,4.0,2.4*27
$GNGSA,A,3,,,,,,,,,,,,,4.6,4.0,2.4*2C
$GPGSV,3,1,10,02,56,120,,06,35,058,,12,56,345,,14,10,311,*70
$GPGSV,3,2,10,15,10,202,30,19,22,044,,24,74,193,,25,29,306,24*76
$GPGSV,3,3,10,29,24,240,24,32,09,308,23,,,,,,,,*77
$GLGSV,2,1,06,73,13,326,,82,76,001,,83,40,220,32,81,25,029,*60
$GLGSV,2,2,06,80,64,359,,79,44,119,,,,,,,,,*61
$GPRMC,134409.800,A,3206.16351,N,03512.50914,E,0.5,97.5,030516,,A*75
$GPGGA,134409.800,3206.16351,N,03512.50914,E,1,05,4.0,670.70,M,16.8,M,,*6C
$GNGSA,A,3,25,29,32,15,,,,,,,,,4.6,4.0,2.4*25
$GNGSA,A,3,83,,,,,,,,,,,,4.6,4.0,2.4*27
$GNGSA,A,3,,,,,,,,,,,,,4.6,4.0,2.4*2C
$GPGSV,3,1,10,02,56,120,,06,35,058,,12,56,345,,14,10,311,*70
$GPGSV,3,2,10,15,10,202,29,19,22,044,,24,74,193,,25,29,306,25*7F
$GPGSV,3,3,10,29,24,240,24,32,09,308,23,,,,,,,,*77
$GLGSV,2,1,06,73,13,326,,82,76,001,,83,40,220,32,81,25,029,*60
$GLGSV,2,2,06,80,64,359,,79,44,119,20,,,,,,,,*63
$GPRMC,134410.200,A,3206.16365,N,03512.50978,E,0.7,85.9,030516,,A*77
$GPGGA,134410.200,3206.16365,N,03512.50978,E,1,05,4.0,670.28,M,16.8,M,,*6E
$GNGSA,A,3,25,29,32,15,,,,,,,,,4.6,4.0,2.4*25
$GNGSA,A,3,83,,,,,,,,,,,,4.6,4.0,2.4*27
$GNGSA,A,3,,,,,,,,,,,,,4.6,4.0,2.4*2C
$GPGSV,3,1,10,02,56,120,,06,35,058,,12,56,345,,14,10,311,*70
$GPGSV,3,2,10,15,10,202,30,19,22,044,,24,74,193,,25,29,306,25*77
$GPGSV,3,3,10,29,24,240,24,32,09,308,23,,,,,,,,*77
$GLGSV,2,1,06,73,13,326,,82,76,001,,83,40,220,32,81,25,029,*60
$GLGSV,2,2,06,80,65,000,,79,44,119,,,,,,,,,*6F
$GPRMC,134410.600,A,3206.16366,N,03512.50988,E,0.8,89.1,030516,,A*74
$GPGGA,134410.600,3206.16366,N,03512.50988,E,1,05,4.0,670.34,M,16.8,M,,*6B
$GNGSA,A,3,25,29,32,15,,,,,,,,,4.6,4.0,2.4*25
$GNGSA,A,3,83,,,,,,,,,,,,4.6,4.0,2.4*27
$GNGSA,A,3,,,,,,,,,,,,,4.6,4.0,2.4*2C
$GPGSV,3,1,11,02,56,120,,06,35,058,,12,56,345,,14,10,311,*71
$GPGSV,3,2,11,15,10,202,30,19,22,044,,24,74,193,,25,29,306,25*76
$GPGSV,3,3,11,29,24,240,24,32,09,308,24,33,24,246,,,,,*47
$GLGSV,2,1,06,73,13,326,,82,76,001,,83,40,220,32,81,25,029,*60
$GLGSV,2,2,06,80,65,000,,79,44,119,,,,,,,,,*6F
$GPRMC,134411.000,A,3206.16366,N,03512.50999,E,1.0,84.1,030516,,A*77
$GPGGA,134411.000,3206.16366,N,03512.50999,E,1,05,4.0,670.41,M,16.8,M,,*6E
$GNGSA,A,3,25,29,32,15,,,,,,,,,4.6,4.0,2.4*25
$GNGSA,A,3,83,,,,,,,,,,,,4.6,4.0,2.4*27
$GNGSA,A,3,,,,,,,,,,,,,4.6,4.0,2.4*2C
$GPGSV,3,1,11,02,56,120,,06,35,058,,12,56,345,,14,10,311,*71
$GPGSV,3,2,11,15,10,202,30,19,22,044,,24,74,193,,25,29,306,25*76
$GPGSV,3,3,11,29,24,240,24,32,09,308,24,33,24,246,,,,,*47
$GLGSV,2,1,06,73,13,326,,82,76,001,,83,40,220,32,81,25,029,*60
$GLGSV,2,2,06,80,65,000,,79,44,119,,,,,,,,,*6F
$GPRMC,134411.400,A,3206.16367,N,03512.51012,E,1.0,85.1,030516,,A*78
$GPGGA,134411.400,3206.16367,N,03512.51012,E,1,05,4.0,670.48,M,16.8,M,,*69
$GNGSA,A,3,25,29,32,15,,,,,,,,,4.6,4.0,2.4*25
$GNGSA,A,3,83,,,,,,,,,,,,4.6,4.0,2.4*27
$GNGSA,A,3,,,,,,,,,,,,,4.6,4.0,2.4*2C
$GPGSV,3,1,10,02,56,120,,06,35,058,,12,56,345,,14,10,311,*70
$GPGSV,3,2,10,15,10,202,29,19,22,044,,24,74,193,,25,29,306,25*7F
$GPGSV,3,3,10,29,24,240,24,32,09,308,24,,,,,,,,*70
$GLGSV,2,1,06,73,13,326,,82,76,001,,83,40,220,32,81,25,029,*60
$GLGSV,2,2,06,80,65,000,,79,44,119,,,,,,,,,*6F
$GPRMC,134411.800,A,3206.16369,N,03512.51024,E,0.8,81.3,030516,,A*70
$GPGGA,134411.800,3206.16369,N,03512.51024,E,1,05,4.0,670.54,M,16.8,M,,*63
$GNGSA,A,3,25,29,32,15,,,,,,,,,4.6,4.0,2.4*25
$GNGSA,A,3,83,,,,,,,,,,,,4.6,4.0,2.4*27
$GNGSA,A,3,,,,,,,,,,,,,4.6,4.0,2.4*2C
$GPGSV,3,1,10,02,56,120,,06,35,058,,12,56,345,,14,10,311,*70
$GPGSV,3,2,10,15,10,202,29,19,22,044,,24,74,193,,25,29,306,25*7F
$GPGSV,3,3,10,29,24,240,24,32,09,308,24,,,,,,,,*70
$GLGSV,2,1,06,73,13,326,,82,76,001,,83,40,220,32,81,25,029,*60
$GLGSV,2,2,06,80,65,000,,79,44,119,,,,,,,,,*6F
$GPRMC,134412.200,A,3206.16387,N,03512.51081,E,0.9,75.0,030516,,A*7F
$GPGGA,134412.200,3206.16387,N,03512.51081,E,1,05,4.0,670.59,M,16.8,M,,*68
$GNGSA,A,3,25,29,32,15,,,,,,,,,4.6,4.0,2.4*25
$GNGSA,A,3,83,,,,,,,,,,,,4.6,4.0,2.4*27
$GNGSA,A,3,,,,,,,,,,,,,4.6,4.0,2.4*2C
$GPGSV,3,1,10,02,56,120,,06,35,058,,12,56,345,,14,10,311,*70
$GPGSV,3,2,10,15,10,202,29,19,22,044,,24,74,193,,25,29,306,25*7F
$GPGSV,3,3,10,29,24,240,24,32,09,308,24,,,,,,,,*70
$GLGSV,2,1,06,73,13,326,,82,76,001,,83,40,220,32,81,25,029,*60
$GLGSV,2,2,06,80,65,000,,79,44,119,,,,,,,,,*6F
$GPRMC,134412.600,A,3206.16389,N,03512.51091,E,0.7,70.8,030516,,A*77
$GPGGA,134412.600,3206.16389,N,03512.51091,E,1,05,4.0,670.65,M,16.8,M,,*6C
$GNGSA,A,3,25,29,32,15,,,,,,,,,4.6,4.0,2.4*25
$GNGSA,A,3,83,,,,,,,,,,,,4.6,4.0,2.4*27
$GNGSA,A,3,,,,,,,,,,,,,4.6,4.0,2.4*2C
$GPGSV,3,1,10,02,56,120,,06,35,058,,12,56,345,,14,10,311,*70
$GPGSV,3,2,10,15,10,202,29,19,22,044,,24,74,193,,25,29,306,25*7F
$GPGSV,3,3,10,29,24,240,24,32,09,308,24,,,,,,,,*70
$GLGSV,2,1,06,73,13,326,,82,76,001,,83,40,220,31,81,25,029,*63
$GLGSV,2,2,06,80,65,000,,79,44,120,,,,,,,,,*65
$GPRMC,134413.000,A,3206.16392,N,03512.51100,E,0.7,70.9,030516,,A*72
$GPGGA,134413.000,3206.16392,N,03512.51100,E,1,05,4.0,670.71,M,16.8,M,,*6D
$GNGSA,A,3,25,29,32,15,,,,,,,,,4.6,4.0,2.4*25
$GNGSA,A,3,83,,,,,,,,,,,,4.6,4.0,2.4*27
$GNGSA,A,3,,,,,,,,,,,,,4.6,4.0,2.4*2C
$GPGSV,3,1,10,02,56,120,,06,35,058,,12,56,345,,14,10,311,*70
$GPGSV,3,2,10,15,10,202,29,19,22,044,,24,74,193,,25,29,306,25*7F
$GPGSV,3,3,10,29,24,240,24,32,09,308,24,,,,,,,,*70
$GLGSV,2,1,06,73,13,326,,82,76,001,,83,40,220,31,81,25,029,*63
$GLGSV,2,2,06,80,65,000,,79,44,120,,,,,,,,,*65
$GPRMC,134413.600,A,3206.16395,N,03512.51114,E,0.7,79.3,030516,,A*75
$GPGGA,134413.600,3206.16395,N,03512.51114,E,1,05,4.0,670.80,M,16.8,M,,*67
$GNGSA,A,3,25,29,32,15,,,,,,,,,4.6,4.0,2.4*25
$GNGSA,A,3,83,,,,,,,,,,,,4.6,4.0,2.4*27
$GNGSA,A,3,,,,,,,,,,,,,4.6,4.0,2.4*2C
$GPGSV,3,1,10,02,56,120,,06,35,058,,12,56,345,,14,10,311,*70
$GPGSV,3,2,10,15,10,202,29,19,22,044,,24,74,193,,25,29,306,25*7F
$GPGSV,3,3,10,29,24,240,24,32,09,308,25,,,,,,,,*71
$GLGSV,2,1,06,73,13,326,,82,76,001,,83,40,220,31,81,25,029,*63
$GLGSV,2,2,06,80,65,000,,79,44,120,,,,,,,,,*65
$GPRMC,134414.200,A,3206.16396,N,03512.51127,E,0.6,92.2,030516,,A*70
$GPGGA,134414.200,3206.16396,N,03512.51127,E,1,05,4.0,670.89,M,16.8,M,,*6E
$GNGSA,A,3,25,29,32,15,,,,,,,,,4.6,4.0,2.4*25
$GNGSA,A,3,83,,,,,,,,,,,,4.6,4.0,2.4*27
$GNGSA,A,3,,,,,,,,,,,,,4.6,4.0,2.4*2C
$GPGSV,3,1,10,02,56,120,,06,35,058,,12,56,345,,14,10,311,*70
$GPGSV,3,2,10,15,10,202,29,19,22,044,,24,74,193,,25,29,306,25*7F
$GPGSV,3,3,10,29,24,240,24,32,09,308,25,,,,,,,,*71
$GLGSV,2,1,06,73,13,326,,82,76,001,,83,40,220,31,81,25,029,*63
$GLGSV,2,2,06,80,65,000,,79,44,120,,,,,,,,,*65
$GPRMC,134414.600,A,3206.16390,N,03512.51192,E,0.6,100.1,030516,,A*45
$GPGGA,134414.600,3206.16390,N,03512.51192,E,1,05,4.0,670.90,M,16.8,M,,*6A
$GNGSA,A,3,25,29,32,15,,,,,,,,,4.6,4.0,2.4*25
$GNGSA,A,3,83,,,,,,,,,,,,4.6,4.0,2.4*27
$GNGSA,A,3,,,,,,,,,,,,,4.6,4.0,2.4*2C
$GPGSV,3,1,10,02,56,120,,06,35,058,,12,56,345,,14,10,311,*70
$GPGSV,3,2,10,15,10,202,29,19,22,044,,24,74,193,,25,29,306,25*7F
$GPGSV,3,3,10,29,24,240,24,32,09,308,25,,,,,,,,*71
$GLGSV,2,1,06,73,13,326,,82,76,001,,83,40,220,31,81,25,029,*63
$GLGSV,2,2,06,80,65,000,,79,44,120,,,,,,,,,*65
$GPRMC,134415.000,A,3206.16389,N,03512.51199,E,0.6,102.1,030516,,A*43
$GPGGA,134415.000,3206.16389,N,03512.51199,E,1,05,4.0,670.96,M,16.8,M,,*68
$GNGSA,A,3,25,29,32,15,,,,,,,,,4.6,4.0,2.4*25
$GNGSA,A,3,83,,,,,,,,,,,,4.6,4.0,2.4*27
$GNGSA,A,3,,,,,,,,,,,,,4.6,4.0,2.4*2C
$GPGSV,3,1,10,02,56,120,,06,35,058,,12,56,345,,14,10,311,*70
$GPGSV,3,2,10,15,10,202,29,19,22,044,,24,74,193,,25,29,306,25*7F
$GPGSV,3,3,10,29,24,240,24,32,09,308,25,,,,,,,,*71
$GLGSV,2,1,06,73,13,326,,82,76,001,,83,40,220,31,81,25,029,*63
$GLGSV,2,2,06,80,65,000,,79,44,120,,,,,,,,,*65
$GPRMC,134415.400,A,3206.16387,N,03512.51207,E,0.6,102.4,030516,,A*48
$GPGGA,134415.400,3206.16387,N,03512.51207,E,1,05,4.0,671.02,M,16.8,M,,*6A
$GNGSA,A,3,25,29,32,15,,,,,,,,,4.6,4.0,2.4*25
$GNGSA,A,3,83,,,,,,,,,,,,4.6,4.0,2.4*27
$GNGSA,A,3,,,,,,,,,,,,,4.6,4.0,2.4*2C
$GPGSV,3,1,10,02,56,120,,06,35,058,,12,56,345,,14,10,311,*70
$GPGSV,3,2,10,15,10,202,29,19,22,044,,24,74,193,,25,29,306,25*7F
$GPGSV,3,3,10,29,24,240,24,32,09,308,25,,,,,,,,*71
$GLGSV,2,1,06,73,13,326,,82,76,001,,83,40,220,31,81,25,029,*63
$GLGSV,2,2,06,80,65,000,,79,44,120,,,,,,,,,*65
$GPRMC,134415.800,A,3206.16385,N,03512.51214,E,0.5,116.9,030516,,A*4F
$GPGGA,134415.800,3206.16385,N,03512.51214,E,1,05,3.9,671.08,M,16.8,M,,*62
$GNGSA,A,3,25,29,32,15,,,,,,,,,4.6,3.9,2.4*2B
$GNGSA,A,3,83,,,,,,,,,,,,4.6,3.9,2.4*29
$GNGSA,A,3,,,,,,,,,,,,,4.6,3.9,2.4*22
$GPGSV,3,1,10,02,56,120,,06,35,058,,12,56,345,,14,10,311,*70
$GPGSV,3,2,10,15,10,202,29,19,22,044,,24,74,193,,25,29,306,25*7F
$GPGSV,3,3,10,29,24,240,25,32,09,308,25,,,,,,,,*70
$GLGSV,2,1,06,73,13,326,,82,76,001,,83,40,220,31,81,25,029,*63
$GLGSV,2,2,06,80,65,000,,79,44,120,,,,,,,,,*65
$GPRMC,134416.200,A,3206.16381,N,03512.51221,E,0.7,129.0,030516,,A*43
$GPGGA,134416.200,3206.16381,N,03512.51221,E,1,05,3.9,671.14,M,16.8,M,,*64
$GNGSA,A,3,25,29,32,15,,,,,,,,,4.6,3.9,2.4*2B
$GNGSA,A,3,83,,,,,,,,,,,,4.6,3.9,2.4*29
$GNGSA,A,3,,,,,,,,,,,,,4.6,3.9,2.4*22
$GPGSV,3,1,10,02,56,120,,06,35,058,,12,56,345,,14,10,311,*70
$GPGSV,3,2,10,15,10,202,29,19,22,044,,24,74,193,,25,29,306,25*7F
$GPGSV,3,3,10,29,24,240,25,32,09,308,25,,,,,,,,*70
$GLGSV,2,1,06,73,13,326,,82,76,001,,83,40,220,30,81,25,029,*62
$GLGSV,2,2,06,80,65,000,,79,44,120,,,,,,,,,*65
$GPRMC,134416.600,A,3206.16373,N,03512.51304,E,0.7,126.7,030516,,A*44
$GPGGA,134416.600,3206.16373,N,03512.51304,E,1,05,3.9,671.20,M,16.8,M,,*6C
$GNGSA,A,3,25,29,32,15,,,,,,,,,4.6,3.9,2.4*2B
$GNGSA,A,3,83,,,,,,,,,,,,4.6,3.9,2.4*29
$GNGSA,A,3,,,,,,,,,,,,,4.6,3.9,2.4*22
$GPGSV,3,1,10,02,56,120,,06,35,058,,12,56,345,,14,10,311,*70
$GPGSV,3,2,10,15,10,202,28,19,22,044,,24,74,193,,25,29,306,25*7E
$GPGSV,3,3,10,29,24,240,25,32,09,308,25,,,,,,,,*70
$GLGSV,2,1,06,73,13,326,,82,76,001,,83,40,220,30,81,25,029,*62
$GLGSV,2,2,06,80,65,000,,79,44,120,,,,,,,,,*65
$GPRMC,134417.000,A,3206.16370,N,03512.51312,E,0.7,107.3,030516,,A*40
$GPGGA,134417.000,3206.16370,N,03512.51312,E,1,05,3.9,671.26,M,16.8,M,,*69
$GNGSA,A,3,25,29,32,15,,,,,,,,,4.6,3.9,2.4*2B
$GNGSA,A,3,83,,,,,,,,,,,,4.6,3.9,2.4*29
$GNGSA,A,3,,,,,,,,,,,,,4.6,3.9,2.4*22
$GPGSV,3,1,10,02,56,120,,06,35,058,,12,56,345,,14,10,311,*70
$GPGSV,3,2,10,15,10,202,28,19,22,044,,24,74,193,,25,29,306,25*7E
$GPGSV,3,3,10,29,24,240,25,32,09,308,25,,,,,,,,*70
$GLGSV,2,1,06,73,13,326,,82,76,001,,83,40,220,30,81,25,029,*62
$GLGSV,2,2,06,80,65,000,,79,44,120,,,,,,,,,*65
$GPRMC,134417.600,A,3206.16369,N,03512.51323,E,0.6,81.4,030516,,A*75
$GPGGA,134417.600,3206.16369,N,03512.51323,E,1,05,3.9,671.35,M,16.8,M,,*67
$GNGSA,A,3,25,29,32,15,,,,,,,,,4.6,3.9,2.4*2B
$GNGSA,A,3,83,,,,,,,,,,,,4.6,3.9,2.4*29
$GNGSA,A,3,,,,,,,,,,,,,4.6,3.9,2.4*22
$GPGSV,3,1,10,02,56,120,,06,35,058,,12,56,345,,14,10,311,*70
$GPGSV,3,2,10,15,10,202,28,19,22,044,,24,74,192,,25,29,306,25*7F
$GPGSV,3,3,10,29,24,240,25,32,09,308,24,,,,,,,,*71
$GLGSV,2,1,06,73,13,326,,82,76,001,,83,40,220,29,81,25,029,*6A
$GLGSV,2,2,06,80,65,000,,79,44,120,,,,,,,,,*65
$GPRMC,134418.200,A,3206.16374,N,03512.51337,E,1.0,57.3,030516,,A*7C
$GPGGA,134418.200,3206.16374,N,03512.51337,E,1,05,3.9,671.44,M,16.8,M,,*63
$GNGSA,A,3,25,29,32,15,,,,,,,,,4.6,3.9,2.4*2B
$GNGSA,A,3,83,,,,,,,,,,,,4.6,3.9,2.4*29
$GNGSA,A,3,,,,,,,,,,,,,4.6,3.9,2.4*22
$GPGSV,3,1,10,02,56,120,,06,35,058,,12,56,345,,14,10,311,*70
$GPGSV,3,2,10,15,10,202,28,19,22,044,,24,74,192,,25,29,306,25*7F
$GPGSV,3,3,10,29,24,240,25,32,09,308,24,,,,,,,,*71
$GLGSV,2,1,06,73,13,326,,82,76,001,,83,40,220,29,81,25,029,*6A
$GLGSV,2,2,06,80,65,000,,79,44,120,,,,,,,,,*65
$GPRMC,134418.600,A,3206.16380,N,03512.51348,E,1.0,58.8,030516,,A*7F
$GPGGA,134418.600,3206.16380,N,03512.51348,E,1,05,3.9,671.49,M,16.8,M,,*69
$GNGSA,A,3,25,29,32,15,,,,,,,,,4.6,3.9,2.4*2B
$GNGSA,A,3,83,,,,,,,,,,,,4.6,3.9,2.4*29
$GNGSA,A,3,,,,,,,,,,,,,4.6,3.9,2.4*22
$GPGSV,3,1,10,02,56,120,,06,35,058,,12,56,345,,14,10,311,*70
$GPGSV,3,2,10,15,10,202,27,19,22,044,,24,74,192,,25,29,306,25*70
$GPGSV,3,3,10,29,24,240,25,32,09,308,24,,,,,,,,*71
$GLGSV,2,1,06,73,13,326,,82,76,001,,83,40,220,28,81,25,029,*6B
$GLGSV,2,2,06,80,65,000,,79,44,120,,,,,,,,,*65
$GPRMC,134419.200,A,3206.16383,N,03512.51427,E,1.2,58.4,030516,,A*79
$GPGGA,134419.200,3206.16383,N,03512.51427,E,1,05,3.9,671.59,M,16.8,M,,*60
$GNGSA,A,3,25,29,32,15,,,,,,,,,4.6,3.9,2.4*2B
$GNGSA,A,3,83,,,,,,,,,,,,4.6,3.9,2.4*29
$GNGSA,A,3,,,,,,,,,,,,,4.6,3.9,2.4*22
$GPGSV,3,1,10,02,56,120,,06,35,058,,12,56,345,,14,10,311,*70
$GPGSV,3,2,10,15,10,202,27,19,22,044,,24,74,192,,25,29,306,25*70
$GPGSV,3,3,10,29,24,240,25,32,09,308,24,,,,,,,,*71
$GLGSV,2,1,06,73,13,326,,82,76,001,,83,40,220,28,81,25,029,*6B
$GLGSV,2,2,06,80,65,000,,79,44,120,,,,,,,,,*65
$GPRMC,134419.600,A,3206.16389,N,03512.51442,E,1.2,70.2,030516,,A*78
$GPGGA,134419.600,3206.16389,N,03512.51442,E,1,05,3.9,671.64,M,16.8,M,,*63
$GNGSA,A,3,25,29,32,15,,,,,,,,,4.6,3.9,2.4*2B
$GNGSA,A,3,83,,,,,,,,,,,,4.6,3.9,2.4*29
$GNGSA,A,3,,,,,,,,,,,,,4.6,3.9,2.4*22
$GPGSV,3,1,10,02,56,120,,06,35,058,,12,56,345,,14,10,311,*70
$GPGSV,3,2,10,15,10,202,27,19,22,044,,24,74,192,,25,29,306,25*70
$GPGSV,3,3,10,29,24,240,25,32,09,308,24,,,,,,,,*71
$GLGSV,2,1,06,73,13,326,,82,76,001,,83,40,220,28,81,25,029,*6B
$GLGSV,2,2,06,80,65,000,,79,44,120,,,,,,,,,*65
$GPRMC,134420.000,A,3206.16394,N,03512.51456,E,1.2,70.2,030516,,A*7D
$GPGGA,134420.000,3206.16394,N,03512.51456,E,1,05,3.9,671.69,M,16.8,M,,*6B
$GNGSA,A,3,25,29,32,15,,,,,,,,,4.6,3.9,2.4*2B
$GNGSA,A,3,83,,,,,,,,,,,,4.6,3.9,2.4*29
$GNGSA,A,3,,,,,,,,,,,,,4.6,3.9,2.4*22
$GPGSV,3,1,10,02,56,120,,06,35,058,,12,56,345,,14,10,311,*70
$GPGSV,3,2,10,15,10,202,27,19,22,044,,24,74,192,,25,29,306,25*70
$GPGSV,3,3,10,29,24,240,25,32,09,308,24,,,,,,,,*71
$GLGSV,2,1,06,73,13,326,,82,76,001,,83,40,220,28,81,25,029,*6B
$GLGSV,2,2,06,80,65,000,,79,44,120,,,,,,,,,*65
$GPRMC,134420.400,A,3206.16398,N,03512.51471,E,1.2,70.2,030516,,A*70
$GPGGA,134420.400,3206.16398,N,03512.51471,E,1,05,3.9,671.74,M,16.8,M,,*6A
$GNGSA,A,3,25,29,32,15,,,,,,,,,4.6,3.9,2.4*2B
$GNGSA,A,3,83,,,,,,,,,,,,4.6,3.9,2.4*29
$GNGSA,A,3,,,,,,,,,,,,,4.6,3.9,2.4*22
$GPGSV,3,1,10,02,56,120,,06,35,058,,12,56,345,,14,10,311,*70
$GPGSV,3,2,10,15,10,202,27,19,22,044,,24,74,192,,25,30,307,25*79
$GPGSV,3,3,10,29,24,240,25,32,09,308,24,,,,,,,,*71
$GLGSV,2,1,06,73,13,326,,82,76,001,,83,40,220,28,81,25,029,*6B
$GLGSV,2,2,06,80,65,000,,79,44,120,,,,,,,,,*65
$GPRMC,134420.800,A,3206.16403,N,03512.51486,E,1.3,69.0,030516,,A*7A
$GPGGA,134420.800,3206.16403,N,03512.51486,E,1,05,3.9,671.79,M,16.8,M,,*66
$GNGSA,A,3,25,29,32,15,,,,,,,,,4.6,3.9,2.4*2B
$GNGSA,A,3,83,,,,,,,,,,,,4.6,3.9,2.4*29
$GNGSA,A,3,,,,,,,,,,,,,4.6,3.9,2.4*22
$GPGSV,3,1,10,02,56,120,,06,35,058,,12,56,345,,14,10,311,*70
$GPGSV,3,2,10,15,10,202,27,19,22,044,,24,74,192,,25,30,307,25*79
$GPGSV,3,3,10,29,24,240,25,32,09,308,24,,,,,,,,*71
$GLGSV,2,1,06,73,13,326,,82,76,001,,83,40,220,28,81,25,029,*6B
$GLGSV,2,2,06,80,65,000,,79,44,120,,,,,,,,,*65
$GPRMC,134421.000,A,3206.16408,N,03512.51557,E,1.1,71.8,030516,,A*76
$GPGGA,134421.000,3206.16408,N,03512.51557,E,1,05,3.9,671.75,M,16.8,M,,*65
$GNGSA,A,3,25,29,32,15,,,,,,,,,4.6,3.9,2.4*2B
$GNGSA,A,3,83,,,,,,,,,,,,4.6,3.9,2.4*29
$GNGSA,A,3,,,,,,,,,,,,,4.6,3.9,2.4*22
$GPGSV,3,1,10,02,56,120,,06,35,058,,12,56,345,,14,10,311,*70
$GPGSV,3,2,10,15,10,202,27,19,22,044,,24,74,192,,25,30,307,25*79
$GPGSV,3,3,10,29,24,240,25,32,09,308,24,,,,,,,,*71
$GLGSV,2,1,06,73,13,326,,82,76,001,,83,40,220,28,81,25,029,*6B
$GLGSV,2,2,06,80,65,000,,79,44,120,,,,,,,,,*65
$GPRMC,134421.600,A,3206.16415,N,03512.51578,E,1.2,70.6,030516,,A*7D
$GPGGA,134421.600,3206.16415,N,03512.51578,E,1,05,3.9,671.82,M,16.8,M,,*6A
$GNGSA,A,3,25,29,32,15,,,,,,,,,4.6,3.9,2.4*2B
$GNGSA,A,3,83,,,,,,,,,,,,4.6,3.9,2.4*29
$GNGSA,A,3,,,,,,,,,,,,,4.6,3.9,2.4*22
$GPGSV,3,1,10,02,56,120,,06,35,058,,12,56,345,,14,10,311,*70
$GPGSV,3,2,10,15,10,202,27,19,22,044,,24,74,192,,25,30,307,25*79
$GPGSV,3,3,10,29,24,240,25,32,09,308,24,,,,,,,,*71
$GLGSV,2,1,06,73,13,326,,82,76,001,,83,40,220,28,81,25,029,*6B
$GLGSV,2,2,06,80,65,000,,79,44,120,,,,,,,,,*65
$GPRMC,134422.200,A,3206.16421,N,03512.51599,E,1.1,69.2,030516,,A*7D
$GPGGA,134422.200,3206.16421,N,03512.51599,E,1,05,3.9,671.89,M,16.8,M,,*6E
$GNGSA,A,3,25,29,32,15,,,,,,,,,4.6,3.9,2.4*2B
$GNGSA,A,3,83,,,,,,,,,,,,4.6,3.9,2.4*29
$GNGSA,A,3,,,,,,,,,,,,,4.6,3.9,2.4*22
$GPGSV,3,1,10,02,56,120,,06,35,058,,12,56,345,,14,10,311,*70
$GPGSV,3,2,10,15,10,202,27,19,22,044,,24,74,192,,25,30,307,25*79
$GPGSV,3,3,10,29,24,240,25,32,09,308,24,,,,,,,,*71
$GLGSV,2,1,06,73,13,326,,82,76,001,,83,40,220,28,81,25,029,*6B
$GLGSV,2,2,06,80,65,000,,79,44,120,,,,,,,,,*65
$GPRMC,134422.400,A,3206.16423,N,03512.51605,E,1.0,63.2,030516,,A*74
$GPGGA,134422.400,3206.16423,N,03512.51605,E,1,05,3.9,671.92,M,16.8,M,,*66
$GNGSA,A,3,25,29,32,15,,,,,,,,,4.6,3.9,2.4*2B
$GNGSA,A,3,83,,,,,,,,,,,,4.6,3.9,2.4*29
$GNGSA,A,3,,,,,,,,,,,,,4.6,3.9,2.4*22
$GPGSV,3,1,10,02,56,120,,06,35,058,,12,56,345,,14,10,311,*70
$GPGSV,3,2,10,15,10,202,27,19,22,044,,24,74,192,,25,30,307,25*79
$GPGSV,3,3,10,29,24,240,25,32,09,308,24,,,,,,,,*71
$GLGSV,2,1,06,73,13,326,,82,76,001,,83,40,220,28,81,25,029,*6B
$GLGSV,2,2,06,80,65,000,,79,44,120,,,,,,,,,*65
$GPRMC,134423.000,A,3206.16429,N,03512.51620,E,0.7,74.8,030516,,A*76
$GPGGA,134423.000,3206.16429,N,03512.51620,E,1,05,3.9,671.98,M,16.8,M,,*64
$GNGSA,A,3,25,29,32,15,,,,,,,,,4.6,3.9,2.4*2B
$GNGSA,A,3,83,,,,,,,,,,,,4.6,3.9,2.4*29
$GNGSA,A,3,,,,,,,,,,,,,4.6,3.9,2.4*22
$GPGSV,3,1,11,02,56,120,,06,35,058,,12,56,345,,14,10,311,*71
$GPGSV,3,2,11,15,10,202,26,19,22,044,,24,74,192,,25,30,307,25*79
$GPGSV,3,3,11,29,24,240,25,32,09,308,24,33,24,246,,,,,*46
$GLGSV,2,1,06,73,13,326,,82,76,001,,83,40,220,28,81,25,029,*6B
$GLGSV,2,2,06,80,65,000,,79,44,120,,,,,,,,,*65
$GPRMC,134423.400,A,3206.16446,N,03512.51675,E,0.6,77.9,030516,,A*78
$GPGGA,134423.400,3206.16446,N,03512.51675,E,1,05,3.9,671.90,M,16.8,M,,*61
$GNGSA,A,3,25,29,32,15,,,,,,,,,4.6,3.9,2.4*2B
$GNGSA,A,3,83,,,,,,,,,,,,4.6,3.9,2.4*29
$GNGSA,A,3,,,,,,,,,,,,,4.6,3.9,2.4*22
$GPGSV,3,1,11,02,56,120,,06,35,058,,12,56,345,,14,10,311,*71
$GPGSV,3,2,11,15,10,202,26,19,22,044,,24,74,192,,25,30,307,25*79
$GPGSV,3,3,11,29,24,240,25,32,09,308,24,33,24,246,,,,,*46
$GLGSV,2,1,06,73,13,326,,82,76,001,,83,40,220,28,81,25,029,*6B
$GLGSV,2,2,06,80,65,000,,79,44,120,,,,,,,,,*65
$GPRMC,134423.800,A,3206.16447,N,03512.51682,E,0.6,85.8,030516,,A*71
$GPGGA,134423.800,3206.16447,N,03512.51682,E,1,05,3.9,671.94,M,16.8,M,,*60
$GNGSA,A,3,25,29,32,15,,,,,,,,,4.6,3.9,2.4*2B
$GNGSA,A,3,83,,,,,,,,,,,,4.6,3.9,2.4*29
$GNGSA,A,3,,,,,,,,,,,,,4.6,3.9,2.4*22
$GPGSV,3,1,11,02,56,120,,06,35,058,,12,56,345,,14,10,311,*71
$GPGSV,3,2,11,15,10,202,26,19,22,044,,24,74,192,,25,30,307,25*79
$GPGSV,3,3,11,29,24,240,25,32,09,308,24,33,24,246,,,,,*46
$GLGSV,2,1,06,73,13,326,,82,76,001,,83,40,220,28,81,25,029,*6B
$GLGSV,2,2,06,80,65,000,,79,44,120,,,,,,,,,*65
$GPRMC,134424.200,A,3206.16447,N,03512.51690,E,0.6,94.2,030516,,A*75
$GPGGA,134424.200,3206.16447,N,03512.51690,E,1,05,3.9,671.99,M,16.8,M,,*63
$GNGSA,A,3,25,29,32,15,,,,,,,,,4.6,3.9,2.4*2B
$GNGSA,A,3,83,,,,,,,,,,,,4.6,3.9,2.4*29
$GNGSA,A,3,,,,,,,,,,,,,4.6,3.9,2.4*22
$GPGSV,3,1,10,02,56,120,,06,35,058,,12,56,345,,14,10,311,*70
$GPGSV,3,2,10,15,10,202,26,19,22,044,,24,74,192,,25,30,307,25*78
$GPGSV,3,3,10,29,24,240,25,32,09,308,24,,,,,,,,*71
$GLGSV,2,1,06,73,13,326,,82,76,001,,83,40,220,28,81,25,029,*6B
$GLGSV,2,2,06,80,65,000,,79,44,120,,,,,,,,,*65
$GPRMC,134424.800,A,3206.16446,N,03512.51702,E,0.7,98.1,030516,,A*7A
$GPGGA,134424.800,3206.16446,N,03512.51702,E,1,05,3.9,672.06,M,16.8,M,,*67
$GNGSA,A,3,25,29,32,15,,,,,,,,,4.6,3.9,2.4*2B
$GNGSA,A,3,83,,,,,,,,,,,,4.6,3.9,2.4*29
$GNGSA,A,3,,,,,,,,,,,,,4.6,3.9,2.4*22
$GPGSV,3,1,10,02,56,120,,06,35,058,,12,56,345,,14,10,311,*70
$GPGSV,3,2,10,15,10,202,26,19,22,044,,24,74,192,,25,30,307,25*78
$GPGSV,3,3,10,29,24,240,25,32,09,308,24,,,,,,,,*71
$GLGSV,2,1,06,73,13,326,,82,76,001,,83,40,220,28,81,25,029,*6B
$GLGSV,2,2,06,80,65,000,,79,44,120,,,,,,,,,*65
$GPRMC,134425.400,A,3206.16445,N,03512.51718,E,0.9,91.0,030516,,A*79
$GPGGA,134425.400,3206.16445,N,03512.51718,E,1,05,3.9,672.12,M,16.8,M,,*67
$GNGSA,A,3,25,29,32,15,,,,,,,,,4.6,3.9,2.4*2B
$GNGSA,A,3,83,,,,,,,,,,,,4.6,3.9,2.4*29
$GNGSA,A,3,,,,,,,,,,,,,4.6,3.9,2.4*22
$GPGSV,3,1,10,02,56,120,,06,35,058,,12,56,345,,14,10,311,*70
$GPGSV,3,2,10,15,10,202,26,19,22,044,,24,74,192,,25,30,307,25*78
$GPGSV,3,3,10,29,24,240,25,32,09,308,24,,,,,,,,*71
$GLGSV,2,1,06,73,13,326,,82,76,001,,83,40,220,29,81,25,029,*6A
$GLGSV,2,2,06,80,65,000,,79,44,120,,,,,,,,,*65
$GPRMC,134425.800,A,3206.16461,N,03512.51778,E,0.9,84.6,030516,,A*77
$GPGGA,134425.800,3206.16461,N,03512.51778,E,1,05,3.9,672.19,M,16.8,M,,*60
$GNGSA,A,3,25,29,32,15,,,,,,,,,4.6,3.9,2.4*2B
$GNGSA,A,3,83,,,,,,,,,,,,4.6,3.9,2.4*29
$GNGSA,A,3,,,,,,,,,,,,,4.6,3.9,2.4*22
$GPGSV,3,1,10,02,56,120,,06,35,058,,12,56,345,,14,10,311,*70
$GPGSV,3,2,10,15,10,202,26,19,22,044,,24,74,192,,25,30,307,25*78
$GPGSV,3,3,10,29,24,240,25,32,09,308,24,,,,,,,,*71
$GLGSV,2,1,06,73,13,326,,82,76,001,,83,40,220,29,81,25,029,*6A
$GLGSV,2,2,06,80,65,000,,79,44,120,,,,,,,,,*65
$GPRMC,134426.200,A,3206.16463,N,03512.51790,E,0.9,82.2,030516,,A*78
$GPGGA,134426.200,3206.16463,N,03512.51790,E,1,05,3.9,672.24,M,16.8,M,,*63
$GNGSA,A,3,25,29,32,15,,,,,,,,,4.6,3.9,2.4*2B
$GNGSA,A,3,83,,,,,,,,,,,,4.6,3.9,2.4*29
$GNGSA,A,3,,,,,,,,,,,,,4.6,3.9,2.4*22
$GPGSV,3,1,10,02,56,120,,06,35,058,,12,56,345,,14,10,311,*70
$GPGSV,3,2,10,15,10,202,26,19,22,044,,24,74,192,,25,30,307,25*78
$GPGSV,3,3,10,29,24,240,25,32,09,308,24,,,,,,,,*71
$GLGSV,2,1,06,73,13,326,,82,76,001,,83,40,220,29,81,25,029,*6A
$GLGSV,2,2,06,80,65,000,,79,44,120,,,,,,,,,*65
$GPRMC,134426.600,A,3206.16464,N,03512.51801,E,0.8,83.1,030516,,A*7F
$GPGGA,134426.600,3206.16464,N,03512.51801,E,1,05,3.9,672.28,M,16.8,M,,*6B
$GNGSA,A,3,25,29,32,15,,,,,,,,,4.6,3.9,2.4*2B
$GNGSA,A,3,83,,,,,,,,,,,,4.6,3.9,2.4*29
$GNGSA,A,3,,,,,,,,,,,,,4.6,3.9,2.4*22
$GPGSV,3,1,10,02,56,120,,06,35,058,,12,56,345,,14,10,311,*70
$GPGSV,3,2,10,15,10,202,26,19,22,044,,24,74,192,,25,30,307,25*78
$GPGSV,3,3,10,29,24,240,25,32,09,308,24,,,,,,,,*71
$GLGSV,2,1,06,73,13,326,,82,76,001,,83,40,220,29,81,25,029,*6A
$GLGSV,2,2,06,80,65,000,,79,44,120,,,,,,,,,*65
$GPRMC,134427.000,A,3206.16465,N,03512.51812,E,0.8,86.5,030516,,A*7A
$GPGGA,134427.000,3206.16465,N,03512.51812,E,1,05,3.9,672.32,M,16.8,M,,*64
$GNGSA,A,3,25,29,32,15,,,,,,,,,4.6,3.9,2.4*2B
$GNGSA,A,3,83,,,,,,,,,,,,4.6,3.9,2.4*29
$GNGSA,A,3,,,,,,,,,,,,,4.6,3.9,2.4*22
$GPGSV,3,1,10,02,56,120,,06,35,058,,12,56,345,,14,10,311,*70
$GPGSV,3,2,10,15,10,202,26,19,22,044,,24,74,192,,25,30,307,25*78
$GPGSV,3,3,10,29,24,240,25,32,09,308,24,,,,,,,,*71
$GLGSV,2,1,06,73,13,326,,82,76,001,,83,40,220,28,81,25,029,*6B
$GLGSV,2,2,06,80,65,000,,79,44,120,,,,,,,,,*65
$GPRMC,134427.400,A,3206.16465,N,03512.51823,E,0.9,89.1,030516,,A*76
$GPGGA,134427.400,3206.16465,N,03512.51823,E,1,05,3.9,672.36,M,16.8,M,,*66
$GNGSA,A,3,25,29,32,15,,,,,,,,,4.6,3.9,2.4*2B
$GNGSA,A,3,83,,,,,,,,,,,,4.6,3.9,2.4*29
$GNGSA,A,3,,,,,,,,,,,,,4.6,3.9,2.4*22
$GPGSV,3,1,10,02,56,120,,06,35,058,,12,56,345,,14,10,311,*70
$GPGSV,3,2,10,15,10,202,26,19,22,044,,24,74,192,,25,30,307,25*78
$GPGSV,3,3,10,29,24,240,25,32,09,308,24,,,,,,,,*71
$GLGSV,2,1,06,73,13,326,,82,76,001,,83,40,220,28,81,25,029,*6B
$GLGSV,2,2,06,80,65,000,,79,44,120,,,,,,,,,*65
$GPRMC,134427.800,A,3206.16470,N,03512.51854,E,0.9,85.6,030516,,A*75
$GPGGA,134427.800,3206.16470,N,03512.51854,E,1,05,3.9,672.60,M,16.8,M,,*6D
$GNGSA,A,3,25,29,32,15,,,,,,,,,4.6,3.9,2.4*2B
$GNGSA,A,3,83,,,,,,,,,,,,4.6,3.9,2.4*29
$GNGSA,A,3,,,,,,,,,,,,,4.6,3.9,2.4*22
$GPGSV,3,1,10,02,56,120,,06,35,058,,12,56,345,,14,10,311,*70
$GPGSV,3,2,10,15,10,202,26,19,22,044,,24,74,192,,25,30,307,25*78
$GPGSV,3,3,10,29,24,240,24,32,09,308,24,,,,,,,,*70
$GLGSV,2,1,06,73,13,326,,82,76,001,,83,40,220,28,81,25,029,*6B
$GLGSV,2,2,06,80,65,000,,79,44,120,,,,,,,,,*65
$GPRMC,134428.200,A,3206.16470,N,03512.51866,E,0.9,87.6,030516,,A*73
$GPGGA,134428.200,3206.16470,N,03512.51866,E,1,05,3.9,672.64,M,16.8,M,,*6D
$GNGSA,A,3,25,29,32,15,,,,,,,,,4.6,3.9,2.4*2B
$GNGSA,A,3,83,,,,,,,,,,,,4.6,3.9,2.4*29
$GNGSA,A,3,,,,,,,,,,,,,4.6,3.9,2.4*22
$GPGSV,3,1,10,02,56,120,,06,35,058,,12,56,345,,14,10,311,*70
$GPGSV,3,2,10,15,10,202,26,19,22,044,,24,74,192,,25,30,307,25*78
$GPGSV,3,3,10,29,24,240,24,32,09,308,24,,,,,,,,*70
$GLGSV,2,1,06,73,13,326,,82,76,001,,83,40,220,28,81,25,029,*6B
$GLGSV,2,2,06,80,65,000,,79,44,120,,,,,,,,,*65
$GPRMC,134428.600,A,3206.16471,N,03512.51877,E,0.9,84.2,030516,,A*71
$GPGGA,134428.600,3206.16471,N,03512.51877,E,1,05,3.9,672.68,M,16.8,M,,*64
$GNGSA,A,3,25,29,32,15,,,,,,,,,4.6,3.9,2.4*2B
$GNGSA,A,3,83,,,,,,,,,,,,4.6,3.9,2.4*29
$GNGSA,A,3,,,,,,,,,,,,,4.6,3.9,2.4*22
$GPGSV,3,1,10,02,56,120,,06,35,058,,12,56,345,,14,10,311,*70
$GPGSV,3,2,10,15,10,202,26,19,22,044,,24,74,192,,25,30,307,25*78
$GPGSV,3,3,10,29,24,240,24,32,09,308,24,,,,,,,,*70
$GLGSV,2,1,06,73,13,326,,82,76,001,,83,40,220,28,81,25,029,*6B
$GLGSV,2,2,06,80,65,000,,79,44,120,,,,,,,,,*65
$GPRMC,134428.800,A,3206.16472,N,03512.51882,E,0.8,77.8,030516,,A*71
$GPGGA,134428.800,3206.16472,N,03512.51882,E,1,05,3.9,672.70,M,16.8,M,,*6A
$GNGSA,A,3,25,29,32,15,,,,,,,,,4.6,3.9,2.4*2B
$GNGSA,A,3,83,,,,,,,,,,,,4.6,3.9,2.4*29
$GNGSA,A,3,,,,,,,,,,,,,4.6,3.9,2.4*22
$GPGSV,3,1,10,02,56,120,,06,35,058,,12,56,345,,14,10,311,*70
$GPGSV,3,2,10,15,10,202,26,19,22,044,,24,74,192,,25,30,307,25*78
$GPGSV,3,3,10,29,24,240,24,32,09,308,24,,,,,,,,*70
$GLGSV,2,1,06,73,13,326,,82,76,001,,83,40,220,28,81,25,029,*6B
$GLGSV,2,2,06,80,65,000,,79,44,120,,,,,,,,,*65
$GPRMC,134429.400,A,3206.16474,N,03512.51898,E,0.8,81.7,030516,,A*77
$GPGGA,134429.400,3206.16474,N,03512.51898,E,1,05,3.9,672.76,M,16.8,M,,*6C
$GNGSA,A,3,25,29,32,15,,,,,,,,,4.6,3.9,2.4*2B
$GNGSA,A,3,83,,,,,,,,,,,,4.6,3.9,2.4*29
$GNGSA,A,3,,,,,,,,,,,,,4.6,3.9,2.4*22
$GPGSV,3,1,10,02,56,120,,06,35,058,,12,56,345,,14,10,311,*70
$GPGSV,3,2,10,15,10,202,26,19,22,044,,24,74,192,,25,30,307,25*78
$GPGSV,3,3,10,29,24,240,24,32,09,308,24,,,,,,,,*70
$GLGSV,2,1,06,73,13,326,,82,76,001,,83,40,220,28,81,25,029,*6B
$GLGSV,2,2,06,80,65,000,,79,44,120,,,,,,,,,*65
$GPRMC,134429.800,A,3206.16477,N,03512.51943,E,0.4,78.2,030516,,A*70
$GPGGA,134429.800,3206.16477,N,03512.51943,E,1,05,3.9,673.02,M,16.8,M,,*66
$GNGSA,A,3,25,29,32,15,,,,,,,,,4.6,3.9,2.4*2B
$GNGSA,A,3,83,,,,,,,,,,,,4.6,3.9,2.4*29
$GNGSA,A,3,,,,,,,,,,,,,4.6,3.9,2.4*22
$GPGSV,3,1,10,02,56,120,,06,35,058,,12,56,345,,14,10,311,*70
$GPGSV,3,2,10,15,10,202,26,19,22,044,,24,74,192,,25,30,307,25*78
$GPGSV,3,3,10,29,24,240,24,32,09,308,24,,,,,,,,*70
$GLGSV,2,1,06,73,13,326,,82,76,001,,83,40,220,28,81,25,029,*6B
$GLGSV,2,2,06,80,65,000,,79,44,120,,,,,,,,,*65
$GPRMC,134430.400,A,3206.16478,N,03512.51950,E,0.3,74.2,030516,,A*72
$GPGGA,134430.400,3206.16478,N,03512.51950,E,1,05,3.9,673.08,M,16.8,M,,*65
$GNGSA,A,3,25,29,32,15,,,,,,,,,4.6,3.9,2.4*2B
$GNGSA,A,3,83,,,,,,,,,,,,4.6,3.9,2.4*29
$GNGSA,A,3,,,,,,,,,,,,,4.6,3.9,2.4*22
$GPGSV,3,1,10,02,56,120,,06,35,058,,12,56,345,,14,10,311,*70
$GPGSV,3,2,10,15,10,202,26,19,22,044,,24,74,192,,25,30,307,25*78
$GPGSV,3,3,10,29,24,241,24,32,09,308,24,,,,,,,,*71
$GLGSV,2,1,06,73,13,326,,82,76,001,,83,40,220,27,81,25,029,*64
$GLGSV,2,2,06,80,65,000,,79,44,120,,,,,,,,,*65
$GPRMC,134431.000,A,3206.16479,N,03512.51954,E,0.2,0.0,030516,,A*42
$GPGGA,134431.000,3206.16479,N,03512.51954,E,1,05,3.9,673.14,M,16.8,M,,*68
$GNGSA,A,3,25,29,32,15,,,,,,,,,4.6,3.9,2.4*2B
$GNGSA,A,3,83,,,,,,,,,,,,4.6,3.9,2.4*29
$GNGSA,A,3,,,,,,,,,,,,,4.6,3.9,2.4*22
$GPGSV,3,1,10,02,56,120,,06,35,058,,12,56,345,,14,10,311,*70
$GPGSV,3,2,10,15,10,202,26,19,22,044,,24,74,192,,25,30,307,25*78
$GPGSV,3,3,10,29,24,241,24,32,09,308,24,,,,,,,,*71
$GLGSV,2,1,06,73,13,326,,82,76,001,,83,40,220,27,81,25,029,*64
$GLGSV,2,2,06,80,65,000,,79,44,120,,,,,,,,,*65
$GPRMC,134431.400,A,3206.16479,N,03512.51956,E,0.1,0.0,030516,,A*47
$GPGGA,134431.400,3206.16479,N,03512.51956,E,1,05,3.9,673.18,M,16.8,M,,*62
$GNGSA,A,3,25,29,32,15,,,,,,,,,4.6,3.9,2.4*2B
$GNGSA,A,3,83,,,,,,,,,,,,4.6,3.9,2.4*29
$GNGSA,A,3,,,,,,,,,,,,,4.6,3.9,2.4*22
$GPGSV,3,1,10,02,56,120,,06,35,058,,12,56,345,,14,10,311,*70
$GPGSV,3,2,10,15,10,202,26,19,22,044,,24,74,192,,25,30,307,25*78
$GPGSV,3,3,10,29,24,241,23,32,09,308,24,,,,,,,,*76
$GLGSV,2,1,06,73,13,326,,82,76,001,,83,40,220,28,81,25,029,*6B
$GLGSV,2,2,06,80,65,000,,79,44,120,,,,,,,,,*65
$GPRMC,134431.800,A,3206.16481,N,03512.51958,E,0.3,40.0,030516,,A*74
$GPGGA,134431.800,3206.16481,N,03512.51958,E,1,05,3.9,673.22,M,16.8,M,,*6E
$GNGSA,A,3,25,29,32,15,,,,,,,,,4.6,3.9,2.4*2B
$GNGSA,A,3,83,,,,,,,,,,,,4.6,3.9,2.4*29
$GNGSA,A,3,,,,,,,,,,,,,4.6,3.9,2.4*22
$GPGSV,3,1,10,02,56,120,,06,35,058,,12,56,345,,14,10,311,*70
$GPGSV,3,2,10,15,10,202,26,19,22,044,,24,74,192,,25,30,307,25*78
$GPGSV,3,3,10,29,24,241,23,32,09,308,24,,,,,,,,*76
$GLGSV,2,1,06,73,13,326,,82,76,001,,83,40,220,27,81,25,029,*64
$GLGSV,2,2,06,80,65,000,,79,44,120,,,,,,,,,*65
$GPRMC,134432.200,A,3206.16474,N,03512.51994,E,0.3,25.2,030516,,A*76
$GPGGA,134432.200,3206.16474,N,03512.51994,E,1,05,3.9,673.40,M,16.8,M,,*69
$GNGSA,A,3,25,29,32,15,,,,,,,,,4.6,3.9,2.4*2B
$GNGSA,A,3,83,,,,,,,,,,,,4.6,3.9,2.4*29
$GNGSA,A,3,,,,,,,,,,,,,4.6,3.9,2.4*22
$GPGSV,3,1,10,02,56,120,,06,35,058,,12,56,345,,14,10,311,*70
$GPGSV,3,2,10,15,10,202,26,19,22,044,,24,74,192,,25,30,307,25*78
$GPGSV,3,3,10,29,24,241,23,32,09,308,24,,,,,,,,*76
$GLGSV,2,1,06,73,13,326,,82,76,001,,83,40,220,27,81,25,029,*64
$GLGSV,2,2,06,80,65,000,,79,44,120,,,,,,,,,*65
