$GPGLL,3206.16909,N,03512.55879,E,113051.000,A,A*5D
$PSTMTS,1,09,87189552.38,-42911.04,1,28,541791,1,19081574.18,-794964.50,18454281.97,-1545.69,1770.68,1672.68,-20733.01,11.35,0,0.00,0.00,0,0,0,0,*15
$PSTMTS,1,06,4610281.94,-42622.67,0,21,540166,1,17652547.11,-8296413.74,18012786.36,2171.61,741.10,-1787.53,19391.91,16.07,0,0.00,0.00,0,0,0,0,*03
$PSTMTS,1,07,87808229.46,-41279.18,1,41,540429,1,25820345.11,6938387.04,-960838.77,65.51,245.76,3172.84,130543.49,13.17,0,0.00,0.00,0,0,0,0,*2C
$PSTMTS,1,01,89511644.27,-47483.32,1,38,538683,1,20146455.12,13528466.93,-11041808.63,-1398.75,-150.61,-2732.47,-2898.34,21.12,0,0.00,0.00,0,0,0,0,*13
$PSTMTS,1,23,2776087.09,-44170.00,0,24,113714,0,0.00,0.00,0.00,0.00,0.00,0.00,0.00,0.00,0,0.00,0.00,0,0,0,0,*33
$PSTMTS,1,16,4822869.65,-42689.87,0,19,21163,0,0.00,0.00,0.00,0.00,0.00,0.00,0.00,0.00,0,0.00,0.00,0,0,0,0,*0F
$PSTMTS,1,08,5182867.06,-46788.78,0,12,232562,0,0.00,0.00,0.00,0.00,0.00,0.00,0.00,0.00,0,0.00,0.00,0,0,0,0,*33
$PSTMTS,1,32,5700330.70,-46619.64,0,23,151860,0,0.00,0.00,0.00,0.00,0.00,0.00,0.00,0.00,0,0.00,0.00,0,0,0,0,*31
$PSTMTS,1,78,4255130.17,-41740.46,1,23,325939,1,10790622.99,-8498004.16,21502520.33,-236.60,2933.06,1277.66,32137.97,19.64,0,0.00,0.00,0,0,0,0,*05
$PSTMTS,1,03,2477818.02,-45097.30,0,18,73245,1,13265557.45,20306574.12,10774706.38,109.99,1388.27,-2757.23,52894.19,9.83,0,0.00,0.00,0,0,0,0,*10
$PSTMTS,1,75,5312176.75,-45832.02,1,19,22676,1,15336313.60,-14510018.87,14315750.73,1709.45,-973.24,-2818.80,-35031.37,27.58,0,0.00,0.00,0,0,0,0,*01
$PSTMTS,1,10,89700886.78,-40731.69,1,27,531084,1,11585077.08,-12717617.69,19745934.45,798.50,2489.59,1155.73,-48199.72,24.87,0,0.00,0.00,0,0,0,0,*0E
$PSTMTS,1,30,90520684.82,-40390.59,1,28,533182,1,24044918.64,-6765.18,-11335995.19,1275.03,709.54,2699.78,-25803.89,30.89,0,0.00,0.00,0,0,0,0,*29
$GPRMC,113052.000,A,3206.16932,N,03512.55944,E,0.3,207.4,280115,,A*4F
$GNGNS,113052.000,3206.16932,N,03512.55944,E,AA,09,1.5,0699.1,16.8,,*5D
$GNGSA,A,3,09,06,07,01,03,10,30,,,,,,2.4,1.5,1.9*2E
$GNGSA,A,3,68,83,,,,,,,,,,,2.4,1.5,1.9*23
$GNGSA,A,3,,,,,,,,,,,,,2.4,1.5,1.9*26
$GPGSV,3,1,12,01,21,182,38,03,63,107,17,06,30,301,22,07,41,214,42*78
$GPGSV,3,2,12,09,49,304,28,10,14,313,27,16,26,093,19,20,59,321,*7D
$GPGSV,3,3,12,23,61,001,24,30,10,215,28,32,22,118,22,39,51,198,29*79
$GLGSV,2,1,08,66,31,095,,82,07,242,,76,21,030,,83,12,296,20*6F
$GLGSV,2,2,08,67,56,019,,68,22,321,23,78,41,187,,77,71,075,*68
$GPGLL,3206.16932,N,03512.55944,E,113052.000,A,A*59
$PSTMTS,1,09,147455991.18,-42910.44,1,28,542790,1,19080030.06,-793195.52,18455952.73,-1545.74,1770.92,1672.28,-20733.01,11.35,0,0.00,0.00,0,0,0,0,*21
$PSTMTS,1,06,148818556.32,-42623.66,1,22,541166,1,17654716.41,-8295673.51,18011000.48,2171.44,740.92,-1787.91,19391.91,16.07,0,0.00,0.00,0,0,0,0,*0A
$PSTMTS,1,07,148074360.38,-41278.50,1,42,541428,1,25820410.37,6938632.49,-957669.19,65.14,245.65,3172.86,130543.49,13.17,0,0.00,0.00,0,0,0,0,*10
$PSTMTS,1,01,149778953.34,-47482.34,1,38,539683,1,20145057.64,13528316.48,-11044538.17,-1399.09,-150.62,-2732.24,-2898.34,21.12,0,0.00,0.00,0,0,0,0,*28
$PSTMTS,1,23,3084277.20,-44169.55,0,24,114714,0,0.00,0.00,0.00,0.00,0.00,0.00,0.00,0.00,0,0.00,0.00,0,0,0,0,*31
$PSTMTS,1,16,5130780.42,-42686.46,0,19,22163,0,0.00,0.00,0.00,0.00,0.00,0.00,0.00,0.00,0,0.00,0.00,0,0,0,0,*08
$PSTMTS,1,08,5491551.47,-46788.92,0,11,233562,0,0.00,0.00,0.00,0.00,0.00,0.00,0.00,0.00,0,0.00,0.00,0,0,0,0,*3F
$PSTMTS,1,32,13137.71,-46624.60,0,22,152860,0,0.00,0.00,0.00,0.00,0.00,0.00,0.00,0.00,0,0.00,0.00,0,0,0,0,*3D
$PSTMTS,1,78,124479715.32,-41737.79,1,23,326939,1,10790386.76,-8495074.01,21503796.42,-236.38,2933.26,1277.14,32137.97,19.64,0,0.00,0.00,0,0,0,0,*03
$PSTMTS,1,03,2786177.88,-45093.63,0,17,74245,1,13265667.33,20307960.80,10771951.87,109.98,1387.93,-2757.46,52894.19,9.83,0,0.00,0.00,0,0,0,0,*18
$PSTMTS,1,75,125537527.66,-45832.61,1,20,23676,1,15338021.08,-14510991.11,14312934.66,1709.03,-973.22,-2819.14,-35031.37,27.58,0,0.00,0.00,0,0,0,0,*0D
$PSTMTS,1,10,149966912.98,-40729.84,1,27,532084,1,11585874.85,-12715130.61,19747088.78,798.67,2489.69,1155.30,-48199.72,24.87,0,0.00,0.00,0,0,0,0,*32
$PSTMTS,1,30,150786645.12,-40389.87,1,28,534181,1,24046192.22,-6056.47,-11333298.06,1274.75,709.36,2700.02,-25803.89,30.89,0,0.00,0.00,0,0,0,0,*10
$GPRMC,113053.000,A,3206.16947,N,03512.55999,E,0.0,0.0,280115,,A*4E
$GNGNS,113053.000,3206.16947,N,03512.55999,E,AA,09,1.5,0698.8,16.8,,*56
$GNGSA,A,3,09,06,07,01,03,10,30,,,,,,2.4,1.5,1.9*2E
$GNGSA,A,3,68,83,,,,,,,,,,,2.4,1.5,1.9*23
$GNGSA,A,3,,,,,,,,,,,,,2.4,1.5,1.9*26
$GPGSV,3,1,12,01,21,182,38,03,63,107,17,06,30,301,22,07,41,214,42*78
$GPGSV,3,2,12,09,49,304,27,10,14,313,27,16,26,093,19,20,59,321,*72
$GPGSV,3,3,12,23,61,001,24,30,10,215,29,32,22,118,22,39,51,198,30*70
$GLGSV,2,1,08,66,31,095,,82,07,242,,76,21,030,,83,12,296,22*6D
$GLGSV,2,2,08,67,57,020,,68,22,321,23,78,41,187,,77,71,075,*63
$GPGLL,3206.16947,N,03512.55999,E,113053.000,A,A*5A
$PSTMTS,1,09,27247390.68,-42910.40,1,27,543791,1,19078483.38,-791422.85,18457626.13,-1545.79,1771.15,1671.89,-20733.25,11.31,0,0.00,0.00,0,0,0,0,*12
$PSTMTS,1,06,28609897.76,-42624.07,1,22,542167,1,17656889.88,-8294931.97,18009210.64,2171.26,740.73,-1788.30,19391.91,16.07,0,0.00,0.00,0,0,0,0,*36
$PSTMTS,1,07,27865445.79,-41279.45,1,42,542429,1,25820475.39,6938878.32,-954493.24,64.78,245.53,3172.87,130543.49,13.17,0,0.00,0.00,0,0,0,0,*26
$PSTMTS,1,01,29571222.60,-47483.04,1,38,540683,1,20143657.03,13528165.72,-11047272.95,-1399.42,-150.62,-2732.00,-2898.34,21.12,0,0.00,0.00,0,0,0,0,*13
$PSTMTS,1,23,2792901.27,-44168.91,0,24,115715,0,0.00,0.00,0.00,0.00,0.00,0.00,0.00,0.00,0,0.00,0.00,0,0,0,0,*34
$PSTMTS,1,16,4839125.44,-42684.67,0,19,23164,0,0.00,0.00,0.00,0.00,0.00,0.00,0.00,0.00,0,0.00,0.00,0,0,0,0,*01
$PSTMTS,1,08,5200670.09,-46788.66,0,11,234563,0,0.00,0.00,0.00,0.00,0.00,0.00,0.00,0.00,0,0.00,0.00,0,0,0,0,*36
$PSTMTS,1,32,5718075.89,-46621.18,0,22,153861,0,0.00,0.00,0.00,0.00,0.00,0.00,0.00,0.00,0,0.00,0.00,0,0,0,0,*3E
$PSTMTS,1,78,4270769.05,-41736.72,1,23,327940,1,10790150.28,-8492137.80,21505074.54,-236.15,2933.45,1276.63,32137.97,19.64,0,0.00,0.00,0,0,0,0,*0E
$PSTMTS,1,03,2494978.18,-45090.10,0,17,75246,1,13265777.42,20309349.91,10769191.62,109.97,1387.59,-2757.69,52894.19,9.83,0,0.00,0.00,0,0,0,0,*18
$PSTMTS,1,75,5329341.54,-45834.82,1,22,24676,1,15339731.55,-14511965.28,14310112.61,1708.60,-973.19,-2819.48,-35031.37,27.58,0,0.00,0.00,0,0,0,0,*0D
$PSTMTS,1,10,29757892.91,-40729.80,1,27,533085,1,11586674.40,-12712638.45,19748244.98,798.83,2489.79,1154.86,-48199.72,24.87,0,0.00,0.00,0,0,0,0,*03
$PSTMTS,1,30,30577561.68,-40390.03,1,29,535182,1,24047468.08,-5346.53,-11330595.30,1274.47,709.17,2700.26,-25803.89,30.89,0,0.00,0.00,0,0,0,0,*21
$GPRMC,113054.000,A,3206.16980,N,03512.56064,E,0.0,0.0,280115,,A*4A
$GNGNS,113054.000,3206.16980,N,03512.56064,E,AA,09,1.5,0698.6,16.8,,*5C
$GNGSA,A,3,09,06,07,01,03,10,30,,,,,,2.4,1.5,1.9*2E
$GNGSA,A,3,68,83,,,,,,,,,,,2.4,1.5,1.9*23
$GNGSA,A,3,,,,,,,,,,,,,2.4,1.5,1.9*26
$GPGSV,3,1,12,01,21,182,38,03,63,107,17,06,30,301,22,07,41,214,42*78
$GPGSV,3,2,12,09,49,304,28,10,14,313,27,16,26,093,19,20,59,321,*7D
$GPGSV,3,3,12,23,61,001,24,30,10,215,29,32,22,118,21,39,51,198,30*73
$GLGSV,2,1,08,66,31,095,,82,07,242,,76,21,030,,83,12,296,23*6C
$GLGSV,2,2,08,67,57,020,,68,22,321,23,78,41,187,,77,71,075,*63
$GPGLL,3206.16980,N,03512.56064,E,113054.000,A,A*5E
$PSTMTS,1,09,87214048.31,-42911.07,1,28,544791,1,19076937.62,-789651.62,18459297.78,-1545.83,1771.39,1671.50,-20733.25,11.31,0,0.00,0.00,0,0,0,0,*19
$PSTMTS,1,06,88576499.06,-42624.53,1,22,543166,1,17659061.00,-8294191.37,18007422.20,2171.09,740.55,-1788.68,19391.91,16.07,0,0.00,0.00,0,0,0,0,*37
$PSTMTS,1,07,87831791.43,-41279.97,1,42,543429,1,25820539.99,6939123.79,-951320.44,64.41,245.42,3172.89,130543.49,13.17,0,0.00,0.00,0,0,0,0,*22
$PSTMTS,1,01,89538750.61,-47483.24,1,38,541683,1,20142257.47,13528015.10,-11050004.76,-1399.76,-150.63,-2731.77,-2898.34,21.12,0,0.00,0.00,0,0,0,0,*1C
$PSTMTS,1,23,2801303.24,-44171.71,0,24,116714,0,0.00,0.00,0.00,0.00,0.00,0.00,0.00,0.00,0,0.00,0.00,0,0,0,0,*3E
$PSTMTS,1,16,4847251.99,-42688.68,0,19,24164,0,0.00,0.00,0.00,0.00,0.00,0.00,0.00,0.00,0,0.00,0.00,0,0,0,0,*0C
$PSTMTS,1,08,5209572.17,-46787.98,0,11,235562,0,0.00,0.00,0.00,0.00,0.00,0.00,0.00,0.00,0,0.00,0.00,0,0,0,0,*3F
$PSTMTS,1,32,5726945.87,-46616.96,0,21,154861,0,0.00,0.00,0.00,0.00,0.00,0.00,0.00,0.00,0,0.00,0.00,0,0,0,0,*31
$PSTMTS,1,78,124195563.15,-41739.49,1,23,328939,1,10789914.26,-8489204.33,21506350.87,-235.93,2933.65,1276.11,32137.97,19.64,0,0.00,0.00,0,0,0,0,*07
$PSTMTS,1,03,2503564.38,-45096.30,0,17,76245,1,13265887.39,20310737.29,10766433.89,109.96,1387.25,-2757.92,52894.19,9.83,0,0.00,0.00,0,0,0,0,*13
$PSTMTS,1,75,125254916.40,-45835.39,1,23,25676,1,15341439.88,-14512938.44,14307293.04,1708.17,-973.17,-2819.82,-35031.37,27.58,0,0.00,0.00,0,0,0,0,*0B
$PSTMTS,1,10,89724135.80,-40730.18,1,27,534084,1,11587473.31,-12710148.68,19749399.59,799.00,2489.89,1154.42,-48199.72,24.87,0,0.00,0.00,0,0,0,0,*09
$PSTMTS,1,30,90543738.71,-40390.55,1,29,536182,1,24048742.38,-4637.48,-11327894.99,1274.19,708.98,2700.50,-25803.89,30.89,0,0.00,0.00,0,0,0,0,*20
$GPRMC,113055.000,A,3206.16988,N,03512.56094,E,0.2,0.0,280115,,A*4E
$GNGNS,113055.000,3206.16988,N,03512.56094,E,AA,09,1.5,0698.7,16.8,,*5B
$GNGSA,A,3,09,06,07,01,03,10,30,,,,,,2.4,1.5,1.9*2E
$GNGSA,A,3,68,83,,,,,,,,,,,2.4,1.5,1.9*23
$GNGSA,A,3,,,,,,,,,,,,,2.4,1.5,1.9*26
$GPGSV,3,1,12,01,21,182,38,03,63,107,17,06,30,301,22,07,41,214,42*78
$GPGSV,3,2,12,09,49,304,27,10,14,313,27,16,26,093,19,20,59,321,*72
$GPGSV,3,3,12,23,61,001,24,30,10,215,29,32,22,118,21,39,51,198,30*73
$GLGSV,2,1,08,66,31,095,,82,07,242,,76,21,030,,83,12,296,23*6C
$GLGSV,2,2,08,67,57,020,,68,22,322,23,78,41,187,,77,71,075,*60
$GPGLL,3206.16988,N,03512.56094,E,113055.000,A,A*58
$PSTMTS,1,09,147180707.46,-42910.77,1,27,545791,1,19075391.82,-787880.15,18460969.03,-1545.88,1771.63,1671.10,-20733.25,11.31,0,0.00,0.00,0,0,0,0,*25
$PSTMTS,1,06,148543105.84,-42624.56,1,22,544166,1,17661231.94,-8293450.94,18005633.38,2170.91,740.37,-1789.06,19391.91,16.07,0,0.00,0.00,0,0,0,0,*07
$PSTMTS,1,07,147798136.24,-41279.82,1,42,544429,1,25820604.22,6939369.14,-948147.63,64.05,245.30,3172.91,130543.49,13.17,0,0.00,0.00,0,0,0,0,*12
$PSTMTS,1,01,149506278.14,-47482.85,1,38,542683,1,20140857.58,13527864.48,-11052736.34,-1400.10,-150.64,-2731.54,-2898.34,21.12,0,0.00,0.00,0,0,0,0,*21
$PSTMTS,1,23,2809709.87,-44169.49,0,24,117714,0,0.00,0.00,0.00,0.00,0.00,0.00,0.00,0.00,0,0.00,0.00,0,0,0,0,*32
$PSTMTS,1,16,4855376.29,-42693.62,0,19,25163,0,0.00,0.00,0.00,0.00,0.00,0.00,0.00,0.00,0,0.00,0.00,0,0,0,0,*06
$PSTMTS,1,08,5218478.85,-46787.56,0,08,236562,0,0.00,0.00,0.00,0.00,0.00,0.00,0.00,0.00,0,0.00,0.00,0,0,0,0,*36
$PSTMTS,1,32,5735816.76,-46619.16,0,21,155860,0,0.00,0.00,0.00,0.00,0.00,0.00,0.00,0.00,0,0.00,0.00,0,0,0,0,*3D
$PSTMTS,1,78,4286395.70,-41738.58,1,23,329939,1,10789678.76,-8486270.96,21507626.58,-235.69,2933.83,1275.59,32137.98,19.47,0,0.00,0.00,0,0,0,0,*01
$PSTMTS,1,03,2512145.56,-45096.59,0,17,77245,1,13265997.35,20312124.33,10763675.94,109.95,1386.91,-2758.14,52894.19,9.83,0,0.00,0.00,0,0,0,0,*16
$PSTMTS,1,75,5346519.10,-45833.90,1,23,26676,1,15343147.78,-14513911.58,14304473.12,1707.74,-973.15,-2820.16,-35031.37,27.58,0,0.00,0.00,0,0,0,0,*0F
$PSTMTS,1,10,149690377.74,-40729.50,1,27,535084,1,11588272.63,-12707659.10,19750553.64,799.17,2489.99,1153.98,-48199.85,24.52,0,0.00,0.00,0,0,0,0,*30
$PSTMTS,1,30,150509916.52,-40390.16,1,29,537182,1,24050016.40,-3928.62,-11325194.45,1273.91,708.80,2700.74,-25803.89,30.89,0,0.00,0.00,0,0,0,0,*1A
$GPRMC,113056.000,A,3206.17011,N,03512.56127,E,0.4,37.8,280115,,A*76
$GNGNS,113056.000,3206.17011,N,03512.56127,E,AA,09,1.5,0698.8,16.8,,*56
$GNGSA,A,3,09,06,07,01,03,10,30,,,,,,2.4,1.5,1.9*2E
$GNGSA,A,3,68,83,,,,,,,,,,,2.4,1.5,1.9*23
$GNGSA,A,3,,,,,,,,,,,,,2.4,1.5,1.9*26
$GPGSV,3,1,12,01,21,182,38,03,63,107,17,06,30,301,22,07,41,214,42*78
$GPGSV,3,2,12,09,49,304,27,10,14,313,27,16,26,093,19,20,59,321,*72
$GPGSV,3,3,12,23,61,001,24,30,10,215,29,32,22,118,21,39,51,198,30*73
$GLGSV,2,1,08,66,31,095,,82,07,242,,76,21,030,,83,12,296,23*6C
$GLGSV,2,2,08,67,57,020,,68,22,322,23,78,41,187,,77,71,075,*60
$GPGLL,3206.17011,N,03512.56127,E,113056.000,A,A*5A
$PSTMTS,1,09,27271890.53,-42912.08,1,27,546791,1,19073845.98,-786108.45,18462639.89,-1545.92,1771.87,1670.71,-20733.25,11.31,0,0.00,0.00,0,0,0,0,*1C
$PSTMTS,1,06,28634238.62,-42627.00,1,22,545167,1,17663402.70,-8292710.70,18003844.18,2170.74,740.18,-1789.44,19391.91,16.07,0,0.00,0.00,0,0,0,0,*3E
$PSTMTS,1,07,27889007.92,-41281.88,1,42,545429,1,25820668.08,6939614.38,-944974.80,63.68,245.19,3172.93,130543.49,13.17,0,0.00,0.00,0,0,0,0,*27
$PSTMTS,1,01,29598330.50,-47484.53,1,38,543683,1,20139457.35,13527713.85,-11055467.68,-1400.44,-150.65,-2731.30,-2898.34,21.12,0,0.00,0.00,0,0,0,0,*1C
$PSTMTS,1,23,2818111.80,-44169.03,0,24,118715,0,0.00,0.00,0.00,0.00,0.00,0.00,0.00,0.00,0,0.00,0.00,0,0,0,0,*3A
$PSTMTS,1,16,4863498.43,-42691.37,0,19,26164,0,0.00,0.00,0.00,0.00,0.00,0.00,0.00,0.00,0,0.00,0.00,0,0,0,0,*0E
$PSTMTS,1,08,5227388.66,-46787.19,0,03,237563,0,0.00,0.00,0.00,0.00,0.00,0.00,0.00,0.00,0,0.00,0.00,0,0,0,0,*3F
$PSTMTS,1,32,5744688.69,-46617.22,0,21,156861,0,0.00,0.00,0.00,0.00,0.00,0.00,0.00,0.00,0,0.00,0.00,0,0,0,0,*37
$PSTMTS,1,78,124211189.46,-41735.11,1,23,330940,1,10789443.20,-8483337.12,21508901.88,-235.47,2934.02,1275.07,32137.98,19.47,0,0.00,0.00,0,0,0,0,*03
$PSTMTS,1,03,2520728.11,-45096.56,0,17,78246,1,13266107.30,20313511.02,10760917.76,109.94,1386.57,-2758.37,52894.19,9.83,0,0.00,0.00,0,0,0,0,*12
$PSTMTS,1,75,125272083.34,-45839.77,1,23,27676,1,15344855.24,-14514884.70,14301652.87,1707.31,-973.12,-2820.51,-35031.37,27.58,0,0.00,0.00,0,0,0,0,*01
$PSTMTS,1,10,29781140.92,-40730.88,1,27,536085,1,11589071.87,-12705169.14,19751707.37,799.34,2490.09,1153.54,-48199.85,24.52,0,0.00,0.00,0,0,0,0,*0B
$PSTMTS,1,30,30600620.24,-40391.36,1,29,538182,1,24051290.15,-3219.94,-11322493.67,1273.64,708.61,2700.98,-25803.89,30.89,0,0.00,0.00,0,0,0,0,*2F
$GPRMC,113057.000,A,3206.17034,N,03512.56149,E,0.7,40.2,280115,,A*71
$GNGNS,113057.000,3206.17034,N,03512.56149,E,AA,09,1.5,0699.0,16.8,,*51
$GNGSA,A,3,09,06,07,01,03,10,30,,,,,,2.4,1.5,1.9*2E
$GNGSA,A,3,68,83,,,,,,,,,,,2.4,1.5,1.9*23
$GNGSA,A,3,,,,,,,,,,,,,2.4,1.5,1.9*26
$GPGSV,3,1,12,01,21,182,38,03,63,107,16,06,30,301,22,07,41,214,42*79
$GPGSV,3,2,12,09,49,304,27,10,14,313,27,16,26,093,19,20,59,321,*72
$GPGSV,3,3,12,23,61,001,23,30,10,215,30,32,22,118,21,39,51,198,30*7C
$GLGSV,2,1,08,66,31,095,,82,07,242,,76,21,030,,83,12,296,23*6C
$GLGSV,2,2,08,67,57,020,,68,22,322,23,78,41,187,,77,71,075,*60
$GPGLL,3206.17034,N,03512.56149,E,113057.000,A,A*54
$PSTMTS,1,09,87238549.01,-42913.64,1,27,547791,1,19072300.08,-784336.50,18464310.36,-1545.97,1772.10,1670.32,-20733.25,11.31,0,0.00,0.00,0,0,0,0,*17
$PSTMTS,1,06,88600840.40,-42628.31,1,22,546166,1,17665573.30,-8291970.64,18002054.59,2170.56,740.00,-1789.83,19391.91,16.07,0,0.00,0.00,0,0,0,0,*3D
$PSTMTS,1,07,87855354.77,-41283.62,1,42,546429,1,25820731.58,6939859.50,-941801.95,63.32,245.07,3172.95,130543.49,13.17,0,0.00,0.00,0,0,0,0,*22
$PSTMTS,1,01,89565859.53,-47485.88,1,38,544683,1,20138056.78,13527563.21,-11058198.79,-1400.78,-150.66,-2731.07,-2898.34,21.12,0,0.00,0.00,0,0,0,0,*15
$PSTMTS,1,23,2826515.12,-44169.23,0,23,119715,0,0.00,0.00,0.00,0.00,0.00,0.00,0.00,0.00,0,0.00,0.00,0,0,0,0,*38
$PSTMTS,1,16,4871620.51,-42694.40,0,19,27164,0,0.00,0.00,0.00,0.00,0.00,0.00,0.00,0.00,0,0.00,0.00,0,0,0,0,*0B
$PSTMTS,1,32,5753564.06,-46615.02,0,21,157861,0,0.00,0.00,0.00,0.00,0.00,0.00,0.00,0.00,0,0.00,0.00,0,0,0,0,*38
$PSTMTS,1,78,4302018.91,-41735.94,1,23,331940,1,10789207.87,-8480403.09,21510176.65,-235.24,2934.21,1274.55,32137.98,19.47,0,0.00,0.00,0,0,0,0,*0E
$PSTMTS,1,03,2529316.80,-45097.43,0,16,79246,1,13266217.23,20314897.38,10758159.35,109.93,1386.22,-2758.60,52894.19,9.83,0,0.00,0.00,0,0,0,0,*1B
$PSTMTS,1,75,5363680.78,-45838.20,1,23,28676,1,15346562.29,-14515857.80,14298832.27,1706.88,-973.10,-2820.85,-35031.37,27.58,0,0.00,0.00,0,0,0,0,*0F
$PSTMTS,1,10,89747386.38,-40732.80,1,27,537085,1,11589871.29,-12702679.07,19752860.67,799.51,2490.19,1153.11,-48199.85,24.52,0,0.00,0.00,0,0,0,0,*0C
$PSTMTS,1,30,90566798.96,-40392.60,1,30,539182,1,24052563.61,-2511.44,-11319792.64,1273.36,708.43,2701.22,-25803.89,30.89,0,0.00,0.00,0,0,0,0,*22
$GPRMC,113058.000,A,3206.17049,N,03512.56172,E,0.6,44.2,280115,,A*79
$GNGNS,113058.000,3206.17049,N,03512.56172,E,AA,09,1.5,0699.0,16.8,,*5C
$GNGSA,A,3,09,06,07,01,03,10,30,,,,,,2.4,1.5,1.9*2E
$GNGSA,A,3,68,83,,,,,,,,,,,2.4,1.5,1.9*23
$GNGSA,A,3,,,,,,,,,,,,,2.4,1.5,1.9*26
$GPGSV,3,1,12,01,21,182,38,03,63,107,16,06,30,301,22,07,41,214,41*7A
$GPGSV,3,2,12,09,49,304,27,10,14,313,27,16,26,093,19,20,59,321,*72
$GPGSV,3,3,12,23,61,001,23,30,10,215,30,32,22,118,21,39,51,198,30*7C
$GLGSV,2,1,08,66,31,095,,82,07,242,,76,21,030,,83,12,296,24*6B
$GLGSV,2,2,08,67,57,020,,68,22,322,23,78,41,187,,77,71,075,*60
$GPGLL,3206.17049,N,03512.56172,E,113058.000,A,A*59
$PSTMTS,1,09,147205207.20,-42915.11,1,27,548791,1,19070754.15,-782564.32,18465980.43,-1546.01,1772.34,1669.92,-20733.25,11.31,0,0.00,0.00,0,0,0,0,*21
$PSTMTS,1,06,4667063.23,-42634.05,0,22,547166,1,17667743.71,-8291230.77,18000264.62,2170.38,739.81,-1790.21,19391.91,16.07,0,0.00,0.00,0,0,0,0,*01
$PSTMTS,1,07,147821702.54,-41284.75,1,41,547429,1,25820794.71,6940104.50,-938629.09,62.95,244.96,3172.96,130543.49,13.17,0,0.00,0.00,0,0,0,0,*1B
$PSTMTS,1,01,149533385.57,-47486.69,1,38,545683,1,20136655.87,13527412.56,-11060929.67,-1401.11,-150.66,-2730.84,-2898.34,21.12,0,0.00,0.00,0,0,0,0,*26
$PSTMTS,1,23,2834917.08,-44172.71,0,23,120714,0,0.00,0.00,0.00,0.00,0.00,0.00,0.00,0.00,0,0.00,0.00,0,0,0,0,*38
$PSTMTS,1,16,4879744.35,-42695.90,0,19,28164,0,0.00,0.00,0.00,0.00,0.00,0.00,0.00,0.00,0,0.00,0.00,0,0,0,0,*01
$PSTMTS,1,32,5762434.01,-46620.18,0,21,158861,0,0.00,0.00,0.00,0.00,0.00,0.00,0.00,0.00,0,0.00,0.00,0,0,0,0,*3B
$PSTMTS,1,78,124226813.07,-41740.50,1,23,332939,1,10788972.77,-8477468.86,21511450.91,-235.01,2934.40,1274.04,32137.98,19.47,0,0.00,0.00,0,0,0,0,*0B
$PSTMTS,1,03,2537903.23,-45097.73,0,16,80245,1,13266327.16,20316283.39,10755400.71,109.92,1385.88,-2758.83,52894.19,9.83,0,0.00,0.00,0,0,0,0,*16
$PSTMTS,1,75,125289251.52,-45840.18,1,24,29676,1,15348268.90,-14516830.87,14296011.33,1706.45,-973.08,-2821.19,-35031.37,27.58,0,0.00,0.00,0,0,0,0,*01
$PSTMTS,1,10,149713628.54,-40734.22,1,27,538084,1,11590670.87,-12700188.91,19754013.52,799.67,2490.28,1152.67,-48199.85,24.52,0,0.00,0.00,0,0,0,0,*37
$PSTMTS,1,30,150532977.76,-40394.05,1,30,540182,1,24053836.80,-1803.14,-11317091.38,1273.08,708.24,2701.46,-25803.89,30.89,0,0.00,0.00,0,0,0,0,*12
$GPRMC,113059.000,A,3206.17054,N,03512.56184,E,0.3,218.2,280115,,A*43
$GNGNS,113059.000,3206.17054,N,03512.56184,E,AA,09,1.5,0699.1,16.8,,*59
$GNGSA,A,3,09,06,07,01,03,10,30,,,,,,2.4,1.5,1.9*2E
$GNGSA,A,3,68,83,,,,,,,,,,,2.4,1.5,1.9*23
$GNGSA,A,3,,,,,,,,,,,,,2.4,1.5,1.9*26
$GPGSV,3,1,12,01,21,182,38,03,63,107,16,06,30,301,22,07,41,214,41*7A
$GPGSV,3,2,12,09,49,304,27,10,14,313,27,16,26,093,19,20,59,321,*72
$GPGSV,3,3,12,23,61,001,23,30,10,215,30,32,22,118,20,39,51,198,30*7D
$GLGSV,2,1,08,66,31,095,,82,07,242,,76,21,030,,83,12,296,24*6B
$GLGSV,2,2,08,67,57,020,,68,22,322,23,78,41,187,,77,71,075,*60
$GPGLL,3206.17054,N,03512.56184,E,113059.000,A,A*5D
$PSTMTS,1,09,27296389.21,-42914.58,1,27,549791,1,19069208.16,-780791.90,18467650.11,-1546.06,1772.58,1669.53,-20733.25,11.31,0,0.00,0.00,0,0,0,0,*15
$PSTMTS,1,06,4675172.42,-42631.12,0,22,548166,1,17669913.95,-8290491.08,17998474.27,2170.21,739.63,-1790.59,19391.91,16.07,0,0.00,0.00,0,0,0,0,*09
$PSTMTS,1,07,27912575.55,-41282.83,1,41,548429,1,25820857.48,6940349.39,-935456.20,62.59,244.84,3172.98,130543.49,13.17,0,0.00,0.00,0,0,0,0,*21
$PSTMTS,1,01,29625438.71,-47484.56,1,38,546683,1,20135254.63,13527261.91,-11063660.31,-1401.45,-150.67,-2730.60,-2898.34,21.12,0,0.00,0.00,0,0,0,0,*10
$PSTMTS,1,23,2843320.80,-44173.63,0,23,121714,0,0.00,0.00,0.00,0.00,0.00,0.00,0.00,0.00,0,0.00,0.00,0,0,0,0,*35
$PSTMTS,1,16,4887867.93,-42692.56,0,19,29163,0,0.00,0.00,0.00,0.00,0.00,0.00,0.00,0.00,0,0.00,0.00,0,0,0,0,*09
$PSTMTS,1,32,5771306.92,-46622.00,0,20,159860,0,0.00,0.00,0.00,0.00,0.00,0.00,0.00,0.00,0,0.00,0.00,0,0,0,0,*3F
$PSTMTS,1,78,4317653.33,-41735.70,1,23,333939,1,10788737.89,-8474534.45,21512724.66,-234.79,2934.59,1273.52,32137.98,19.47,0,0.00,0.00,0,0,0,0,*04
$PSTMTS,1,03,2546491.23,-45098.47,0,16,81245,1,13266437.07,20317669.06,10752641.85,109.90,1385.54,-2759.06,52894.19,9.83,0,0.00,0.00,0,0,0,0,*10
$PSTMTS,1,75,5380845.62,-45840.20,1,24,30676,1,15349975.08,-14517803.91,14293190.04,1706.02,-973.05,-2821.53,-35031.37,27.58,0,0.00,0.00,0,0,0,0,*0D
$PSTMTS,1,10,29804398.37,-40731.86,1,27,539084,1,11591470.62,-12697698.66,19755165.93,799.84,2490.38,1152.23,-48199.85,24.52,0,0.00,0.00,0,0,0,0,*01
$PSTMTS,1,30,30623681.04,-40392.39,1,30,541182,1,24055109.70,-1095.01,-11314389.88,1272.80,708.06,2701.70,-25803.89,30.89,0,0.00,0.00,0,0,0,0,*24
$GPRMC,113100.000,A,3206.17044,N,03512.56184,E,0.6,207.2,280115,,A*44
$GNGNS,113100.000,3206.17044,N,03512.56184,E,AA,09,1.5,0699.3,16.8,,*57
$GNGSA,A,3,09,06,07,01,03,10,30,,,,,,2.4,1.5,1.9*2E
$GNGSA,A,3,68,83,,,,,,,,,,,2.4,1.5,1.9*23
$GNGSA,A,3,,,,,,,,,,,,,2.4,1.5,1.9*26
$GPGSV,3,1,12,01,21,182,38,03,63,107,16,06,30,301,22,07,41,214,41*7A
$GPGSV,3,2,12,09,49,304,27,10,14,313,27,16,26,093,19,20,59,321,*72
$GPGSV,3,3,12,23,61,001,22,30,10,215,31,32,22,118,20,39,51,198,30*7D
$GLGSV,2,1,08,66,31,095,,82,07,242,,76,21,030,,83,12,296,23*6C
$GLGSV,2,2,08,67,57,020,,68,22,322,23,78,41,187,,77,71,075,*60
$GPGLL,3206.17044,N,03512.56184,E,113100.000,A,A*51
$PSTMTS,1,09,87263047.21,-42912.41,1,27,550791,1,19067662.14,-779019.24,18469319.40,-1546.10,1772.82,1669.13,-20733.25,11.31,0,0.00,0.00,0,0,0,0,*1E
$PSTMTS,1,06,4683280.54,-42629.80,0,22,549167,1,17672084.02,-8289751.57,17996683.54,2170.03,739.45,-1790.97,19391.91,16.07,0,0.00,0.00,0,0,0,0,*03
$PSTMTS,1,07,87878920.67,-41281.58,1,41,549429,1,25820919.89,6940594.17,-932283.30,62.22,244.72,3173.00,130543.49,13.17,0,0.00,0.00,0,0,0,0,*2E
$PSTMTS,1,01,89592965.04,-47482.81,1,38,547683,1,20133853.04,13527111.24,-11066390.72,-1401.79,-150.68,-2730.37,-2898.34,21.12,0,0.00,0.00,0,0,0,0,*15
$PSTMTS,1,23,2851721.21,-44175.81,0,22,122715,0,0.00,0.00,0.00,0.00,0.00,0.00,0.00,0.00,0,0.00,0.00,0,0,0,0,*31
$PSTMTS,1,16,4895990.82,-42694.49,0,19,30164,0,0.00,0.00,0.00,0.00,0.00,0.00,0.00,0.00,0,0.00,0.00,0,0,0,0,*04
$PSTMTS,1,32,5780182.35,-46619.87,0,20,160861,0,0.00,0.00,0.00,0.00,0.00,0.00,0.00,0.00,0,0.00,0.00,0,0,0,0,*3E
$PSTMTS,1,78,124242451.99,-41734.86,1,23,334940,1,10788503.24,-8471599.85,21513997.88,-234.56,2934.78,1273.00,32137.98,19.47,0,0.00,0.00,0,0,0,0,*05
$PSTMTS,1,03,2555072.50,-45098.65,0,16,82246,1,13266546.98,20319054.40,10749882.75,109.89,1385.20,-2759.29,52894.19,9.83,0,0.00,0.00,0,0,0,0,*18
$PSTMTS,1,75,125306411.91,-45838.44,1,23,31676,1,15351680.83,-14518776.94,14290368.42,1705.59,-973.03,-2821.88,-35031.37,27.58,0,0.00,0.00,0,0,0,0,*0B
$PSTMTS,1,10,89770642.43,-40730.94,1,27,540085,1,11592270.53,-12695208.31,19756317.91,800.01,2490.47,1151.79,-48199.85,24.52,0,0.00,0.00,0,0,0,0,*01
$PSTMTS,1,30,90589860.18,-40390.79,1,31,542182,1,24056382.33,-387.08,-11311688.13,1272.52,707.87,2701.94,-25803.89,30.89,0,0.00,0.00,0,0,0,0,*18
$GPRMC,113101.000,A,3206.17036,N,03512.56184,E,0.2,0.0,280115,,A*43
$GNGNS,113101.000,3206.17036,N,03512.56184,E,AA,09,1.5,0699.5,16.8,,*55
$GNGSA,A,3,09,06,07,01,03,10,30,,,,,,2.4,1.5,1.9*2E
$GNGSA,A,3,68,83,,,,,,,,,,,2.4,1.5,1.9*23
$GNGSA,A,3,,,,,,,,,,,,,2.4,1.5,1.9*26
$GPGSV,3,1,12,01,21,182,38,03,63,107,16,06,30,301,22,07,41,214,41*7A
$GPGSV,3,2,12,09,49,304,27,10,14,313,27,16,26,093,19,20,59,321,*72
$GPGSV,3,3,12,23,61,001,21,30,10,215,31,32,22,118,20,39,51,198,30*7E
$GLGSV,2,1,08,66,31,095,,82,07,242,,76,21,030,,83,12,296,23*6C
$GLGSV,2,2,08,67,57,020,,68,22,322,22,78,41,187,,77,71,075,*61
$GPGLL,3206.17036,N,03512.56184,E,113101.000,A,A*55
$PSTMTS,1,09,147229702.87,-42912.51,1,27,551791,1,19066116.07,-777246.35,18470988.29,-1546.14,1773.05,1668.74,-20733.25,11.31,0,0.00,0.00,0,0,0,0,*29
$PSTMTS,1,06,4691389.83,-42632.80,0,22,550166,1,17674253.91,-8289012.25,17994892.43,2169.86,739.26,-1791.36,19391.91,16.07,0,0.00,0.00,0,0,0,0,*00
$PSTMTS,1,07,147845266.22,-41283.02,1,41,550429,1,25820981.93,6940838.83,-929110.38,61.86,244.61,3173.02,130543.49,13.17,0,0.00,0.00,0,0,0,0,*1A
$PSTMTS,1,01,149560490.97,-47484.15,1,38,548683,1,20132451.12,13526960.57,-11069120.90,-1402.13,-150.69,-2730.14,-2898.34,21.12,0,0.00,0.00,0,0,0,0,*2A
$PSTMTS,1,23,2860127.48,-44173.96,0,21,123715,0,0.00,0.00,0.00,0.00,0.00,0.00,0.00,0.00,0,0.00,0.00,0,0,0,0,*3E
$PSTMTS,1,16,4904115.85,-42690.66,0,19,31164,0,0.00,0.00,0.00,0.00,0.00,0.00,0.00,0.00,0,0.00,0.00,0,0,0,0,*07
$PSTMTS,1,32,5789057.96,-46612.70,0,20,161861,0,0.00,0.00,0.00,0.00,0.00,0.00,0.00,0.00,0,0.00,0.00,0,0,0,0,*35
$PSTMTS,1,78,4333281.15,-41736.83,1,22,335940,1,10788268.82,-8468665.05,21515270.59,-234.33,2934.97,1272.49,32137.98,19.47,0,0.00,0.00,0,0,0,0,*09
$PSTMTS,1,03,2563652.32,-45099.22,0,16,83246,1,13266656.87,20320439.39,10747123.43,109.88,1384.86,-2759.51,52894.19,9.83,0,0.00,0.00,0,0,0,0,*13
$PSTMTS,1,75,5398005.78,-45840.58,1,23,32676,1,15353386.16,-14519749.93,14287546.45,1705.16,-973.00,-2822.22,-35031.37,27.58,0,0.00,0.00,0,0,0,0,*0F
$PSTMTS,1,10,149736883.86,-40730.84,1,27,541085,1,11593070.62,-12692717.86,19757469.45,800.18,2490.57,1151.35,-48199.85,24.52,0,0.00,0.00,0,0,0,0,*32
$PSTMTS,1,30,150556039.06,-40391.59,1,31,543182,1,24057654.67,320.67,-11308986.15,1272.24,707.69,2702.18,-25803.89,30.89,0,0.00,0.00,0,0,0,0,*00
$GPRMC,113102.000,A,3206.17040,N,03512.56192,E,0.3,31.1,280115,,A*74
$GNGNS,113102.000,3206.17040,N,03512.56192,E,AA,09,1.5,0699.7,16.8,,*52
$GNGSA,A,3,09,06,07,01,03,10,30,,,,,,2.4,1.5,1.9*2E
$GNGSA,A,3,68,83,,,,,,,,,,,2.4,1.5,1.9*23
$GNGSA,A,3,,,,,,,,,,,,,2.4,1.5,1.9*26
$GPGSV,3,1,12,01,21,182,38,03,63,107,16,06,30,301,22,07,41,214,41*7A
$GPGSV,3,2,12,09,49,304,27,10,14,313,27,16,26,093,18,20,59,321,*73
$GPGSV,3,3,12,23,61,001,21,30,10,215,31,32,22,118,20,39,51,198,29*76
$GLGSV,2,1,08,66,31,095,,82,07,242,,76,21,030,,83,12,296,22*6D
$GLGSV,2,2,08,67,57,020,,68,22,322,22,78,41,187,,77,71,075,*61
$GPGLL,3206.17040,N,03512.56192,E,113102.000,A,A*50
$PSTMTS,1,09,27320884.39,-42914.32,1,27,552791,1,19064569.96,-775473.22,18472656.78,-1546.19,1773.29,1668.35,-20733.25,11.31,0,0.00,0.00,0,0,0,0,*1C
$PSTMTS,1,06,4699500.39,-42632.44,0,22,551166,1,17676423.62,-8288273.11,17993100.93,2169.68,739.08,-1791.74,19391.91,16.07,0,0.00,0.00,0,0,0,0,*09
$PSTMTS,1,07,27936139.92,-41285.14,1,41,551429,1,25821043.60,6941083.37,-925937.44,61.49,244.49,3173.04,130543.49,13.17,0,0.00,0.00,0,0,0,0,*23
$PSTMTS,1,01,29652543.08,-47485.92,1,38,549683,1,20131048.86,13526809.90,-11071850.85,-1402.47,-150.69,-2729.90,-2898.34,21.12,0,0.00,0.00,0,0,0,0,*18
$PSTMTS,1,23,2868532.35,-44174.03,0,21,124714,0,0.00,0.00,0.00,0.00,0.00,0.00,0.00,0.00,0,0.00,0.00,0,0,0,0,*31
$PSTMTS,1,16,4912249.57,-42689.61,0,18,32164,0,0.00,0.00,0.00,0.00,0.00,0.00,0.00,0.00,0,0.00,0.00,0,0,0,0,*08
$PSTMTS,1,32,5797928.17,-46613.54,0,20,162861,0,0.00,0.00,0.00,0.00,0.00,0.00,0.00,0.00,0,0.00,0.00,0,0,0,0,*36
$PSTMTS,1,78,124258084.56,-41737.33,1,22,336939,1,10788034.63,-8465730.06,21516542.79,-234.10,2935.16,1271.97,32137.98,19.47,0,0.00,0.00,0,0,0,0,*04
$PSTMTS,1,03,2572231.59,-45099.18,0,16,84245,1,13266766.75,20321824.03,10744363.88,109.87,1384.52,-2759.74,52894.19,9.83,0,0.00,0.00,0,0,0,0,*16
$PSTMTS,1,75,125323577.31,-45841.09,1,22,33676,1,15355091.05,-14520722.91,14284724.14,1704.73,-972.98,-2822.56,-35031.37,27.58,0,0.00,0.00,0,0,0,0,*00
$PSTMTS,1,10,29827652.10,-40732.38,1,27,542084,1,11593870.87,-12690227.32,19758620.55,800.34,2490.66,1150.91,-48199.85,24.52,0,0.00,0.00,0,0,0,0,*0A
$PSTMTS,1,30,30646740.46,-40393.42,1,31,544182,1,24058926.74,1028.24,-11306283.93,1271.96,707.50,2702.42,-25803.89,30.89,0,0.00,0.00,0,0,0,0,*0C
$GPRMC,113103.000,A,3206.17048,N,03512.56203,E,0.2,0.0,280115,,A*44
$GNGNS,113103.000,3206.17048,N,03512.56203,E,AA,09,1.5,0699.8,16.8,,*5F
$GNGSA,A,3,09,06,07,01,03,10,30,,,,,,2.4,1.5,1.9*2E
$GNGSA,A,3,68,83,,,,,,,,,,,2.4,1.5,1.9*23
$GNGSA,A,3,,,,,,,,,,,,,2.4,1.5,1.9*26
$GPGSV,3,1,12,01,21,182,38,03,63,107,16,06,30,301,21,07,41,214,41*79
$GPGSV,3,2,12,09,49,304,27,10,14,313,27,16,26,093,19,20,59,321,*72
$GPGSV,3,3,12,23,61,001,20,30,10,215,31,32,22,118,19,39,51,198,30*75
$GLGSV,2,1,08,66,31,095,,82,07,242,,76,21,030,,83,12,296,21*6E
$GLGSV,2,2,08,67,57,020,,68,22,322,22,78,41,187,,77,71,075,*61
$GPGLL,3206.17048,N,03512.56203,E,113103.000,A,A*52
$PSTMTS,1,09,87287542.23,-42915.19,1,27,553791,1,19063023.80,-773699.85,18474324.89,-1546.23,1773.53,1667.95,-20733.25,11.31,0,0.00,0.00,0,0,0,0,*10
$PSTMTS,1,06,4707612.15,-42633.88,0,21,552166,1,17678593.16,-8287534.16,17991309.05,2169.51,738.90,-1792.12,19391.91,16.07,0,0.00,0.00,0,0,0,0,*04
$PSTMTS,1,07,87902488.31,-41285.82,1,41,552429,1,25821104.91,6941327.80,-922764.48,61.13,244.38,3173.05,130543.49,13.17,0,0.00,0.00,0,0,0,0,*22
$PSTMTS,1,01,89620070.85,-47486.22,1,38,550683,1,20129646.26,13526659.21,-11074580.56,-1402.81,-150.70,-2729.67,-2898.34,21.12,0,0.00,0.00,0,0,0,0,*1C
$PSTMTS,1,23,2876931.26,-44170.83,0,20,125714,0,0.00,0.00,0.00,0.00,0.00,0.00,0.00,0.00,0,0.00,0.00,0,0,0,0,*3F
$PSTMTS,1,16,4920373.56,-42698.04,0,19,33163,0,0.00,0.00,0.00,0.00,0.00,0.00,0.00,0.00,0,0.00,0.00,0,0,0,0,*04
$PSTMTS,1,32,5806807.83,-46611.82,0,19,163860,0,0.00,0.00,0.00,0.00,0.00,0.00,0.00,0.00,0,0.00,0.00,0,0,0,0,*33
$PSTMTS,1,78,4348917.60,-41742.09,1,22,337939,1,10787800.66,-8462794.89,21517814.46,-233.88,2935.35,1271.45,32137.98,19.47,0,0.00,0.00,0,0,0,0,*0B
$PSTMTS,1,03,2580816.59,-45100.00,0,16,85245,1,13266876.62,20323208.34,10741604.10,109.86,1384.18,-2759.97,52894.19,9.83,0,0.00,0.00,0,0,0,0,*15
$PSTMTS,1,75,5415172.58,-45848.31,1,21,34676,1,15356795.52,-14521695.86,14281901.48,1704.30,-972.96,-2822.90,-35031.37,27.58,0,0.00,0.00,0,0,0,0,*07
$PSTMTS,1,10,89793894.60,-40733.94,1,27,543084,1,11594671.29,-12687736.68,19759771.20,800.51,2490.76,1150.47,-48199.85,24.52,0,0.00,0.00,0,0,0,0,*0A
$PSTMTS,1,30,90612916.45,-40394.01,1,31,545182,1,24060198.53,1735.62,-11303581.47,1271.68,707.31,2702.66,-25803.89,30.89,0,0.00,0.00,0,0,0,0,*0B
$GPRMC,113104.000,A,3206.17055,N,03512.56218,E,0.4,209.7,280115,,A*4F
$GNGNS,113104.000,3206.17055,N,03512.56218,E,AA,09,1.5,0699.7,16.8,,*51
$GNGSA,A,3,09,06,07,01,03,10,30,,,,,,2.4,1.5,1.9*2E
$GNGSA,A,3,68,83,,,,,,,,,,,2.4,1.5,1.9*23
$GNGSA,A,3,,,,,,,,,,,,,2.4,1.5,1.9*26
$GPGSV,3,1,12,01,21,182,38,03,63,107,16,06,30,301,21,07,41,214,41*79
$GPGSV,3,2,12,09,49,304,27,10,14,313,27,16,26,093,19,20,59,321,*72
$GPGSV,3,3,12,23,61,001,20,30,10,215,31,32,22,118,19,39,51,198,30*75
$GLGSV,2,1,08,66,31,095,,82,07,242,,76,21,030,,83,12,296,19*65
$GLGSV,2,2,08,67,57,020,,68,22,322,22,78,41,187,,77,71,075,*61
$GPGLL,3206.17055,N,03512.56218,E,113104.000,A,A*53
$PSTMTS,1,09,147254198.93,-42914.25,1,27,554791,1,19061477.60,-771926.24,18475992.60,-1546.28,1773.77,1667.56,-20733.25,11.31,0,0.00,0.00,0,0,0,0,*2A
$PSTMTS,1,06,4715725.15,-42632.54,0,21,553167,1,17680762.52,-8286795.39,17989516.78,2169.33,738.71,-1792.50,19391.91,16.07,0,0.00,0.00,0,0,0,0,*0A
$PSTMTS,1,07,147868838.46,-41283.87,1,41,553429,1,25821165.86,6941572.11,-919591.51,60.76,244.26,3173.07,130543.49,13.17,0,0.00,0.00,0,0,0,0,*1F
$PSTMTS,1,01,149587599.08,-47484.01,1,38,551683,1,20128243.32,13526508.52,-11077310.03,-1403.14,-150.71,-2729.44,-2898.34,21.12,0,0.00,0.00,0,0,0,0,*2D
$PSTMTS,1,23,2885330.90,-44174.71,0,20,126715,0,0.00,0.00,0.00,0.00,0.00,0.00,0.00,0.00,0,0.00,0.00,0,0,0,0,*3E
$PSTMTS,1,16,4928497.79,-42695.64,0,19,34164,0,0.00,0.00,0.00,0.00,0.00,0.00,0.00,0.00,0,0.00,0.00,0,0,0,0,*07
$PSTMTS,1,32,5815677.75,-46617.05,0,19,164861,0,0.00,0.00,0.00,0.00,0.00,0.00,0.00,0.00,0,0.00,0.00,0,0,0,0,*3E
$PSTMTS,1,78,124273720.10,-41738.46,1,22,338940,1,10787566.92,-8459859.52,21519085.62,-233.65,2935.54,1270.94,32137.98,19.47,0,0.00,0.00,0,0,0,0,*0C
$PSTMTS,1,03,2589395.65,-45100.54,0,16,86246,1,13266986.48,20324592.31,10738844.09,109.85,1383.83,-2760.20,52894.19,9.83,0,0.00,0.00,0,0,0,0,*1E
$PSTMTS,1,75,125340744.02,-45848.92,1,19,35676,1,15358499.55,-14522668.79,14279078.49,1703.87,-972.93,-2823.25,-35031.37,27.58,0,0.00,0.00,0,0,0,0,*0B
$PSTMTS,1,10,149760137.39,-40732.07,1,27,544085,1,11595471.88,-12685245.95,19760921.42,800.68,2490.86,1150.03,-48199.85,24.52,0,0.00,0.00,0,0,0,0,*33
$PSTMTS,1,30,150579095.84,-40392.26,1,31,546182,1,24061470.04,2442.81,-11300878.76,1271.40,707.13,2702.90,-25803.89,30.89,0,0.00,0.00,0,0,0,0,*33
$GPRMC,113105.000,A,3206.17059,N,03512.56237,E,0.6,211.9,280115,,A*4A
$GNGNS,113105.000,3206.17059,N,03512.56237,E,AA,09,1.5,0699.6,16.8,,*50
$GNGSA,A,3,09,06,07,01,03,10,30,,,,,,2.4,1.5,1.9*2E
$GNGSA,A,3,68,83,,,,,,,,,,,2.4,1.5,1.9*23
$GNGSA,A,3,,,,,,,,,,,,,2.4,1.5,1.9*26
$GPGSV,3,1,12,01,21,182,38,03,63,107,16,06,30,301,21,07,41,214,41*79
$GPGSV,3,2,12,09,49,304,27,10,14,313,27,16,26,093,19,20,59,321,*72
$GPGSV,3,3,12,23,61,001,20,30,10,215,31,32,22,118,19,39,51,198,30*75
$GLGSV,2,1,08,66,31,095,,82,07,242,,76,21,030,,83,12,296,19*65
$GLGSV,2,2,08,67,57,020,,68,22,322,22,78,41,187,,77,71,075,*61
$GPGLL,3206.17059,N,03512.56237,E,113105.000,A,A*53
$PSTMTS,1,09,27345383.78,-42912.41,1,27,555791,1,19059931.35,-770152.40,18477659.91,-1546.32,1774.00,1667.16,-20733.25,11.31,0,0.00,0.00,0,0,0,0,*14
$PSTMTS,1,06,4723836.04,-42629.10,0,21,554166,1,17682931.71,-8286056.80,17987724.14,2169.15,738.53,-1792.89,19391.91,16.07,0,0.00,0.00,0,0,0,0,*08
$PSTMTS,1,07,27959712.12,-41282.86,1,41,554429,1,25821226.44,6941816.31,-916418.51,60.40,244.15,3173.09,130543.49,13.17,0,0.00,0.00,0,0,0,0,*29
$PSTMTS,1,01,29679650.86,-47482.62,1,38,552683,1,20126840.05,13526357.82,-11080039.28,-1403.48,-150.72,-2729.20,-2898.34,21.12,0,0.00,0.00,0,0,0,0,*1B
$PSTMTS,1,23,2893731.50,-44171.28,0,20,127715,0,0.00,0.00,0.00,0.00,0.00,0.00,0.00,0.00,0,0.00,0.00,0,0,0,0,*38
$PSTMTS,1,16,4936623.94,-42698.00,0,19,35164,0,0.00,0.00,0.00,0.00,0.00,0.00,0.00,0.00,0,0.00,0.00,0,0,0,0,*08
$PSTMTS,1,32,5824552.05,-46620.80,0,19,165861,0,0.00,0.00,0.00,0.00,0.00,0.00,0.00,0.00,0,0.00,0.00,0,0,0,0,*37
$PSTMTS,1,78,4364556.76,-41735.33,1,22,339940,1,10787333.40,-8456923.96,21520356.27,-233.42,2935.73,1270.42,32137.98,19.47,0,0.00,0.00,0,0,0,0,*0A
$PSTMTS,1,03,2597978.34,-45100.90,0,16,87246,1,13267096.33,20325975.93,10736083.85,109.84,1383.49,-2760.43,52894.19,9.83,0,0.00,0.00,0,0,0,0,*17
$PSTMTS,1,75,5432339.40,-45850.03,1,19,36676,1,15360203.16,-14523641.70,14276255.15,1703.44,-972.91,-2823.59,-35031.37,27.58,0,0.00,0.00,0,0,0,0,*07
$PSTMTS,1,10,29850903.53,-40730.39,1,27,545085,1,11596272.63,-12682755.12,19762071.20,800.85,2490.95,1149.59,-48199.85,24.52,0,0.00,0.00,0,0,0,0,*06
$PSTMTS,1,30,30669801.69,-40390.55,1,31,547182,1,24062741.27,3149.82,-11298175.82,1271.12,706.94,2703.14,-25803.89,30.89,0,0.00,0.00,0,0,0,0,*03
$GPRMC,113106.000,A,3206.17093,N,03512.56302,E,0.2,195.3,280115,,A*49
$GNGNS,113106.000,3206.17093,N,03512.56302,E,AA,09,1.5,0699.0,16.8,,*54
$GNGSA,A,3,09,06,07,01,03,10,30,,,,,,2.4,1.5,1.9*2E
$GNGSA,A,3,68,83,,,,,,,,,,,2.4,1.5,1.9*23
$GNGSA,A,3,,,,,,,,,,,,,2.4,1.5,1.9*26
$GPGSV,3,1,12,01,21,182,38,03,63,107,16,06,30,301,21,07,41,214,42*7A
$GPGSV,3,2,12,09,49,304,26,10,14,313,27,16,26,093,19,20,59,321,*73
$GPGSV,3,3,12,23,61,001,20,30,10,215,31,32,22,118,19,39,51,198,30*75
$GLGSV,2,1,08,66,31,095,,82,07,242,,76,21,030,,83,12,296,18*64
$GLGSV,2,2,08,67,57,020,,68,22,322,22,78,41,187,,77,71,075,*61
$GPGLL,3206.17093,N,03512.56302,E,113106.000,A,A*51
$PSTMTS,1,09,87312038.82,-42912.08,1,26,556791,1,19058385.06,-768378.32,18479326.83,-1546.37,1774.24,1666.77,-20733.25,11.31,0,0.00,0.00,0,0,0,0,*12
$PSTMTS,1,06,4731946.76,-42631.06,0,21,555166,1,17685100.71,-8285318.40,17985931.11,2168.98,738.34,-1793.27,19391.91,16.07,0,0.00,0.00,0,0,0,0,*01
$PSTMTS,1,07,87926061.28,-41284.04,1,42,555429,1,25821286.65,6942060.39,-913245.51,60.03,244.03,3173.11,130543.49,13.17,0,0.00,0.00,0,0,0,0,*26
$PSTMTS,1,01,89647177.33,-47483.42,1,38,553683,1,20125436.44,13526207.11,-11082768.29,-1403.82,-150.72,-2728.97,-2898.34,21.12,0,0.00,0.00,0,0,0,0,*1C
$PSTMTS,1,23,2902135.25,-44173.18,0,20,128714,0,0.00,0.00,0.00,0.00,0.00,0.00,0.00,0.00,0,0.00,0.00,0,0,0,0,*3E
$PSTMTS,1,16,4944748.81,-42699.04,0,19,36164,0,0.00,0.00,0.00,0.00,0.00,0.00,0.00,0.00,0,0.00,0.00,0,0,0,0,*03
$PSTMTS,1,32,5833422.15,-46620.40,0,19,166861,0,0.00,0.00,0.00,0.00,0.00,0.00,0.00,0.00,0,0.00,0.00,0,0,0,0,*39
$PSTMTS,1,78,124289351.83,-41737.00,1,22,340939,1,10787100.12,-8453988.22,21521626.39,-233.20,2935.92,1269.90,32137.98,19.47,0,0.00,0.00,0,0,0,0,*0C
$PSTMTS,1,03,2606563.45,-45102.57,0,16,88245,1,13267206.17,20327359.21,10733323.39,109.83,1383.15,-2760.66,52894.19,9.83,0,0.00,0.00,0,0,0,0,*19
$PSTMTS,1,75,125357905.25,-45845.14,1,18,37676,1,15361906.33,-14524614.57,14273431.47,1703.02,-972.89,-2823.93,-35031.37,27.58,0,0.00,0.00,0,0,0,0,*05
$PSTMTS,1,10,89817146.48,-40731.12,1,27,546084,1,11597073.55,-12680264.20,19763220.54,801.01,2491.05,1149.15,-48199.85,24.52,0,0.00,0.00,0,0,0,0,*0C
$PSTMTS,1,30,90635978.70,-40391.16,1,31,548182,1,24064012.21,3856.65,-11295472.64,1270.84,706.76,2703.38,-25803.89,30.89,0,0.00,0.00,0,0,0,0,*0A
$GPRMC,113107.000,A,3206.17138,N,03512.56374,E,0.3,37.2,280115,,A*70
$GNGNS,113107.000,3206.17138,N,03512.56374,E,AA,09,1.5,0698.4,16.8,,*51
$GNGSA,A,3,09,06,07,01,03,10,30,,,,,,2.4,1.5,1.9*2E
$GNGSA,A,3,68,83,,,,,,,,,,,2.4,1.5,1.9*23
$GNGSA,A,3,,,,,,,,,,,,,2.4,1.5,1.9*26
$GPGSV,3,1,12,01,21,182,38,03,63,107,16,06,30,301,22,07,41,214,42*79
$GPGSV,3,2,12,09,49,304,26,10,14,313,27,16,26,093,20,20,59,321,*79
$GPGSV,3,3,12,23,61,001,19,30,10,215,31,32,22,118,19,39,51,198,30*7F
$GLGSV,2,1,08,66,31,095,,82,07,242,,76,21,030,,83,12,296,16*6A
$GLGSV,2,2,08,67,57,020,,68,22,322,22,78,41,187,,77,71,073,*67
$GPGLL,3206.17138,N,03512.56374,E,113107.000,A,A*51
$PSTMTS,1,09,147278694.51,-42913.76,1,26,557791,1,19056838.72,-766604.00,18480993.36,-1546.41,1774.48,1666.38,-20733.25,11.31,0,0.00,0.00,0,0,0,0,*28
$PSTMTS,1,06,4740059.52,-42633.22,0,22,556166,1,17687269.55,-8284580.18,17984137.70,2168.80,738.16,-1793.65,19391.91,16.07,0,0.00,0.00,0,0,0,0,*06
$PSTMTS,1,07,147892409.55,-41285.82,1,42,556429,1,25821346.51,6942304.35,-910072.48,59.67,243.91,3173.13,130543.49,13.17,0,0.00,0.00,0,0,0,0,*15
$PSTMTS,1,01,149614705.21,-47484.97,1,38,554683,1,20124032.48,13526056.39,-11085497.07,-1404.16,-150.73,-2728.74,-2898.34,21.12,0,0.00,0.00,0,0,0,0,*20
$PSTMTS,1,23,2910541.64,-44169.72,0,19,129714,0,0.00,0.00,0.00,0.00,0.00,0.00,0.00,0.00,0,0.00,0.00,0,0,0,0,*33
$PSTMTS,1,16,4952876.58,-42701.11,0,20,37163,0,0.00,0.00,0.00,0.00,0.00,0.00,0.00,0.00,0,0.00,0.00,0,0,0,0,*0A
$PSTMTS,1,32,5842300.32,-46618.78,0,19,167860,0,0.00,0.00,0.00,0.00,0.00,0.00,0.00,0.00,0,0.00,0.00,0,0,0,0,*3D
$PSTMTS,1,78,4380178.43,-41732.81,1,22,341939,1,10786867.06,-8451052.28,21522896.00,-232.97,2936.12,1269.39,32137.98,19.47,0,0.00,0.00,0,0,0,0,*0C
$PSTMTS,1,03,2615146.45,-45102.72,0,16,89245,1,13267315.99,20328742.16,10730562.69,109.82,1382.81,-2760.89,52894.19,9.83,0,0.00,0.00,0,0,0,0,*17
$PSTMTS,1,75,5449496.31,-45841.07,1,16,38676,1,15363609.08,-14525587.43,14270607.45,1702.59,-972.86,-2824.27,-35031.37,27.58,0,0.00,0.00,0,0,0,0,*02
$PSTMTS,1,10,149783387.66,-40731.63,1,27,547084,1,11597874.65,-12677773.18,19764369.45,801.18,2491.14,1148.71,-48199.85,24.52,0,0.00,0.00,0,0,0,0,*3B
$PSTMTS,1,30,150602156.25,-40392.65,1,31,549181,1,24065282.88,4563.28,-11292769.22,1270.56,706.57,2703.62,-25803.89,30.89,0,0.00,0.00,0,0,0,0,*31
$GPRMC,113108.000,A,3206.17181,N,03512.56439,E,0.7,37.6,280115,,A*73
$GNGNS,113108.000,3206.17181,N,03512.56439,E,AA,09,1.5,0698.0,16.8,,*56
$GNGSA,A,3,09,06,07,01,03,10,30,,,,,,2.4,1.5,1.9*2E
$GNGSA,A,3,68,83,,,,,,,,,,,2.4,1.5,1.9*23
$GNGSA,A,3,,,,,,,,,,,,,2.4,1.5,1.9*26
$GPGSV,3,1,12,01,21,182,38,03,63,107,16,06,30,301,22,07,41,214,42*79
$GPGSV,3,2,12,09,49,304,26,10,14,313,27,16,26,093,20,20,59,321,*79
$GPGSV,3,3,12,23,61,001,19,30,10,215,31,32,22,118,19,39,51,198,31*7E
$GLGSV,2,1,08,66,31,095,,82,07,242,,76,21,030,,83,12,296,15*69
$GLGSV,2,2,08,67,57,020,,68,22,322,22,78,41,187,,77,71,073,*67
$GPGLL,3206.17181,N,03512.56439,E,113108.000,A,A*52
$PSTMTS,1,09,27070093.57,-42915.18,1,26,558791,1,19055290.80,-764827.67,18482661.16,-1546.45,1774.72,1665.98,-20733.25,11.31,0,0.00,0.00,0,0,0,0,*1F
$PSTMTS,1,06,4448388.12,-42635.55,0,22,557167,1,17689440.38,-8283841.41,17982342.11,2168.63,737.98,-1794.04,19391.91,16.07,0,0.00,0.00,0,0,0,0,*06
$PSTMTS,1,07,27683497.20,-41287.48,1,42,557429,1,25821406.05,6942548.45,-906896.26,59.30,243.80,3173.14,130543.49,13.17,0,0.00,0.00,0,0,0,0,*2F
$PSTMTS,1,01,29406973.46,-47486.33,1,38,555683,1,20122626.79,13525905.52,-11088228.34,-1404.50,-150.74,-2728.50,-2898.34,21.12,0,0.00,0.00,0,0,0,0,*1F
$PSTMTS,1,23,2619163.63,-44168.51,0,19,130715,0,0.00,0.00,0.00,0.00,0.00,0.00,0.00,0.00,0,0.00,0.00,0,0,0,0,*3F
$PSTMTS,1,16,4661217.03,-42698.94,0,20,38164,0,0.00,0.00,0.00,0.00,0.00,0.00,0.00,0.00,0,0.00,0.00,0,0,0,0,*02
$PSTMTS,1,32,5551389.32,-46613.96,0,19,168861,0,0.00,0.00,0.00,0.00,0.00,0.00,0.00,0.00,0,0.00,0.00,0,0,0,0,*36
$PSTMTS,1,78,124005192.25,-41735.12,1,22,342940,1,10786633.99,-8448113.21,21524166.36,-232.74,2936.31,1268.87,32137.98,19.47,0,0.00,0.00,0,0,0,0,*04
$PSTMTS,1,03,2323951.02,-45102.98,0,16,90246,1,13267425.92,20330126.14,10727799.01,109.81,1382.47,-2761.11,52894.19,9.83,0,0.00,0.00,0,0,0,0,*12
$PSTMTS,1,75,125075269.84,-45841.11,1,15,39676,1,15365313.10,-14526561.24,14267780.26,1702.16,-972.84,-2824.62,-35031.37,27.58,0,0.00,0.00,0,0,0,0,*09
$PSTMTS,1,10,29574369.65,-40733.11,1,27,548085,1,11598676.71,-12675279.57,19765519.06,801.35,2491.24,1148.28,-48199.85,24.52,0,0.00,0.00,0,0,0,0,*0B
$PSTMTS,1,30,30393072.67,-40394.22,1,31,550182,1,24066554.54,5270.44,-11290062.85,1270.28,706.39,2703.86,-25803.89,30.89,0,0.00,0.00,0,0,0,0,*0C
$GPRMC,113109.000,A,3206.17213,N,03512.56494,E,0.1,0.0,280115,,A*49
$GNGNS,113109.000,3206.17213,N,03512.56494,E,AA,08,1.5,0697.9,16.8,,*5F
$GNGSA,A,3,09,06,07,01,03,10,30,,,,,,2.5,1.5,2.0*25
$GNGSA,A,3,68,,,,,,,,,,,,2.5,1.5,2.0*23
$GNGSA,A,3,,,,,,,,,,,,,2.5,1.5,2.0*2D
$GPGSV,3,1,12,01,21,182,38,03,63,107,16,06,30,301,22,07,41,214,42*79
$GPGSV,3,2,12,09,49,304,26,10,14,313,27,16,26,093,20,20,59,321,*79
$GPGSV,3,3,12,23,61,001,19,30,10,215,31,32,22,118,18,39,51,198,30*7E
$GLGSV,2,1,08,66,31,095,,82,07,242,,76,21,030,,83,12,296,14*68
$GLGSV,2,2,08,67,57,020,,68,22,322,22,78,41,187,,77,71,073,*67
$GPGLL,3206.17213,N,03512.56494,E,113109.000,A,A*5C
$PSTMTS,1,09,87336537.06,-42914.77,1,26,559791,1,19053745.92,-763054.65,18484325.23,-1546.50,1774.95,1665.59,-20733.25,11.31,0,0.00,0.00,0,0,0,0,*16
$PSTMTS,1,06,4756288.81,-42638.58,0,22,558166,1,17691606.69,-8283104.29,17980549.73,2168.45,737.79,-1794.42,19391.91,16.07,0,0.00,0.00,0,0,0,0,*06
$PSTMTS,1,07,87949628.24,-41286.02,1,42,558429,1,25821465.11,6942791.94,-903726.37,58.94,243.68,3173.16,130543.49,13.17,0,0.00,0.00,0,0,0,0,*2E
$PSTMTS,1,01,89674283.88,-47484.50,1,38,556683,1,20121223.57,13525754.94,-11090953.92,-1404.84,-150.75,-2728.27,-2898.34,21.12,0,0.00,0.00,0,0,0,0,*14
$PSTMTS,1,23,2927353.14,-44173.00,0,19,131715,0,0.00,0.00,0.00,0.00,0.00,0.00,0.00,0.00,0,0.00,0.00,0,0,0,0,*33
$PSTMTS,1,16,4969127.59,-42702.50,0,20,39164,0,0.00,0.00,0.00,0.00,0.00,0.00,0.00,0.00,0,0.00,0.00,0,0,0,0,*01
$PSTMTS,1,32,5860040.59,-46610.12,0,18,169861,0,0.00,0.00,0.00,0.00,0.00,0.00,0.00,0.00,0,0.00,0.00,0,0,0,0,*3D
$PSTMTS,1,78,4395803.30,-41735.22,1,22,343940,1,10786401.62,-8445179.82,21525433.67,-232.51,2936.50,1268.35,32137.98,19.47,0,0.00,0.00,0,0,0,0,*0C
$PSTMTS,1,03,2632315.43,-45103.57,0,16,91246,1,13267535.61,20331507.01,10725040.62,109.80,1382.13,-2761.34,52894.19,9.83,0,0.00,0.00,0,0,0,0,*16
$PSTMTS,1,75,5466659.02,-45840.71,1,14,40676,1,15367013.29,-14527533.07,14264958.38,1701.73,-972.81,-2824.96,-35031.37,27.58,0,0.00,0.00,0,0,0,0,*08
$PSTMTS,1,10,89840398.64,-40733.27,1,27,549085,1,11599477.33,-12672790.85,19766665.94,801.52,2491.33,1147.84,-48199.85,24.52,0,0.00,0.00,0,0,0,0,*00
$PSTMTS,1,30,90659037.97,-40392.99,1,31,551182,1,24067823.39,5976.00,-11287361.65,1270.00,706.20,2704.10,-25803.89,30.89,0,0.00,0.00,0,0,0,0,*04
$GPRMC,113110.000,A,3206.17219,N,03512.56522,E,0.7,210.2,280115,,A*40
$GNGNS,113110.000,3206.17219,N,03512.56522,E,AA,09,1.5,0698.0,16.8,,*56
$GNGSA,A,3,09,06,07,01,03,10,30,,,,,,2.4,1.5,1.9*2E
$GNGSA,A,3,68,83,,,,,,,,,,,2.4,1.5,1.9*23
$GNGSA,A,3,,,,,,,,,,,,,2.4,1.5,1.9*26
$GPGSV,3,1,12,01,21,182,38,03,63,107,16,06,30,301,22,07,41,214,42*79
$GPGSV,3,2,12,09,49,304,26,10,14,313,27,16,26,093,21,20,59,321,*78
$GPGSV,3,3,12,23,61,001,19,30,10,215,31,32,22,118,18,39,51,198,30*7E
$GLGSV,2,1,08,66,31,095,,82,07,242,,76,21,030,,83,12,296,15*69
$GLGSV,2,2,08,67,57,020,,68,22,322,22,78,41,187,,77,71,073,*67
$GPGLL,3206.17219,N,03512.56522,E,113110.000,A,A*52
$PSTMTS,1,09,147303193.77,-42914.12,1,26,560791,1,19052199.45,-761279.62,18485990.58,-1546.54,1775.19,1665.20,-20733.25,11.31,0,0.00,0.00,0,0,0,0,*2A
$PSTMTS,1,06,4764404.91,-42636.85,0,22,559166,1,17693775.00,-8282366.62,17978755.17,2168.28,737.61,-1794.80,19391.91,16.07,0,0.00,0.00,0,0,0,0,*0D
$PSTMTS,1,07,147915974.81,-41284.48,1,42,559429,1,25821523.87,6943035.56,-900553.28,58.57,243.57,3173.18,130543.49,13.17,0,0.00,0.00,0,0,0,0,*14
$PSTMTS,1,01,149641811.22,-47482.66,1,38,557683,1,20119818.60,13525604.20,-11093682.00,-1405.17,-150.76,-2728.04,-2898.34,21.12,0,0.00,0.00,0,0,0,0,*28
$PSTMTS,1,23,2935757.02,-44172.79,0,19,132714,0,0.00,0.00,0.00,0.00,0.00,0.00,0.00,0.00,0,0.00,0.00,0,0,0,0,*3A
$PSTMTS,1,16,148877631.22,-42698.65,1,21,40164,0,0.00,0.00,0.00,0.00,0.00,0.00,0.00,0.00,0,0.00,0.00,0,0,0,0,*00
$PSTMTS,1,32,5868915.15,-46608.74,0,18,170861,0,0.00,0.00,0.00,0.00,0.00,0.00,0.00,0.00,0,0.00,0.00,0,0,0,0,*35
$PSTMTS,1,78,124320602.78,-41737.55,1,22,344939,1,10786169.24,-8442243.31,21526701.73,-232.29,2936.69,1267.84,32137.98,19.47,0,0.00,0.00,0,0,0,0,*01
$PSTMTS,1,03,2640896.81,-45103.90,0,16,92245,1,13267645.41,20332888.93,10722279.24,109.78,1381.79,-2761.57,52894.19,9.83,0,0.00,0.00,0,0,0,0,*12
$PSTMTS,1,75,125392234.65,-45840.04,1,15,41676,1,15368714.75,-14528505.86,14262133.32,1701.30,-972.79,-2825.30,-35031.37,27.58,0,0.00,0.00,0,0,0,0,*0A
$PSTMTS,1,10,149806642.77,-40730.75,1,27,550084,1,11600278.92,-12670299.54,19767813.52,801.69,2491.43,1147.40,-48199.85,24.52,0,0.00,0.00,0,0,0,0,*32
$PSTMTS,1,30,150625214.56,-40391.23,1,31,552182,1,24069093.22,6682.09,-11284657.51,1269.72,706.02,2704.34,-25803.89,30.89,0,0.00,0.00,0,0,0,0,*3B
$GPRMC,113111.000,A,3206.17224,N,03512.56553,E,0.2,202.1,280115,,A*4C
$GNGNS,113111.000,3206.17224,N,03512.56553,E,AA,09,1.5,0698.0,16.8,,*5F
$GNGSA,A,3,09,06,07,01,03,10,30,,,,,,2.4,1.5,1.9*2E
$GNGSA,A,3,68,83,,,,,,,,,,,2.4,1.5,1.9*23
$GNGSA,A,3,,,,,,,,,,,,,2.4,1.5,1.9*26
$GPGSV,3,1,12,01,21,182,38,03,63,107,16,06,30,301,23,07,41,214,42*78
$GPGSV,3,2,12,09,49,304,26,10,14,313,27,16,26,093,21,20,59,321,*78
$GPGSV,3,3,12,23,61,001,19,30,10,215,31,32,22,118,18,39,51,198,31*7F
$GLGSV,2,1,08,66,31,095,,82,07,242,,76,21,030,,83,12,296,15*69
$GLGSV,2,2,08,67,57,020,,68,22,322,21,78,41,187,,77,71,073,*64
$GPGLL,3206.17224,N,03512.56553,E,113111.000,A,A*5B
$PSTMTS,1,09,27394377.25,-42913.63,1,26,561791,1,19050652.94,-759504.36,18487655.53,-1546.59,1775.43,1664.80,-20733.25,11.31,0,0.00,0.00,0,0,0,0,*13
$PSTMTS,1,06,4772518.17,-42634.81,0,23,560166,1,17695943.13,-8281629.14,17976960.23,2168.10,737.43,-1795.18,19391.91,16.07,0,0.00,0.00,0,0,0,0,*0C
$PSTMTS,1,07,28006847.05,-41285.97,1,42,560429,1,25821582.26,6943279.06,-897380.19,58.21,243.45,3173.20,130543.49,13.17,0,0.00,0.00,0,0,0,0,*20
$PSTMTS,1,01,29733862.95,-47483.82,1,38,558683,1,20118413.30,13525453.45,-11096409.84,-1405.51,-150.76,-2727.80,-2898.34,21.12,0,0.00,0.00,0,0,0,0,*1E
$PSTMTS,1,23,2944162.17,-44173.25,0,19,133714,0,0.00,0.00,0.00,0.00,0.00,0.00,0.00,0.00,0,0.00,0.00,0,0,0,0,*31
$PSTMTS,1,16,28968769.65,-42698.64,1,21,41163,0,0.00,0.00,0.00,0.00,0.00,0.00,0.00,0.00,0,0.00,0.00,0,0,0,0,*30
$PSTMTS,1,32,5877784.32,-46612.33,0,18,171860,0,0.00,0.00,0.00,0.00,0.00,0.00,0.00,0.00,0,0.00,0.00,0,0,0,0,*30
$PSTMTS,1,78,4411438.52,-41739.92,1,21,345939,1,10785937.09,-8439306.61,21527969.27,-232.06,2936.88,1267.32,32137.98,19.47,0,0.00,0.00,0,0,0,0,*0A
$PSTMTS,1,03,2649478.55,-45102.85,0,16,93245,1,13267755.19,20334270.51,10719517.64,109.77,1381.44,-2761.80,52894.19,9.83,0,0.00,0.00,0,0,0,0,*1A
$PSTMTS,1,75,5483818.14,-45839.91,1,15,42676,1,15370415.78,-14529478.62,14259307.94,1700.87,-972.77,-2825.64,-35031.37,27.58,0,0.00,0.00,0,0,0,0,*08
$PSTMTS,1,10,29897411.06,-40731.07,1,27,551084,1,11601080.68,-12667808.14,19768960.67,801.85,2491.52,1146.96,-48199.85,24.52,0,0.00,0.00,0,0,0,0,*0F
$PSTMTS,1,30,30715917.39,-40391.67,1,31,553181,1,24070362.77,7387.98,-11281953.13,1269.44,705.83,2704.58,-25803.89,30.89,0,0.00,0.00,0,0,0,0,*0C
$GPRMC,113112.000,A,3206.17262,N,03512.56620,E,0.3,204.7,280115,,A*4B
$GNGNS,113112.000,3206.17262,N,03512.56620,E,AA,09,1.5,0698.2,16.8,,*5B
$GNGSA,A,3,09,06,07,01,03,10,30,,,,,,2.4,1.5,1.9*2E
$GNGSA,A,3,68,83,,,,,,,,,,,2.4,1.5,1.9*23
$GNGSA,A,3,,,,,,,,,,,,,2.4,1.5,1.9*26
$GPGSV,3,1,12,01,21,182,38,03,63,107,16,06,30,301,23,07,41,214,42*78
$GPGSV,3,2,12,09,49,304,26,10,14,313,27,16,26,093,21,20,59,321,*78
$GPGSV,3,3,12,23,61,001,19,30,10,215,32,32,22,118,18,39,51,198,31*7C
$GLGSV,2,1,08,66,31,095,,82,07,242,,76,21,030,,83,12,296,15*69
$GLGSV,2,2,08,67,57,020,,68,22,322,21,78,41,187,,77,71,073,*64
$GPGLL,3206.17262,N,03512.56620,E,113112.000,A,A*5D
$PSTMTS,1,09,87061251.51,-42913.13,1,26,562791,1,19049104.84,-757727.07,18489321.75,-1546.63,1775.67,1664.41,-20733.25,11.31,0,0.00,0.00,0,0,0,0,*1E
$PSTMTS,1,06,4480846.57,-42635.16,0,23,561167,1,17698113.26,-8280891.10,17975163.11,2167.92,737.24,-1795.57,19391.91,16.07,0,0.00,0.00,0,0,0,0,*07
$PSTMTS,1,07,87673410.83,-41285.81,1,42,561429,1,25821640.34,6943522.69,-894203.89,57.84,243.34,3173.22,130543.49,13.17,0,0.00,0.00,0,0,0,0,*2D
$PSTMTS,1,01,89401607.81,-47483.37,1,38,559683,1,20117006.25,13525302.54,-11099140.19,-1405.85,-150.77,-2727.57,-2898.34,21.12,0,0.00,0.00,0,0,0,0,*18
$PSTMTS,1,23,2652779.74,-44176.79,0,19,134715,0,0.00,0.00,0.00,0.00,0.00,0.00,0.00,0.00,0,0.00,0.00,0,0,0,0,*3A
$PSTMTS,1,16,88635601.14,-42702.75,1,21,42164,0,0.00,0.00,0.00,0.00,0.00,0.00,0.00,0.00,0,0.00,0.00,0,0,0,0,*32
$PSTMTS,1,32,5586864.49,-46617.13,0,18,172861,0,0.00,0.00,0.00,0.00,0.00,0.00,0.00,0.00,0,0.00,0.00,0,0,0,0,*3B
$PSTMTS,1,78,124036442.89,-41739.67,1,21,346940,1,10785704.93,-8436366.78,21529237.56,-231.83,2937.07,1266.80,32137.98,19.47,0,0.00,0.00,0,0,0,0,*00
$PSTMTS,1,03,2358279.70,-45102.82,0,16,94246,1,13267865.07,20335653.12,10716753.03,109.76,1381.10,-2762.03,52894.19,9.83,0,0.00,0.00,0,0,0,0,*18
$PSTMTS,1,75,125109607.28,-45840.03,1,15,43676,1,15372118.09,-14530452.33,14256479.37,1700.44,-972.74,-2825.98,-35031.37,27.58,0,0.00,0.00,0,0,0,0,*08
$PSTMTS,1,10,89563868.27,-40731.06,1,27,552085,1,11601883.42,-12665314.14,19770108.52,802.02,2491.62,1146.52,-48199.85,24.52,0,0.00,0.00,0,0,0,0,*08
$PSTMTS,1,30,90382311.81,-40391.76,1,32,554182,1,24071633.31,8094.40,-11279245.80,1269.16,705.65,2704.82,-25803.89,30.89,0,0.00,0.00,0,0,0,0,*04
$GPRMC,113113.000,A,3206.17287,N,03512.56684,E,0.5,213.8,280115,,A*40
$GNGNS,113113.000,3206.17287,N,03512.56684,E,AA,09,1.5,0698.4,16.8,,*59
$GNGSA,A,3,09,06,07,01,03,10,30,,,,,,2.4,1.5,1.9*2E
$GNGSA,A,3,68,83,,,,,,,,,,,2.4,1.5,1.9*23
$GNGSA,A,3,,,,,,,,,,,,,2.4,1.5,1.9*26
$GPGSV,3,1,12,01,21,182,38,03,63,107,15,06,30,301,23,07,41,214,42*7B
$GPGSV,3,2,12,09,49,304,26,10,14,313,27,16,26,093,22,20,59,321,*7B
$GPGSV,3,3,12,23,61,001,19,30,10,215,32,32,22,118,18,39,51,198,31*7C
$GLGSV,2,1,08,66,31,095,,82,07,242,,76,21,030,,83,12,296,16*6A
$GLGSV,2,2,08,67,57,020,,68,22,322,20,78,41,187,,77,71,073,*65
$GPGLL,3206.17287,N,03512.56684,E,113113.000,A,A*59
$PSTMTS,1,09,147327694.03,-42912.63,1,26,563791,1,19047559.79,-755953.11,18490984.25,-1546.68,1775.90,1664.01,-20733.25,11.31,0,0.00,0.00,0,0,0,0,*28
$PSTMTS,1,06,4788744.39,-42636.67,0,23,562166,1,17700278.87,-8280154.72,17973369.20,2167.75,737.06,-1795.95,19391.91,16.07,0,0.00,0.00,0,0,0,0,*04
$PSTMTS,1,07,147939543.08,-41285.16,1,42,562429,1,25821697.95,6943765.72,-891033.93,57.48,243.22,3173.23,130543.49,13.17,0,0.00,0.00,0,0,0,0,*1B
$PSTMTS,1,01,149668918.22,-47482.47,1,38,560683,1,20115601.68,13525151.93,-11101864.83,-1406.19,-150.78,-2727.34,-2898.34,21.12,0,0.00,0.00,0,0,0,0,*29
$PSTMTS,1,23,2960974.43,-44174.55,0,19,135715,0,0.00,0.00,0.00,0.00,0.00,0.00,0.00,0.00,0,0.00,0.00,0,0,0,0,*3E
$PSTMTS,1,16,148902002.60,-42703.22,1,22,43164,0,0.00,0.00,0.00,0.00,0.00,0.00,0.00,0.00,0,0.00,0.00,0,0,0,0,*03
$PSTMTS,1,32,5895520.05,-46620.63,0,18,173861,0,0.00,0.00,0.00,0.00,0.00,0.00,0.00,0.00,0,0.00,0.00,0,0,0,0,*33
$PSTMTS,1,78,4427062.09,-41737.88,1,20,347940,1,10785473.47,-8433432.64,21530502.80,-231.61,2937.26,1266.29,32137.98,19.47,0,0.00,0.00,0,0,0,0,*0C
$PSTMTS,1,03,2666650.46,-45103.56,0,15,95246,1,13267974.72,20337032.63,10713993.73,109.75,1380.76,-2762.26,52894.19,9.83,0,0.00,0.00,0,0,0,0,*13
$PSTMTS,1,75,5500991.79,-45840.02,1,16,44676,1,15373816.55,-14531424.07,14253656.13,1700.01,-972.72,-2826.33,-35031.37,27.58,0,0.00,0.00,0,0,0,0,*06
$PSTMTS,1,10,149829896.37,-40730.05,1,27,553085,1,11602684.71,-12662825.05,19771253.64,802.19,2491.72,1146.08,-48199.85,24.52,0,0.00,0.00,0,0,0,0,*3C
$PSTMTS,1,30,150648274.02,-40390.93,1,32,555182,1,24072901.03,8799.22,-11276543.65,1268.88,705.46,2705.06,-25803.89,30.89,0,0.00,0.00,0,0,0,0,*35
$GPRMC,113114.000,A,3206.17328,N,03512.56748,E,0.1,0.0,280115,,A*4E
$GNGNS,113114.000,3206.17328,N,03512.56748,E,AA,09,1.5,0698.4,16.8,,*5B
$GNGSA,A,3,09,06,07,01,03,10,30,,,,,,2.4,1.5,1.9*2E
$GNGSA,A,3,68,83,,,,,,,,,,,2.4,1.5,1.9*23
$GNGSA,A,3,,,,,,,,,,,,,2.4,1.5,1.9*26
$GPGSV,3,1,12,01,21,182,38,03,63,107,15,06,30,301,24,07,41,214,42*7C
$GPGSV,3,2,12,09,49,304,26,10,14,313,27,16,26,093,22,20,59,321,*7B
$GPGSV,3,3,12,23,61,001,19,30,10,215,32,32,22,118,18,39,51,198,31*7C
$GLGSV,2,1,08,66,31,095,,82,07,242,,76,21,030,,83,12,296,16*6A
$GLGSV,2,2,08,67,57,020,,68,22,322,20,78,41,187,,77,71,073,*65
$GPGLL,3206.17328,N,03512.56748,E,113114.000,A,A*5B
$PSTMTS,1,09,27418878.07,-42913.87,1,26,564791,1,19046013.14,-754177.13,18492648.02,-1546.72,1776.14,1663.62,-20733.25,11.31,0,0.00,0.00,0,0,0,0,*12
$PSTMTS,1,06,4796858.98,-42638.23,0,24,563166,1,17702446.47,-8279417.79,17971573.11,2167.57,736.87,-1796.33,19391.91,16.07,0,0.00,0.00,0,0,0,0,*0A
$PSTMTS,1,07,28030416.93,-41287.06,1,42,563429,1,25821755.24,6944008.87,-887860.77,57.11,243.11,3173.25,130543.49,13.17,0,0.00,0.00,0,0,0,0,*2F
$PSTMTS,1,01,29760971.46,-47483.92,1,38,561683,1,20114195.36,13525001.16,-11104591.98,-1406.53,-150.79,-2727.10,-2898.34,21.12,0,0.00,0.00,0,0,0,0,*1A
$PSTMTS,1,23,2969377.88,-44172.98,0,19,136714,0,0.00,0.00,0.00,0.00,0.00,0.00,0.00,0.00,0,0.00,0.00,0,0,0,0,*3C
$PSTMTS,1,16,28993141.11,-42704.66,1,22,44164,0,0.00,0.00,0.00,0.00,0.00,0.00,0.00,0.00,0,0.00,0.00,0,0,0,0,*3C
$PSTMTS,1,32,5904391.69,-46623.65,0,18,174861,0,0.00,0.00,0.00,0.00,0.00,0.00,0.00,0.00,0,0.00,0.00,0,0,0,0,*3E
$PSTMTS,1,78,124351856.78,-41737.46,1,20,348939,1,10785242.00,-8430495.36,21531768.80,-231.38,2937.45,1265.77,32137.98,19.47,0,0.00,0.00,0,0,0,0,*03
$PSTMTS,1,03,2675239.51,-45104.40,0,15,96245,1,13268084.47,20338413.18,10711231.44,109.74,1380.42,-2762.48,52894.19,9.83,0,0.00,0.00,0,0,0,0,*1C
$PSTMTS,1,75,125426548.59,-45840.13,1,16,45676,1,15375516.30,-14532396.77,14250829.70,1699.58,-972.70,-2826.67,-35031.37,27.58,0,0.00,0.00,0,0,0,0,*07
$PSTMTS,1,10,29920662.14,-40730.39,1,27,554084,1,11603486.97,-12660333.36,19772399.47,802.36,2491.81,1145.64,-48199.85,24.52,0,0.00,0.00,0,0,0,0,*04
$PSTMTS,1,30,30738977.21,-40392.10,1,32,556182,1,24074169.75,9504.56,-11273838.54,1268.61,705.27,2705.30,-25803.89,30.89,0,0.00,0.00,0,0,0,0,*01
$GPRMC,113115.000,A,3206.17336,N,03512.56815,E,0.4,43.0,280115,,A*75
$GNGNS,113115.000,3206.17336,N,03512.56815,E,AA,09,1.5,0698.6,16.8,,*50
$GNGSA,A,3,09,06,07,01,03,10,30,,,,,,2.4,1.5,1.9*2E
$GNGSA,A,3,68,83,,,,,,,,,,,2.4,1.5,1.9*23
$GNGSA,A,3,,,,,,,,,,,,,2.4,1.5,1.9*26
$GPGSV,3,1,12,01,21,182,39,03,63,107,15,06,30,301,24,07,41,214,42*7D
$GPGSV,3,2,12,09,49,304,26,10,14,313,27,16,26,093,22,20,60,321,*71
$GPGSV,3,3,12,23,61,001,18,30,10,215,32,32,22,118,18,39,51,198,31*7D
$GLGSV,2,1,08,66,31,095,,82,07,242,,76,21,030,,83,12,296,17*6B
$GLGSV,2,2,08,67,57,020,,68,22,322,19,78,41,187,,77,71,073,*6F
$GPGLL,3206.17336,N,03512.56815,E,113115.000,A,A*52
$PSTMTS,1,09,87385536.48,-42915.46,1,26,565791,1,19044466.45,-752400.91,18494311.40,-1546.76,1776.38,1663.23,-20733.25,11.31,0,0.00,0.00,0,0,0,0,*12
$PSTMTS,1,06,4804974.99,-42638.88,0,24,564166,1,17704613.90,-8278681.04,17969776.64,2167.40,736.69,-1796.71,19391.91,16.07,0,0.00,0.00,0,0,0,0,*02
$PSTMTS,1,07,87996763.37,-41288.81,1,42,564429,1,25821812.18,6944251.91,-884687.60,56.75,242.99,3173.27,130543.49,13.17,0,0.00,0.00,0,0,0,0,*2F
$PSTMTS,1,01,89728496.61,-47485.44,1,39,562683,1,20112788.70,13524850.38,-11107318.89,-1406.86,-150.79,-2726.87,-2898.34,21.12,0,0.00,0.00,0,0,0,0,*1E
$PSTMTS,1,23,2977780.19,-44172.07,0,18,137714,0,0.00,0.00,0.00,0.00,0.00,0.00,0.00,0.00,0,0.00,0.00,0,0,0,0,*31
$PSTMTS,1,16,5017868.40,-42709.36,0,22,45163,0,0.00,0.00,0.00,0.00,0.00,0.00,0.00,0.00,0,0.00,0.00,0,0,0,0,*0F
$PSTMTS,1,32,5913260.52,-46622.96,0,18,175860,0,0.00,0.00,0.00,0.00,0.00,0.00,0.00,0.00,0,0.00,0.00,0,0,0,0,*32
$PSTMTS,1,78,4442692.00,-41739.99,1,19,349939,1,10785010.76,-8427557.89,21533034.27,-231.15,2937.64,1265.25,32137.98,19.47,0,0.00,0.00,0,0,0,0,*08
$PSTMTS,1,03,2683823.95,-45105.27,0,15,97245,1,13268194.21,20339793.39,10708468.92,109.73,1380.08,-2762.71,52894.19,9.83,0,0.00,0.00,0,0,0,0,*1E
$PSTMTS,1,75,5518159.75,-45840.65,1,17,46676,1,15377215.61,-14533369.43,14248002.94,1699.15,-972.67,-2827.01,-35031.37,27.58,0,0.00,0.00,0,0,0,0,*09
$PSTMTS,1,10,89886905.83,-40731.92,1,27,555084,1,11604289.41,-12657841.57,19773544.86,802.52,2491.91,1145.20,-48199.85,24.52,0,0.00,0.00,0,0,0,0,*03
$PSTMTS,1,30,90705154.48,-40393.54,1,32,557181,1,24075438.18,10209.71,-11271133.20,1268.33,705.09,2705.54,-25803.89,30.89,0,0.00,0.00,0,0,0,0,*36
$GPRMC,113116.000,A,3206.17316,N,03512.56823,E,0.6,43.4,280115,,A*77
$GNGNS,113116.000,3206.17316,N,03512.56823,E,AA,09,1.5,0699.1,16.8,,*52
$GNGSA,A,3,09,06,07,01,03,10,30,,,,,,2.4,1.5,1.9*2E
$GNGSA,A,3,68,83,,,,,,,,,,,2.4,1.5,1.9*23
$GNGSA,A,3,,,,,,,,,,,,,2.4,1.5,1.9*26
$GPGSV,3,1,12,01,21,182,38,03,63,107,15,06,30,301,24,07,41,214,42*7C
$GPGSV,3,2,12,09,49,304,27,10,14,313,27,16,26,093,22,20,60,321,*70
$GPGSV,3,3,12,23,61,001,18,30,10,215,32,32,22,118,18,39,51,198,30*7C
$GLGSV,2,1,08,66,31,095,,82,07,242,,76,21,030,,83,12,296,17*6B
$GLGSV,2,2,08,67,57,020,,68,22,322,19,78,41,187,,77,71,073,*6F
$GPGLL,3206.17316,N,03512.56823,E,113116.000,A,A*56
$PSTMTS,1,09,147052411.21,-42917.11,1,27,566791,1,19042918.17,-750622.68,18495976.04,-1546.81,1776.61,1662.83,-20733.25,11.31,0,0.00,0.00,0,0,0,0,*29
$PSTMTS,1,06,148413687.64,-42641.01,1,24,565167,1,17706783.32,-8277943.74,17967977.99,2167.22,736.51,-1797.10,19391.91,16.07,0,0.00,0.00,0,0,0,0,*0F
$PSTMTS,1,07,147663325.12,-41290.26,1,42,565429,1,25821868.80,6944495.08,-881511.24,56.38,242.87,3173.29,130543.49,13.17,0,0.00,0.00,0,0,0,0,*10
$PSTMTS,1,01,149396241.75,-47486.55,1,38,563683,1,20111380.30,13524699.45,-11110048.29,-1407.20,-150.80,-2726.64,-2898.34,21.12,0,0.00,0.00,0,0,0,0,*2E
$PSTMTS,1,23,2686398.11,-44169.22,0,18,138715,0,0.00,0.00,0.00,0.00,0.00,0.00,0.00,0.00,0,0.00,0.00,0,0,0,0,*36
$PSTMTS,1,16,4726209.68,-42708.00,0,22,46164,0,0.00,0.00,0.00,0.00,0.00,0.00,0.00,0.00,0,0.00,0.00,0,0,0,0,*0C
$PSTMTS,1,32,5622344.97,-46621.64,0,18,176861,0,0.00,0.00,0.00,0.00,0.00,0.00,0.00,0.00,0,0.00,0.00,0,0,0,0,*3D
$PSTMTS,1,78,124067711.32,-41735.17,1,19,350940,1,10784779.51,-8424617.30,21534300.49,-230.92,2937.83,1264.73,32137.98,19.47,0,0.00,0.00,0,0,0,0,*0B
$PSTMTS,1,03,2392629.97,-45106.69,0,15,98246,1,13268304.05,20341174.64,10705703.40,109.72,1379.74,-2762.94,52894.19,9.83,0,0.00,0.00,0,0,0,0,*16
