$GPGGA,061721.95,,,,,0,00,999.9,,M,,M,,*69
$GPGSV,3,1,10,28,68,023,,13,57,319,,30,42,063,,17,40,144,*77
$GPGSV,3,2,10,05,28,242,,15,22,316,,19,20,172,,07,20,082,*73
$GPGSV,3,3,10,20,17,289,,11,05,066,*7A
$GLGSV,3,1,09,65,51,275,,75,47,331,,72,36,202,,74,31,040,*6C
$GLGSV,3,2,09,84,26,069,,85,25,125,,66,15,329,,76,14,277,*6C
$GLGSV,3,3,09,83,03,022,*54
$BDGSV,2,1,06,205,45,140,,214,38,232,,202,29,118,,212,28,154,*69
$BDGSV,2,2,06,208,26,065,,210,23,068,*6F
$GPGSA,A,1,,,,,,,,,,,,,140.0,99.0,99.0*35
$GNGSA,A,1,,,,,,,,,,,,,140.0,99.0,99.0*2B
$GNGSA,A,1,,,,,,,,,,,,,140.0,99.0,99.0*2B
$QZGSA,A,1,,,,,,,,,,,,,140.0,99.0,99.0*29
$IMGSA,A,1,,,,,,,,,,,,,140.0,99.0,99.0*26
$BDGSA,A,1,,,,,,,,,,,,,140.0,99.0,99.0*24
$GPRMC,061721.95,V,,,,,,,170616,,,N*75
$GPGGA,061722.73,,,,,0,00,999.9,,M,,M,,*62
$GPGSV,3,1,10,28,68,023,33,13,57,319,,30,42,063,,17,40,144,*77
$GPGSV,3,2,10,05,28,242,,15,22,316,,19,20,172,,07,20,082,*73
$GPGSV,3,3,10,20,17,289,,11,05,066,*7A
$GLGSV,3,1,09,65,51,275,,75,47,331,,72,36,202,,74,31,040,*6C
$GLGSV,3,2,09,84,26,069,,85,25,125,,66,15,329,,76,14,277,*6C
$GLGSV,3,3,09,83,03,022,*54
$BDGSV,2,1,06,205,45,140,,214,38,232,,202,29,118,,212,28,154,*69
$BDGSV,2,2,06,208,26,065,,210,23,068,*6F
$GPGSA,A,1,,,,,,,,,,,,,140.0,99.0,99.0*35
$GNGSA,A,1,,,,,,,,,,,,,140.0,99.0,99.0*2B
$GNGSA,A,1,,,,,,,,,,,,,140.0,99.0,99.0*2B
$QZGSA,A,1,,,,,,,,,,,,,140.0,99.0,99.0*29
$IMGSA,A,1,,,,,,,,,,,,,140.0,99.0,99.0*26
$BDGSA,A,1,,,,,,,,,,,,,140.0,99.0,99.0*24
$GPRMC,061722.73,V,,,,,,,170616,,,N*7E
$GPGGA,061722.95,,,,,0,00,999.9,,M,,M,,*6A
$GPGSV,3,1,10,28,68,024,33,13,57,319,30,05,28,242,27,15,22,316,30*7D
$GPGSV,3,2,10,19,20,172,23,30,42,063,,17,40,144,,07,20,082,*7A
$GPGSV,3,3,10,20,17,289,,11,05,066,*7A
$GLGSV,3,1,09,65,51,275,32,85,25,125,38,75,47,331,,72,36,202,*6F
$GLGSV,3,2,09,74,31,040,,84,26,069,,66,15,329,,76,14,277,*65
$GLGSV,3,3,09,83,03,022,*54
$BDGSV,2,1,06,205,45,140,,214,38,232,,202,29,118,,212,28,154,*69
$BDGSV,2,2,06,208,26,065,,210,23,068,*6F
$GPGSA,A,1,,,,,,,,,,,,,140.0,99.0,99.0*35
$GNGSA,A,1,,,,,,,,,,,,,140.0,99.0,99.0*2B
$GNGSA,A,1,,,,,,,,,,,,,140.0,99.0,99.0*2B
$QZGSA,A,1,,,,,,,,,,,,,140.0,99.0,99.0*29
$IMGSA,A,1,,,,,,,,,,,,,140.0,99.0,99.0*26
$BDGSA,A,1,,,,,,,,,,,,,140.0,99.0,99.0*24
$GPRMC,061722.95,V,,,,,,,170616,,,N*76
$GPGGA,061723.86,3205.025877,N,03448.165003,E,1,08,2.4,147.9,M,19.2,M,,*6D
$GPGSV,3,1,10,28,68,024,34,13,57,319,30,05,28,242,28,15,22,316,30*75
$GPGSV,3,2,10,19,20,172,23,07,20,082,32,30,42,063,,17,40,144,*7B
$GPGSV,3,3,10,20,17,289,,11,05,066,*7A
$GLGSV,3,1,09,65,51,275,32,75,47,331,34,72,36,202,27,85,25,125,38*6D
$GLGSV,3,2,09,74,31,040,,84,26,069,,66,15,329,,76,14,277,*65
$GLGSV,3,3,09,83,03,022,*54
$BDGSV,2,1,06,205,45,140,30,214,38,232,,202,29,118,,212,28,154,*6A
$BDGSV,2,2,06,208,26,065,,210,23,068,*6F
$GPGSA,A,3,05,07,13,15,19,28,,,,,,,2.1,1.0,1.8*3F
$GNGSA,A,3,05,07,13,15,19,28,,,,,,,2.1,1.0,1.8*21
$GNGSA,A,3,65,85,,,,,,,,,,,2.1,1.0,1.8*29
$QZGSA,A,3,,,,,,,,,,,,,2.1,1.0,1.8*25
$IMGSA,A,3,,,,,,,,,,,,,2.1,1.0,1.8*2A
$BDGSA,A,3,,,,,,,,,,,,,2.1,1.0,1.8*28
$GPRMC,061723.86,A,3205.025877,N,03448.165003,E,002.7,051.5,170616,,,A*53
$GPGGA,061724.86,3205.029838,N,03448.165894,E,1,11,2.4,147.8,M,19.2,M,,*62
$GPGSV,3,1,10,28,68,024,36,13,57,319,29,30,42,063,27,05,28,242,31*71
$GPGSV,3,2,10,15,22,316,30,19,20,172,23,07,20,082,32,17,40,144,*78
$GPGSV,3,3,10,20,17,289,,11,05,066,*7A
$GLGSV,3,1,09,65,51,275,32,75,47,331,34,72,36,202,29,74,31,040,25*66
$GLGSV,3,2,09,85,25,125,38,84,26,069,,66,15,329,,76,14,277,*67
$GLGSV,3,3,09,83,03,022,*54
$BDGSV,2,1,06,205,45,140,32,214,38,232,27,202,29,118,,212,28,154,*6D
$BDGSV,2,2,06,208,26,065,,210,23,068,*6F
$GPGSA,A,3,05,07,13,15,19,28,30,,,,,,2.0,0.8,1.8*34
$GNGSA,A,3,05,07,13,15,19,28,30,,,,,,2.0,0.8,1.8*2A
$GNGSA,A,3,65,72,75,85,,,,,,,,,2.0,0.8,1.8*26
$QZGSA,A,3,,,,,,,,,,,,,2.0,0.8,1.8*2D
$IMGSA,A,3,,,,,,,,,,,,,2.0,0.8,1.8*22
$BDGSA,A,3,,,,,,,,,,,,,2.0,0.8,1.8*20
$GPRMC,061724.86,A,3205.029838,N,03448.165894,E,001.8,084.4,170616,,,A*50
$GPGGA,061725.95,3205.027254,N,03448.165606,E,1,13,4.8,132.1,M,19.2,M,,*69
$GPGSV,3,1,10,28,68,024,36,13,57,319,29,30,42,063,29,17,40,144,34*72
$GPGSV,3,2,10,05,28,242,31,15,22,316,30,19,20,172,23,07,20,082,32*72
$GPGSV,3,3,10,20,17,289,24,11,05,066,*7C
$GLGSV,3,1,09,65,51,275,33,75,47,331,33,72,36,202,30,74,31,040,30*6C
$GLGSV,3,2,09,85,25,125,39,84,26,069,,66,15,329,,76,14,277,*66
$GLGSV,3,3,09,83,03,022,*54
$BDGSV,2,1,06,205,45,140,32,214,38,232,26,202,29,118,,212,28,154,*6C
$BDGSV,2,2,06,208,26,065,,210,23,068,*6F
$GPGSA,A,3,05,07,13,15,17,19,20,28,30,,,,2.4,1.0,2.1*37
$GNGSA,A,3,05,07,13,15,17,19,20,28,30,,,,2.4,1.0,2.1*29
$GNGSA,A,3,65,72,75,85,,,,,,,,,2.4,1.0,2.1*21
$QZGSA,A,3,,,,,,,,,,,,,2.4,1.0,2.1*2A
$IMGSA,A,3,,,,,,,,,,,,,2.4,1.0,2.1*25
$BDGSA,A,3,,,,,,,,,,,,,2.4,1.0,2.1*27
$GPRMC,061725.95,A,3205.027254,N,03448.165606,E,,,170616,,,A*59
$GPGGA,061726.95,3205.026107,N,03448.166490,E,1,13,3.2,100.2,M,19.2,M,,*6F
$GPGSV,3,1,10,28,68,024,36,13,57,319,29,30,42,063,29,17,40,144,37*71
$GPGSV,3,2,10,05,28,242,31,15,22,316,30,19,20,172,23,07,20,082,33*73
$GPGSV,3,3,10,20,17,289,24,11,05,066,*7C
$GLGSV,3,1,09,65,51,275,33,75,47,331,33,72,36,202,30,74,31,040,30*6C
$GLGSV,3,2,09,85,25,125,40,84,26,069,,66,15,329,,76,14,277,*68
$GLGSV,3,3,09,83,03,022,*54
$BDGSV,2,1,06,205,45,140,33,214,38,232,26,202,29,118,,212,28,154,*6D
$BDGSV,2,2,06,208,26,065,,210,23,068,*6F
$GPGSA,A,3,05,07,13,15,17,19,20,28,30,,,,2.2,1.1,1.9*3B
$GNGSA,A,3,05,07,13,15,17,19,20,28,30,,,,2.2,1.1,1.9*25
$GNGSA,A,3,65,72,75,85,,,,,,,,,2.2,1.1,1.9*2D
$QZGSA,A,3,,,,,,,,,,,,,2.2,1.1,1.9*26
$IMGSA,A,3,,,,,,,,,,,,,2.2,1.1,1.9*29
$BDGSA,A,3,,,,,,,,,,,,,2.2,1.1,1.9*2B
$GPRMC,061726.95,A,3205.026107,N,03448.166490,E,000.0,,170616,,,A*7E
$GPGGA,061727.95,3205.025914,N,03448.166452,E,1,14,1.6,75.7,M,19.2,M,,*5E
$GPGSV,3,1,10,28,68,024,35,13,57,319,29,30,42,063,29,17,40,144,39*7C
$GPGSV,3,2,10,05,28,242,31,15,22,316,29,19,20,172,23,07,20,082,33*7B
$GPGSV,3,3,10,20,17,289,25,11,05,066,*7D
$GLGSV,3,1,09,65,51,275,33,75,47,331,35,72,36,202,31,74,31,041,30*6A
$GLGSV,3,2,09,85,25,125,41,66,15,329,29,84,26,069,,76,14,277,*62
$GLGSV,3,3,09,83,03,022,*54
$BDGSV,2,1,06,205,45,140,33,214,38,232,26,202,29,118,,212,28,154,*6D
$BDGSV,2,2,06,208,26,065,,210,23,068,*6F
$GPGSA,A,3,05,07,13,15,17,19,20,28,30,,,,1.8,1.0,1.5*3F
$GNGSA,A,3,05,07,13,15,17,19,20,28,30,,,,1.8,1.0,1.5*21
$GNGSA,A,3,65,66,72,75,85,,,,,,,,1.8,1.0,1.5*29
$QZGSA,A,3,,,,,,,,,,,,,1.8,1.0,1.5*22
$IMGSA,A,3,,,,,,,,,,,,,1.8,1.0,1.5*2D
$BDGSA,A,3,,,,,,,,,,,,,1.8,1.0,1.5*2F
$GPRMC,061727.95,A,3205.025914,N,03448.166452,E,000.0,,170616,,,A*78
$GPGGA,061729.00,3205.025296,N,03448.166792,E,1,15,1.6,54.3,M,19.2,M,,*54
$GPGSV,3,1,10,28,68,024,35,13,57,319,29,30,42,063,29,17,40,144,39*7C
$GPGSV,3,2,10,05,28,242,31,15,22,316,29,19,20,172,23,07,20,082,33*7B
$GPGSV,3,3,10,20,17,289,25,11,05,066,*7D
$GLGSV,3,1,09,65,51,275,33,75,47,331,37,72,36,202,31,74,31,041,35*6D
$GLGSV,3,2,09,84,26,069,16,85,25,125,41,66,15,329,34,76,14,277,*69
$GLGSV,3,3,09,83,03,022,*54
$BDGSV,2,1,06,205,45,140,33,214,38,232,26,202,29,118,,212,28,154,*6D
$BDGSV,2,2,06,208,26,065,,210,23,068,*6F
$GPGSA,A,3,05,07,13,15,17,19,20,28,30,,,,1.7,1.0,1.4*31
$GNGSA,A,3,05,07,13,15,17,19,20,28,30,,,,1.7,1.0,1.4*2F
$GNGSA,A,3,65,66,72,75,84,85,,,,,,,1.7,1.0,1.4*2B
$QZGSA,A,3,,,,,,,,,,,,,1.7,1.0,1.4*2C
$IMGSA,A,3,,,,,,,,,,,,,1.7,1.0,1.4*23
$BDGSA,A,3,,,,,,,,,,,,,1.7,1.0,1.4*21
$GPRMC,061729.00,A,3205.025296,N,03448.166792,E,000.0,,170616,,,A*74
$GPGGA,061730.00,3205.024213,N,03448.166140,E,1,15,1.6,39.6,M,19.2,M,,*57
$GPGSV,3,1,10,28,68,024,34,13,57,319,34,30,42,063,29,17,40,144,39*71
$GPGSV,3,2,10,05,28,242,31,15,22,316,29,19,20,172,23,07,20,082,36*7E
$GPGSV,3,3,10,20,17,289,25,11,05,066,*7D
$GLGSV,3,1,09,65,51,275,33,75,47,331,37,72,36,202,31,74,31,041,35*6D
$GLGSV,3,2,09,84,26,069,18,85,25,125,41,66,15,329,34,76,14,277,*67
$GLGSV,3,3,09,83,03,022,*54
$BDGSV,2,1,06,205,45,140,32,214,38,232,26,202,29,118,,212,28,154,*6C
$BDGSV,2,2,06,208,26,065,,210,23,068,*6F
$GPGSA,A,3,05,07,13,15,17,19,20,28,30,,,,1.7,1.0,1.3*36
$GNGSA,A,3,05,07,13,15,17,19,20,28,30,,,,1.7,1.0,1.3*28
$GNGSA,A,3,65,66,72,75,84,85,,,,,,,1.7,1.0,1.3*2C
$QZGSA,A,3,,,,,,,,,,,,,1.7,1.0,1.3*2B
$IMGSA,A,3,,,,,,,,,,,,,1.7,1.0,1.3*24
$BDGSA,A,3,,,,,,,,,,,,,1.7,1.0,1.3*26
$GPRMC,061730.00,A,3205.024213,N,03448.166140,E,000.0,,170616,,,A*79
$GPGGA,061731.00,3205.024061,N,03448.165199,E,1,15,0.6,27.3,M,19.2,M,,*5D
$GPGSV,3,1,10,28,68,024,33,13,57,319,35,30,42,063,28,17,40,144,38*77
$GPGSV,3,2,10,05,28,242,35,15,22,316,29,19,20,172,24,07,20,082,43*7F
$GPGSV,3,3,10,20,17,289,25,11,05,066,*7D
$GLGSV,3,1,09,65,51,275,32,75,47,331,37,72,36,202,31,74,31,041,35*6C
$GLGSV,3,2,09,84,26,069,20,85,25,125,40,66,15,329,34,76,14,277,*6D
$GLGSV,3,3,09,83,03,022,*54
$BDGSV,2,1,06,205,45,140,32,214,38,232,28,202,29,118,,212,28,154,*62
$BDGSV,2,2,06,208,26,065,,210,23,068,*6F
$GPGSA,A,3,05,07,13,15,17,19,20,28,30,,,,1.8,1.1,1.4*3F
$GNGSA,A,3,05,07,13,15,17,19,20,28,30,,,,1.8,1.1,1.4*21
$GNGSA,A,3,65,66,72,75,84,85,,,,,,,1.8,1.1,1.4*25
$QZGSA,A,3,,,,,,,,,,,,,1.8,1.1,1.4*22
$IMGSA,A,3,,,,,,,,,,,,,1.8,1.1,1.4*2D
$BDGSA,A,3,,,,,,,,,,,,,1.8,1.1,1.4*2F
$GPRMC,061731.00,A,3205.024061,N,03448.165199,E,000.0,,170616,,,A*78
$GPGGA,061732.00,3205.023847,N,03448.162632,E,1,15,1.2,20.9,M,19.2,M,,*5C
$GPGSV,3,1,10,28,68,024,32,13,57,319,34,30,42,063,28,17,40,144,38*77
$GPGSV,3,2,10,05,28,242,39,15,22,316,30,19,20,172,24,07,20,082,42*7A
$GPGSV,3,3,10,20,17,289,24,11,05,066,*7C
$GLGSV,3,1,09,65,51,275,32,75,47,331,36,72,36,202,31,74,31,041,34*6C
$GLGSV,3,2,09,84,26,069,20,85,25,125,40,66,15,329,34,76,14,277,*6D
$GLGSV,3,3,09,83,03,022,*54
$BDGSV,2,1,06,205,45,140,31,214,38,232,34,202,29,118,,212,28,154,*6C
$BDGSV,2,2,06,208,26,065,,210,23,068,*6F
$GPGSA,A,3,05,07,13,15,17,19,20,28,30,,,,1.7,1.0,1.3*36
$GNGSA,A,3,05,07,13,15,17,19,20,28,30,,,,1.7,1.0,1.3*28
$GNGSA,A,3,65,66,72,75,84,85,,,,,,,1.7,1.0,1.3*2C
$QZGSA,A,3,,,,,,,,,,,,,1.7,1.0,1.3*2B
$IMGSA,A,3,,,,,,,,,,,,,1.7,1.0,1.3*24
$BDGSA,A,3,,,,,,,,,,,,,1.7,1.0,1.3*26
$GPRMC,061732.00,A,3205.023847,N,03448.162632,E,000.0,,170616,,,A*71
$GPGGA,061733.00,3205.023743,N,03448.160739,E,1,15,1.2,19.0,M,19.2,M,,*5D
$GPGSV,3,1,10,28,68,024,32,13,57,319,34,30,42,063,27,17,40,144,37*77
$GPGSV,3,2,10,05,28,242,39,15,22,316,32,19,20,172,23,07,20,082,41*7C
$GPGSV,3,3,10,20,17,289,24,11,05,066,*7C
$GLGSV,3,1,09,65,51,275,32,75,47,331,36,72,36,202,30,74,31,041,34*6D
$GLGSV,3,2,09,84,26,069,20,85,25,125,40,66,15,329,35,76,14,277,*6C
$GLGSV,3,3,09,83,03,022,*54
$BDGSV,2,1,06,205,45,140,31,214,38,232,34,202,29,118,,212,28,154,*6C
$BDGSV,2,2,06,208,26,065,,210,23,068,*6F
$GPGSA,A,3,05,07,13,15,17,19,20,28,30,,,,1.9,1.2,1.5*3C
$GNGSA,A,3,05,07,13,15,17,19,20,28,30,,,,1.9,1.2,1.5*22
$GNGSA,A,3,65,66,72,75,84,85,,,,,,,1.9,1.2,1.5*26
$QZGSA,A,3,,,,,,,,,,,,,1.9,1.2,1.5*21
$IMGSA,A,3,,,,,,,,,,,,,1.9,1.2,1.5*2E
$BDGSA,A,3,,,,,,,,,,,,,1.9,1.2,1.5*2C
$GPRMC,061733.00,A,3205.023743,N,03448.160739,E,000.0,,170616,,,A*73
$GPGGA,061734.00,3205.024141,N,03448.159592,E,1,15,1.2,19.8,M,19.2,M,,*58
$GPGSV,3,1,10,28,68,024,31,13,57,319,33,30,42,063,27,17,40,144,36*72
$GPGSV,3,2,10,05,28,242,39,15,22,316,32,19,21,171,23,07,20,082,40*7F
$GPGSV,3,3,10,20,17,289,24,11,05,066,*7C
$GLGSV,3,1,09,65,51,275,31,75,47,331,36,72,36,202,30,74,31,041,34*6E
$GLGSV,3,2,09,84,26,069,20,85,25,125,39,66,15,329,35,76,14,277,*62
$GLGSV,3,3,09,83,03,022,*54
$BDGSV,2,1,06,205,45,140,30,214,38,232,34,202,29,118,,212,28,154,*6D
$BDGSV,2,2,06,208,26,065,,210,23,068,*6F
$GPGSA,A,3,05,07,13,15,17,19,20,28,30,,,,1.9,1.2,1.5*3C
$GNGSA,A,3,05,07,13,15,17,19,20,28,30,,,,1.9,1.2,1.5*22
$GNGSA,A,3,65,66,72,75,84,85,,,,,,,1.9,1.2,1.5*26
$QZGSA,A,3,,,,,,,,,,,,,1.9,1.2,1.5*21
$IMGSA,A,3,,,,,,,,,,,,,1.9,1.2,1.5*2E
$BDGSA,A,3,,,,,,,,,,,,,1.9,1.2,1.5*2C
$GPRMC,061734.00,A,3205.024141,N,03448.159592,E,000.0,,170616,,,A*7E
$GPGGA,061735.00,3205.025200,N,03448.157511,E,1,16,1.2,25.6,M,19.2,M,,*59
$GPGSV,3,1,10,28,68,024,30,13,57,319,33,30,42,064,27,17,40,144,36*74
$GPGSV,3,2,10,05,28,242,38,15,22,316,31,19,21,171,23,07,20,082,38*72
$GPGSV,3,3,10,20,17,289,23,11,05,066,14*7E
$GLGSV,3,1,09,65,51,275,31,75,47,331,36,72,36,202,30,74,31,041,38*62
$GLGSV,3,2,09,84,26,069,20,85,25,125,39,66,15,329,34,76,14,277,*63
$GLGSV,3,3,09,83,03,022,*54
$BDGSV,2,1,06,205,45,140,29,214,38,232,34,212,28,154,11,202,29,118,*65
$BDGSV,2,2,06,208,26,065,,210,23,068,*6F
$GPGSA,A,3,05,07,11,13,15,17,19,20,28,30,,,1.9,1.2,1.5*3C
$GNGSA,A,3,05,07,11,13,15,17,19,20,28,30,,,1.9,1.2,1.5*22
$GNGSA,A,3,65,66,72,75,84,85,,,,,,,1.9,1.2,1.5*26
$QZGSA,A,3,,,,,,,,,,,,,1.9,1.2,1.5*21
$IMGSA,A,3,,,,,,,,,,,,,1.9,1.2,1.5*2E
$BDGSA,A,3,,,,,,,,,,,,,1.9,1.2,1.5*2C
$GPRMC,061735.00,A,3205.025200,N,03448.157511,E,000.0,,170616,,,A*7D
$GPGGA,061736.00,3205.025945,N,03448.156842,E,1,16,0.6,27.0,M,19.2,M,,*5B
$GPGSV,3,1,10,28,68,024,29,13,57,319,36,30,42,064,26,17,40,144,35*7B
$GPGSV,3,2,10,05,28,242,38,15,22,316,31,19,21,171,22,07,20,082,37*7C
$GPGSV,3,3,10,20,17,289,24,11,05,066,19*74
$GLGSV,3,1,09,65,51,275,30,75,47,331,36,72,36,202,30,74,31,041,37*6C
$GLGSV,3,2,09,84,26,069,19,85,25,125,39,66,15,329,34,76,14,277,*69
$GLGSV,3,3,09,83,03,022,*54
$BDGSV,2,1,06,205,45,140,28,214,38,232,34,212,28,154,10,202,29,118,*65
$BDGSV,2,2,06,208,26,065,,210,23,068,*6F
$GPGSA,A,3,05,07,11,13,15,17,19,20,28,30,,,1.9,1.2,1.5*3C
$GNGSA,A,3,05,07,11,13,15,17,19,20,28,30,,,1.9,1.2,1.5*22
$GNGSA,A,3,65,66,72,75,84,85,,,,,,,1.9,1.2,1.5*26
$QZGSA,A,3,,,,,,,,,,,,,1.9,1.2,1.5*21
$IMGSA,A,3,,,,,,,,,,,,,1.9,1.2,1.5*2E
$BDGSA,A,3,,,,,,,,,,,,,1.9,1.2,1.5*2C
$GPRMC,061736.00,A,3205.025945,N,03448.156842,E,000.0,,170616,,,A*7E
$GPGGA,061737.00,3205.026639,N,03448.156338,E,1,16,0.6,27.3,M,19.2,M,,*58
$GPGSV,3,1,10,28,68,024,28,13,57,319,37,30,42,064,26,17,40,144,35*7B
$GPGSV,3,2,10,05,28,242,38,15,23,316,30,19,21,171,22,07,20,082,35*7E
$GPGSV,3,3,10,20,17,289,24,11,05,066,22*7C
$GLGSV,3,1,09,65,51,275,29,75,47,331,36,72,36,202,30,74,31,041,37*64
$GLGSV,3,2,09,84,26,069,19,85,25,125,38,66,15,329,34,76,14,277,*68
$GLGSV,3,3,09,83,03,022,*54
$BDGSV,2,1,06,205,45,140,28,214,38,232,33,212,28,154,10,202,29,118,*62
$BDGSV,2,2,06,208,26,065,,210,23,068,*6F
$GPGSA,A,3,05,07,11,13,15,17,19,20,28,30,,,1.9,1.2,1.5*3C
$GNGSA,A,3,05,07,11,13,15,17,19,20,28,30,,,1.9,1.2,1.5*22
$GNGSA,A,3,65,66,72,75,84,85,,,,,,,1.9,1.2,1.5*26
$QZGSA,A,3,,,,,,,,,,,,,1.9,1.2,1.5*21
$IMGSA,A,3,,,,,,,,,,,,,1.9,1.2,1.5*2E
$BDGSA,A,3,,,,,,,,,,,,,1.9,1.2,1.5*2C
$GPRMC,061737.00,A,3205.026639,N,03448.156338,E,000.0,,170616,,,A*7E
$GPGGA,061738.00,3205.027399,N,03448.156131,E,1,16,1.6,27.4,M,19.2,M,,*54
$GPGSV,3,1,10,28,68,024,27,13,57,319,36,30,42,064,26,17,40,144,34*74
$GPGSV,3,2,10,05,28,242,37,15,23,316,30,19,21,171,21,07,20,082,33*74
$GPGSV,3,3,10,20,17,289,24,11,05,066,22*7C
$GLGSV,3,1,09,65,51,275,29,75,47,331,35,72,36,202,29,74,31,041,37*6F
$GLGSV,3,2,09,84,26,069,19,85,25,125,37,66,15,329,33,76,14,277,*60
$GLGSV,3,3,09,83,03,022,*54
$BDGSV,2,1,06,205,45,140,27,214,38,232,33,212,28,154,09,202,29,118,*65
$BDGSV,2,2,06,208,26,065,,210,23,068,*6F
$GPGSA,A,3,05,07,11,13,15,17,19,20,28,30,,,3.4,3.1,1.5*32
$GNGSA,A,3,05,07,11,13,15,17,19,20,28,30,,,3.4,3.1,1.5*2C
$GNGSA,A,3,65,66,72,75,84,85,,,,,,,3.4,3.1,1.5*28
$QZGSA,A,3,,,,,,,,,,,,,3.4,3.1,1.5*2F
$IMGSA,A,3,,,,,,,,,,,,,3.4,3.1,1.5*20
$BDGSA,A,3,,,,,,,,,,,,,3.4,3.1,1.5*22
$GPRMC,061738.00,A,3205.027399,N,03448.156131,E,003.1,,170616,,,A*76
$GPGGA,061739.00,3205.027898,N,03448.156250,E,1,16,0.8,25.7,M,19.2,M,,*55
$GPGSV,3,1,10,28,68,024,27,13,57,319,39,30,42,064,27,17,40,144,34*7A
$GPGSV,3,2,10,05,28,242,37,15,23,316,32,19,21,171,21,07,20,082,32*77
$GPGSV,3,3,10,20,17,289,24,11,05,066,21*7F
$GLGSV,3,1,09,65,51,275,28,75,47,331,35,72,36,202,29,74,31,041,37*6E
$GLGSV,3,2,09,84,26,069,19,85,25,125,37,66,15,329,34,76,14,277,*67
$GLGSV,3,3,09,83,03,022,*54
$BDGSV,2,1,06,205,45,140,27,214,38,232,33,212,28,154,08,202,29,118,*64
$BDGSV,2,2,06,208,26,065,,210,23,068,*6F
$GPGSA,A,3,05,07,11,13,15,17,19,20,28,30,,,2.2,1.4,1.7*30
$GNGSA,A,3,05,07,11,13,15,17,19,20,28,30,,,2.2,1.4,1.7*2E
$GNGSA,A,3,65,66,72,75,84,85,,,,,,,2.2,1.4,1.7*2A
$QZGSA,A,3,,,,,,,,,,,,,2.2,1.4,1.7*2D
$IMGSA,A,3,,,,,,,,,,,,,2.2,1.4,1.7*22
$BDGSA,A,3,,,,,,,,,,,,,2.2,1.4,1.7*20
$GPRMC,061739.00,A,3205.027898,N,03448.156250,E,002.2,,170616,,,A*7B
$GPGGA,061740.00,3205.028295,N,03448.156181,E,1,17,0.8,26.7,M,19.2,M,,*5E
$GPGSV,3,1,10,28,68,024,26,13,57,319,40,30,42,064,27,17,40,144,34*75
$GPGSV,3,2,10,05,28,242,37,15,23,316,35,19,21,171,21,07,20,082,30*72
$GPGSV,3,3,10,20,17,289,28,11,05,066,21*73
$GLGSV,3,1,09,65,51,275,27,75,47,331,35,72,36,202,29,74,31,041,36*60
$GLGSV,3,2,09,84,26,069,18,85,25,125,36,66,15,329,34,76,14,277,14*62
$GLGSV,3,3,09,83,03,022,*54
$BDGSV,2,1,06,205,45,140,26,214,38,232,33,212,28,154,09,202,29,118,*64
$BDGSV,2,2,06,208,26,065,,210,23,068,*6F
$GPGSA,A,3,05,07,11,13,15,17,19,20,28,30,,,2.2,1.4,1.7*30
$GNGSA,A,3,05,07,11,13,15,17,19,20,28,30,,,2.2,1.4,1.7*2E
$GNGSA,A,3,65,66,72,75,76,84,85,,,,,,2.2,1.4,1.7*2B
$QZGSA,A,3,,,,,,,,,,,,,2.2,1.4,1.7*2D
$IMGSA,A,3,,,,,,,,,,,,,2.2,1.4,1.7*22
$BDGSA,A,3,,,,,,,,,,,,,2.2,1.4,1.7*20
$GPRMC,061740.00,A,3205.028295,N,03448.156181,E,002.8,,170616,,,A*78
$GPGGA,061741.00,3205.028949,N,03448.156230,E,1,16,1.6,29.1,M,19.2,M,,*5B
$GPGSV,3,1,10,28,68,024,26,13,57,319,41,30,42,064,26,17,40,144,34*75
$GPGSV,3,2,10,05,28,242,36,15,23,316,34,19,21,171,21,07,20,082,28*7B
$GPGSV,3,3,10,20,17,289,31,11,05,066,20*7A
$GLGSV,3,1,09,65,51,275,26,75,47,331,35,72,36,202,30,74,31,041,35*6A
$GLGSV,3,2,09,84,26,069,18,85,25,125,36,66,15,329,35,76,14,277,14*63
$GLGSV,3,3,09,83,03,022,*54
$BDGSV,2,1,06,205,45,140,26,214,38,232,33,212,28,154,08,202,29,118,*65
$BDGSV,2,2,06,208,26,065,,210,23,068,*6F
$GPGSA,A,3,05,11,13,15,17,19,20,28,30,,,,4.1,3.7,1.8*3C
$GNGSA,A,3,05,11,13,15,17,19,20,28,30,,,,4.1,3.7,1.8*22
$GNGSA,A,3,65,66,72,75,76,84,85,,,,,,4.1,3.7,1.8*20
$QZGSA,A,3,,,,,,,,,,,,,4.1,3.7,1.8*26
$IMGSA,A,3,,,,,,,,,,,,,4.1,3.7,1.8*29
$BDGSA,A,3,,,,,,,,,,,,,4.1,3.7,1.8*2B
$GPRMC,061741.00,A,3205.028949,N,03448.156230,E,002.7,013.1,170616,,,A*58
$GPGGA,061742.00,3205.030485,N,03448.157318,E,1,16,0.8,30.5,M,19.2,M,,*55
$GPGSV,3,1,10,28,68,024,25,13,57,319,42,30,42,064,26,17,40,144,34*75
$GPGSV,3,2,10,05,28,242,37,15,23,316,34,19,21,171,20,07,20,082,27*74
$GPGSV,3,3,10,20,17,289,31,11,05,066,19*70
$GLGSV,3,1,09,65,51,275,26,75,47,331,35,72,36,202,29,74,31,041,34*63
$GLGSV,3,2,09,84,26,069,18,85,25,125,35,66,15,329,35,76,14,277,14*60
$GLGSV,3,3,09,83,03,022,*54
$BDGSV,2,1,06,205,45,140,26,214,38,232,35,212,28,154,30,202,29,118,*68
$BDGSV,2,2,06,208,26,065,,210,23,068,*6F
$GPGSA,A,3,05,07,13,15,17,19,20,28,30,,,,2.2,1.4,1.7*30
$GNGSA,A,3,05,07,13,15,17,19,20,28,30,,,,2.2,1.4,1.7*2E
$GNGSA,A,3,65,66,72,75,76,84,85,,,,,,2.2,1.4,1.7*2B
$QZGSA,A,3,,,,,,,,,,,,,2.2,1.4,1.7*2D
$IMGSA,A,3,,,,,,,,,,,,,2.2,1.4,1.7*22
$BDGSA,A,3,,,,,,,,,,,,,2.2,1.4,1.7*20
$GPRMC,061742.00,A,3205.030485,N,03448.157318,E,000.0,013.1,170616,,,A*50
$GPGGA,061743.00,3205.031685,N,03448.158223,E,1,16,0.8,32.7,M,19.2,M,,*51
$GPGSV,3,1,10,28,67,024,24,13,57,319,42,30,42,064,25,17,40,144,34*78
$GPGSV,3,2,10,05,28,242,37,15,23,316,34,19,21,171,20,07,20,082,26*75
$GPGSV,3,3,10,20,17,289,30,11,05,066,18*70
$GLGSV,3,1,09,65,51,275,25,75,47,331,35,72,36,202,29,74,31,041,33*67
$GLGSV,3,2,09,84,26,069,17,85,25,125,35,66,15,329,34,76,14,277,14*6E
$GLGSV,3,3,09,83,03,022,*54
$BDGSV,2,1,06,205,45,140,26,214,38,232,35,212,28,154,31,202,29,118,*69
$BDGSV,2,2,06,208,26,065,,210,23,068,*6F
$GPGSA,A,3,05,07,13,15,17,19,20,28,30,,,,1.8,1.0,1.5*3F
$GNGSA,A,3,05,07,13,15,17,19,20,28,30,,,,1.8,1.0,1.5*21
$GNGSA,A,3,65,66,72,75,76,84,85,,,,,,1.8,1.0,1.5*24
$QZGSA,A,3,,,,,,,,,,,,,1.8,1.0,1.5*22
$IMGSA,A,3,,,,,,,,,,,,,1.8,1.0,1.5*2D
$BDGSA,A,3,,,,,,,,,,,,,1.8,1.0,1.5*2F
$GPRMC,061743.00,A,3205.031685,N,03448.158223,E,000.0,013.1,170616,,,A*54
$GPGGA,061744.00,3205.032639,N,03448.158641,E,1,16,0.8,32.6,M,19.2,M,,*53
$GPGSV,3,1,10,28,67,024,24,13,57,319,42,30,42,064,25,17,40,144,33*7F
$GPGSV,3,2,10,05,28,242,37,15,23,316,34,19,21,171,20,07,20,082,25*76
$GPGSV,3,3,10,20,17,289,30,11,05,066,17*7F
$GLGSV,3,1,09,65,51,275,25,75,47,331,34,72,36,202,29,74,31,041,32*67
$GLGSV,3,2,09,84,26,069,17,85,25,125,34,66,15,329,34,76,14,277,14*6F
$GLGSV,3,3,09,83,03,022,*54
$BDGSV,2,1,06,205,45,140,24,214,38,232,34,212,28,154,31,202,29,118,*6A
$BDGSV,2,2,06,208,26,065,,210,23,068,*6F
$GPGSA,A,3,05,07,13,15,17,19,20,28,30,,,,3.3,1.7,2.8*3F
$GNGSA,A,3,05,07,13,15,17,19,20,28,30,,,,3.3,1.7,2.8*21
$GNGSA,A,3,65,66,72,75,76,84,85,,,,,,3.3,1.7,2.8*24
$QZGSA,A,3,,,,,,,,,,,,,3.3,1.7,2.8*22
$IMGSA,A,3,,,,,,,,,,,,,3.3,1.7,2.8*2D
$BDGSA,A,3,,,,,,,,,,,,,3.3,1.7,2.8*2F
$GPRMC,061744.00,A,3205.032639,N,03448.158641,E,003.4,003.3,170616,,,A*53
$GPGGA,061745.00,3205.033485,N,03448.158630,E,1,16,0.8,33.7,M,19.2,M,,*50
$GPGSV,3,1,10,28,67,024,24,13,57,319,41,30,42,064,25,17,40,144,33*7C
$GPGSV,3,2,10,05,28,242,37,15,23,316,34,19,21,171,19,07,20,082,24*7D
$GPGSV,3,3,10,20,17,289,29,11,05,066,16*76
$GLGSV,3,1,09,65,51,275,25,75,47,331,34,72,36,202,29,74,31,041,31*64
$GLGSV,3,2,09,84,26,069,17,85,25,125,33,66,15,329,33,76,14,277,14*6F
$GLGSV,3,3,09,83,03,022,*54
$BDGSV,2,1,06,205,45,140,23,214,38,232,36,212,28,154,31,202,29,118,*6F
$BDGSV,2,2,06,208,26,065,,210,23,068,*6F
$GPGSA,A,3,05,07,13,15,17,19,20,28,30,,,,2.6,1.5,2.1*30
$GNGSA,A,3,05,07,13,15,17,19,20,28,30,,,,2.6,1.5,2.1*2E
$GNGSA,A,3,65,66,72,75,76,84,85,,,,,,2.6,1.5,2.1*2B
$QZGSA,A,3,,,,,,,,,,,,,2.6,1.5,2.1*2D
$IMGSA,A,3,,,,,,,,,,,,,2.6,1.5,2.1*22
$BDGSA,A,3,,,,,,,,,,,,,2.6,1.5,2.1*20
$GPRMC,061745.00,A,3205.033485,N,03448.158630,E,003.1,359.1,170616,,,A*5B
$GPGGA,061746.00,3205.034304,N,03448.158533,E,1,16,0.8,34.3,M,19.2,M,,*59
$GPGSV,3,1,10,28,67,024,23,13,57,319,41,30,42,064,29,17,40,144,32*76
$GPGSV,3,2,10,05,28,242,36,15,23,316,34,19,21,171,20,07,20,082,23*71
$GPGSV,3,3,10,20,17,289,29,11,05,066,16*76
$GLGSV,3,1,09,65,51,275,25,75,47,331,35,72,36,202,29,74,31,041,30*64
$GLGSV,3,2,09,84,26,069,17,85,25,125,32,66,15,329,32,76,14,277,14*6F
$GLGSV,3,3,09,83,03,022,*54
$BDGSV,2,1,06,205,45,140,21,214,38,232,35,212,28,154,30,202,29,118,*6F
$BDGSV,2,2,06,208,26,065,,210,23,068,*6F
$GPGSA,A,3,05,07,13,15,17,19,20,28,30,,,,3.3,1.7,2.8*3F
$GNGSA,A,3,05,07,13,15,17,19,20,28,30,,,,3.3,1.7,2.8*21
$GNGSA,A,3,65,66,72,75,76,84,85,,,,,,3.3,1.7,2.8*24
$QZGSA,A,3,,,,,,,,,,,,,3.3,1.7,2.8*22
$IMGSA,A,3,,,,,,,,,,,,,3.3,1.7,2.8*2D
$BDGSA,A,3,,,,,,,,,,,,,3.3,1.7,2.8*2F
$GPRMC,061746.00,A,3205.034304,N,03448.158533,E,001.8,353.4,170616,,,A*55
$GPGGA,061747.00,3205.034779,N,03448.158414,E,1,16,0.8,34.3,M,19.2,M,,*52
$GPGSV,3,1,10,28,67,024,23,13,57,319,41,30,42,064,30,17,40,144,31*7D
$GPGSV,3,2,10,05,28,242,35,15,23,316,33,19,21,171,19,07,20,082,23*7F
$GPGSV,3,3,10,20,17,289,28,11,05,066,14*75
$GLGSV,3,1,09,65,51,275,26,75,47,331,35,72,36,202,29,74,31,041,30*67
$GLGSV,3,2,09,84,26,069,17,85,25,125,31,66,15,329,31,76,14,277,14*6F
$GLGSV,3,3,09,83,03,022,*54
$BDGSV,2,1,06,205,45,140,17,214,38,232,35,212,28,154,30,202,29,118,*6A
$BDGSV,2,2,06,208,26,065,,210,23,068,*6F
$GPGSA,A,3,05,07,13,15,17,19,20,28,30,,,,2.6,1.5,2.1*30
$GNGSA,A,3,05,07,13,15,17,19,20,28,30,,,,2.6,1.5,2.1*2E
$GNGSA,A,3,65,66,72,75,76,84,85,,,,,,2.6,1.5,2.1*2B
$QZGSA,A,3,,,,,,,,,,,,,2.6,1.5,2.1*2D
$IMGSA,A,3,,,,,,,,,,,,,2.6,1.5,2.1*22
$BDGSA,A,3,,,,,,,,,,,,,2.6,1.5,2.1*20
$GPRMC,061747.00,A,3205.034779,N,03448.158414,E,000.0,353.4,170616,,,A*57
$GPGGA,061748.00,3205.036201,N,03448.150035,E,1,16,1.6,39.6,M,19.2,M,,*5D
$GPGSV,3,1,10,28,67,024,23,13,57,319,41,30,42,064,34,17,40,144,30*78
$GPGSV,3,2,10,05,28,242,35,15,23,316,33,19,21,171,19,07,20,082,23*7F
$GPGSV,3,3,10,20,17,289,28,11,05,066,11*70
$GLGSV,3,1,09,65,51,275,27,75,47,331,35,72,36,202,28,74,31,041,29*6F
$GLGSV,3,2,09,84,26,069,17,85,25,125,31,66,15,329,30,76,14,277,18*62
$GLGSV,3,3,09,83,03,022,*54
$BDGSV,2,1,06,205,45,140,12,214,38,232,36,212,28,154,30,202,29,118,*6C
$BDGSV,2,2,06,208,26,065,,210,23,068,*6F
$GPGSA,A,3,05,07,13,15,17,19,20,28,30,,,,2.2,1.1,1.9*3B
$GNGSA,A,3,05,07,13,15,17,19,20,28,30,,,,2.2,1.1,1.9*25
$GNGSA,A,3,65,66,72,75,76,84,85,,,,,,2.2,1.1,1.9*20
$QZGSA,A,3,,,,,,,,,,,,,2.2,1.1,1.9*26
$IMGSA,A,3,,,,,,,,,,,,,2.2,1.1,1.9*29
$BDGSA,A,3,,,,,,,,,,,,,2.2,1.1,1.9*2B
$GPRMC,061748.00,A,3205.036201,N,03448.150035,E,000.0,353.4,170616,,,A*5F
$GPGGA,061749.00,3205.036966,N,03448.144920,E,1,16,0.8,45.1,M,19.2,M,,*5D
$GPGSV,3,1,10,28,67,024,23,13,57,319,41,30,42,064,37,17,40,144,29*73
$GPGSV,3,2,10,05,28,242,34,15,23,316,33,19,21,171,19,07,20,082,22*7F
$GPGSV,3,3,10,20,17,289,27,11,05,066,08*77
$GLGSV,3,1,09,65,51,275,26,75,47,331,35,72,36,202,29,74,31,041,29*6F
$GLGSV,3,2,09,84,26,069,16,85,25,125,30,66,15,329,30,76,14,277,18*62
$GLGSV,3,3,09,83,03,022,*54
$BDGSV,2,1,06,214,38,232,36,212,28,154,30,205,45,140,,202,29,118,*6F
$BDGSV,2,2,06,208,26,065,,210,23,068,*6F
$GPGSA,A,3,05,07,13,15,17,19,20,28,30,,,,3.2,2.0,2.5*37
$GNGSA,A,3,05,07,13,15,17,19,20,28,30,,,,3.2,2.0,2.5*29
$GNGSA,A,3,65,66,72,75,76,84,85,,,,,,3.2,2.0,2.5*2C
$QZGSA,A,3,,,,,,,,,,,,,3.2,2.0,2.5*2A
$IMGSA,A,3,,,,,,,,,,,,,3.2,2.0,2.5*25
$BDGSA,A,3,,,,,,,,,,,,,3.2,2.0,2.5*27
$GPRMC,061749.00,A,3205.036966,N,03448.144920,E,000.0,353.4,170616,,,A*5C
$GPGGA,061750.00,3205.037898,N,03448.142551,E,1,16,2.4,48.7,M,19.2,M,,*5D
$GPGSV,3,1,10,28,67,024,25,13,57,319,41,30,42,064,37,17,40,144,28*74
$GPGSV,3,2,10,05,28,242,33,15,23,316,34,19,21,171,20,07,20,082,22*75
$GPGSV,3,3,10,20,17,289,27,11,05,066,*7F
$GLGSV,3,1,09,65,51,275,26,75,47,331,35,72,36,202,29,74,31,041,28*6E
$GLGSV,3,2,09,84,26,069,23,85,25,125,30,66,15,329,29,76,14,277,18*6C
$GLGSV,3,3,09,83,03,022,*54
$BDGSV,2,1,06,214,38,232,36,212,28,154,29,205,45,140,,202,29,118,*67
$BDGSV,2,2,06,208,26,065,,210,23,068,*6F
$GPGSA,A,3,05,07,13,15,17,19,20,28,30,,,,2.0,1.0,1.7*36
$GNGSA,A,3,05,07,13,15,17,19,20,28,30,,,,2.0,1.0,1.7*28
$GNGSA,A,3,65,66,72,75,76,84,85,,,,,,2.0,1.0,1.7*2D
$QZGSA,A,3,,,,,,,,,,,,,2.0,1.0,1.7*2B
$IMGSA,A,3,,,,,,,,,,,,,2.0,1.0,1.7*24
$BDGSA,A,3,,,,,,,,,,,,,2.0,1.0,1.7*26
$GPRMC,061750.00,A,3205.037898,N,03448.142551,E,000.0,353.4,170616,,,A*59
$GPGGA,061751.00,3205.038671,N,03448.141450,E,1,16,0.8,50.2,M,19.2,M,,*5B
$GPGSV,3,1,10,28,67,024,27,13,57,319,41,30,42,064,36,17,40,144,27*78
$GPGSV,3,2,10,05,28,241,33,15,23,316,35,19,21,171,20,07,20,082,22*77
$GPGSV,3,3,10,20,17,289,27,11,05,066,*7F
$GLGSV,3,1,09,65,51,275,29,75,47,331,35,72,36,202,29,74,31,041,27*6E
$GLGSV,3,2,09,84,26,069,23,85,25,125,29,66,15,329,28,76,14,277,18*65
$GLGSV,3,3,09,83,03,022,*54
$BDGSV,2,1,06,214,38,232,35,212,28,154,28,205,45,140,,202,29,118,*65
$BDGSV,2,2,06,208,26,065,,210,23,068,*6F
$GPGSA,A,3,05,07,13,15,17,19,20,28,30,,,,2.2,1.4,1.7*30
$GNGSA,A,3,05,07,13,15,17,19,20,28,30,,,,2.2,1.4,1.7*2E
$GNGSA,A,3,65,66,72,75,76,84,85,,,,,,2.2,1.4,1.7*2B
$QZGSA,A,3,,,,,,,,,,,,,2.2,1.4,1.7*2D
$IMGSA,A,3,,,,,,,,,,,,,2.2,1.4,1.7*22
$BDGSA,A,3,,,,,,,,,,,,,2.2,1.4,1.7*20
$GPRMC,061751.00,A,3205.038671,N,03448.141450,E,000.0,353.4,170616,,,A*5D
$GPGGA,061752.00,3205.038671,N,03448.141450,E,1,16,1.2,55.0,M,19.2,M,,*54
$GPGSV,3,1,10,28,67,024,30,13,57,319,40,30,42,064,36,17,40,144,27*7F
$GPGSV,3,2,10,05,28,241,33,15,23,316,34,19,21,171,22,07,19,082,21*7D
$GPGSV,3,3,10,20,17,289,27,11,05,066,*7F
$GLGSV,3,1,09,65,51,275,30,75,47,331,36,72,36,202,29,74,31,041,26*64
$GLGSV,3,2,09,84,26,069,22,85,25,125,29,66,15,329,27,76,14,277,18*6B
$GLGSV,3,3,09,83,03,022,*54
$BDGSV,2,1,06,214,38,232,34,212,28,154,27,205,45,140,,202,29,118,*6B
$BDGSV,2,2,06,208,26,065,,210,23,068,*6F
$GPGSA,A,3,05,07,13,15,17,19,20,28,30,,,,2.5,1.5,1.9*38
$GNGSA,A,3,05,07,13,15,17,19,20,28,30,,,,2.5,1.5,1.9*26
$GNGSA,A,3,65,66,72,75,76,84,85,,,,,,2.5,1.5,1.9*23
$QZGSA,A,3,,,,,,,,,,,,,2.5,1.5,1.9*25
$IMGSA,A,3,,,,,,,,,,,,,2.5,1.5,1.9*2A
$BDGSA,A,3,,,,,,,,,,,,,2.5,1.5,1.9*28
$GPRMC,061752.00,A,3205.038671,N,03448.141450,E,000.0,353.4,170616,,,A*5E
$GPGGA,061753.00,3205.038671,N,03448.141450,E,1,16,1.2,60.2,M,19.2,M,,*51
$GPGSV,3,1,10,28,67,024,31,13,57,319,40,30,42,064,35,17,40,144,26*7C
$GPGSV,3,2,10,05,28,241,33,15,23,316,34,19,21,171,22,07,19,082,21*7D
$GPGSV,3,3,10,20,17,289,26,11,05,066,*7E
$GLGSV,3,1,09,65,51,275,31,75,47,331,37,72,36,202,28,74,31,041,26*65
$GLGSV,3,2,09,84,26,069,22,85,25,125,32,66,15,329,26,76,14,277,17*6F
$GLGSV,3,3,09,83,03,022,*54
$BDGSV,2,1,06,214,38,232,33,212,28,154,26,205,45,140,,202,29,118,*6D
$BDGSV,2,2,06,208,26,065,,210,23,068,*6F
$GPGSA,A,3,05,07,13,15,17,19,20,28,30,,,,3.2,2.0,2.5*37
$GNGSA,A,3,05,07,13,15,17,19,20,28,30,,,,3.2,2.0,2.5*29
$GNGSA,A,3,65,66,72,75,76,84,85,,,,,,3.2,2.0,2.5*2C
$QZGSA,A,3,,,,,,,,,,,,,3.2,2.0,2.5*2A
$IMGSA,A,3,,,,,,,,,,,,,3.2,2.0,2.5*25
$BDGSA,A,3,,,,,,,,,,,,,3.2,2.0,2.5*27
$GPRMC,061753.00,A,3205.038671,N,03448.141450,E,000.0,353.4,170616,,,A*5F
$GPGGA,061754.00,3205.046468,N,03448.142022,E,1,16,1.2,65.6,M,19.2,M,,*56
$GPGSV,3,1,10,28,67,024,34,13,57,319,40,30,42,064,34,17,40,144,25*7B
$GPGSV,3,2,10,05,28,241,32,15,23,316,33,19,21,171,21,07,19,082,21*78
$GPGSV,3,3,10,20,17,289,26,11,05,066,*7E
$GLGSV,3,1,09,65,51,275,33,75,47,331,37,72,36,202,28,74,31,041,25*64
$GLGSV,3,2,09,84,27,069,22,85,25,125,33,66,15,329,26,76,14,277,17*6F
$GLGSV,3,3,09,83,03,022,*54
$BDGSV,2,1,06,214,38,232,32,212,28,154,26,205,45,140,,202,29,118,*6C
$BDGSV,2,2,06,208,26,065,,210,23,068,*6F
$GPGSA,A,3,05,07,13,15,17,19,20,28,30,,,,2.6,1.2,2.2*34
$GNGSA,A,3,05,07,13,15,17,19,20,28,30,,,,2.6,1.2,2.2*2A
$GNGSA,A,3,65,66,72,75,76,84,85,,,,,,2.6,1.2,2.2*2F
$QZGSA,A,3,,,,,,,,,,,,,2.6,1.2,2.2*29
$IMGSA,A,3,,,,,,,,,,,,,2.6,1.2,2.2*26
$BDGSA,A,3,,,,,,,,,,,,,2.6,1.2,2.2*24
$GPRMC,061754.00,A,3205.046468,N,03448.142022,E,000.0,353.4,170616,,,A*59
$GPGGA,061755.00,3205.047652,N,03448.142508,E,1,16,1.2,70.0,M,19.2,M,,*52
$GPGSV,3,1,10,28,67,024,36,13,57,319,41,30,42,064,33,17,40,144,25*7F
$GPGSV,3,2,10,05,28,241,32,15,23,316,33,19,21,171,21,07,19,082,20*79
$GPGSV,3,3,10,20,17,289,25,11,05,066,*7D
$GLGSV,3,1,09,65,51,275,38,75,47,331,37,72,35,202,29,74,31,041,25*6D
$GLGSV,3,2,09,84,27,069,21,85,25,125,33,66,15,329,25,76,14,277,22*69
$GLGSV,3,3,09,83,03,022,*54
$BDGSV,2,1,06,214,38,232,31,212,28,154,25,205,45,140,,202,29,118,*6C
$BDGSV,2,2,06,208,26,065,,210,23,068,*6F
$GPGSA,A,3,05,07,13,15,17,19,20,28,30,,,,2.2,1.2,1.8*39
$GNGSA,A,3,05,07,13,15,17,19,20,28,30,,,,2.2,1.2,1.8*27
$GNGSA,A,3,65,66,72,75,76,84,85,,,,,,2.2,1.2,1.8*22
$QZGSA,A,3,,,,,,,,,,,,,2.2,1.2,1.8*24
$IMGSA,A,3,,,,,,,,,,,,,2.2,1.2,1.8*2B
$BDGSA,A,3,,,,,,,,,,,,,2.2,1.2,1.8*29
$GPRMC,061755.00,A,3205.047652,N,03448.142508,E,001.0,009.6,170616,,,A*50
$GPGGA,061756.00,3205.048703,N,03448.143130,E,1,16,1.2,70.2,M,19.2,M,,*57
$GPGSV,3,1,10,28,67,024,36,13,57,319,41,30,42,064,32,17,40,144,25*7E
$GPGSV,3,2,10,05,28,241,34,15,23,316,35,19,21,171,23,07,19,082,26*7D
$GPGSV,3,3,10,20,17,289,25,11,05,066,*7D
$GLGSV,3,1,09,65,51,275,39,75,47,331,37,72,35,202,30,74,31,041,25*64
$GLGSV,3,2,09,84,27,069,20,85,25,125,33,66,15,329,25,76,14,277,23*69
$GLGSV,3,3,09,83,03,022,*54
$BDGSV,2,1,06,214,38,232,30,212,28,154,24,205,45,140,,202,29,118,*6C
$BDGSV,2,2,06,208,26,065,,210,23,068,*6F
$GPGSA,A,3,05,07,13,15,17,19,20,28,30,,,,2.2,1.3,1.8*38
$GNGSA,A,3,05,07,13,15,17,19,20,28,30,,,,2.2,1.3,1.8*26
$GNGSA,A,3,65,66,72,75,76,84,85,,,,,,2.2,1.3,1.8*23
$QZGSA,A,3,,,,,,,,,,,,,2.2,1.3,1.8*25
$IMGSA,A,3,,,,,,,,,,,,,2.2,1.3,1.8*2A
$BDGSA,A,3,,,,,,,,,,,,,2.2,1.3,1.8*28
$GPRMC,061756.00,A,3205.048703,N,03448.143130,E,001.4,021.2,170616,,,A*5D
$GPGGA,061757.00,3205.048712,N,03448.143135,E,1,16,1.6,70.3,M,19.2,M,,*56
$GPGSV,3,1,10,28,67,024,36,13,57,319,40,30,42,064,31,17,40,144,24*7D
$GPGSV,3,2,10,05,28,241,34,15,23,316,39,19,21,171,23,07,19,082,29*7E
$GPGSV,3,3,10,20,17,289,24,11,05,066,*7C
$GLGSV,3,1,09,65,51,274,40,75,47,331,36,72,35,202,31,74,30,041,24*6B
$GLGSV,3,2,09,84,27,069,20,85,25,125,35,66,15,329,24,76,14,277,23*6E
$GLGSV,3,3,09,83,03,022,*54
$BDGSV,2,1,06,214,38,232,29,212,28,154,24,205,45,140,,202,29,118,*64
$BDGSV,2,2,06,208,26,065,,210,23,068,*6F
$GPGSA,A,3,05,07,13,15,17,19,20,28,30,,,,1.8,0.9,1.6*34
$GNGSA,A,3,05,07,13,15,17,19,20,28,30,,,,1.8,0.9,1.6*2A
$GNGSA,A,3,65,66,72,75,76,84,85,,,,,,1.8,0.9,1.6*2F
$QZGSA,A,3,,,,,,,,,,,,,1.8,0.9,1.6*29
$IMGSA,A,3,,,,,,,,,,,,,1.8,0.9,1.6*26
$BDGSA,A,3,,,,,,,,,,,,,1.8,0.9,1.6*24
$GPRMC,061757.00,A,3205.048712,N,03448.143135,E,000.8,021.2,170616,,,A*54
$GPGGA,061758.00,3205.048837,N,03448.143234,E,1,16,1.6,70.3,M,19.2,M,,*53
$GPGSV,3,1,10,28,67,024,36,13,57,319,40,30,42,064,30,17,40,144,24*7C
$GPGSV,3,2,10,05,28,241,33,15,23,316,40,19,21,171,24,07,19,082,32*7A
$GPGSV,3,3,10,20,17,289,24,11,05,066,*7C
$GLGSV,3,1,09,65,51,274,40,75,47,331,36,72,35,202,31,74,30,041,26*69
$GLGSV,3,2,09,84,27,069,20,85,25,125,39,66,15,329,24,76,14,277,23*62
$GLGSV,3,3,09,83,03,022,*54
$BDGSV,2,1,06,214,38,232,28,212,28,154,24,205,45,140,,202,29,118,*65
$BDGSV,2,2,06,208,26,065,,210,23,068,*6F
$GPGSA,A,3,05,07,13,15,17,19,20,28,30,,,,2.0,1.0,1.7*36
$GNGSA,A,3,05,07,13,15,17,19,20,28,30,,,,2.0,1.0,1.7*28
$GNGSA,A,3,65,66,72,75,76,84,85,,,,,,2.0,1.0,1.7*2D
$QZGSA,A,3,,,,,,,,,,,,,2.0,1.0,1.7*2B
$IMGSA,A,3,,,,,,,,,,,,,2.0,1.0,1.7*24
$BDGSA,A,3,,,,,,,,,,,,,2.0,1.0,1.7*26
$GPRMC,061758.00,A,3205.048837,N,03448.143234,E,000.0,021.2,170616,,,A*59
$GPGGA,061759.00,3205.049208,N,03448.143747,E,1,16,0.8,70.3,M,19.2,M,,*5B
$GPGSV,3,1,10,28,67,024,36,13,57,319,40,30,42,064,30,17,40,144,24*7C
$GPGSV,3,2,10,05,28,241,33,15,23,316,40,19,21,171,24,07,19,082,32*7A
$GPGSV,3,3,10,20,17,289,24,11,05,066,*7C
$GLGSV,3,1,09,65,51,274,40,75,47,331,36,72,35,202,33,74,30,041,26*6B
$GLGSV,3,2,09,84,27,069,19,85,25,125,39,66,15,329,24,76,14,277,22*69
$GLGSV,3,3,09,83,03,022,*54
$BDGSV,2,1,06,214,38,232,27,212,28,154,24,205,45,140,,202,29,118,*6A
$BDGSV,2,2,06,208,26,065,,210,23,068,*6F
$GPGSA,A,3,05,07,13,15,17,19,20,28,30,,,,2.0,1.1,1.7*37
$GNGSA,A,3,05,07,13,15,17,19,20,28,30,,,,2.0,1.1,1.7*29
$GNGSA,A,3,65,66,72,75,76,84,85,,,,,,2.0,1.1,1.7*2C
$QZGSA,A,3,,,,,,,,,,,,,2.0,1.1,1.7*2A
$IMGSA,A,3,,,,,,,,,,,,,2.0,1.1,1.7*25
$BDGSA,A,3,,,,,,,,,,,,,2.0,1.1,1.7*27
$GPRMC,061759.00,A,3205.049208,N,03448.143747,E,000.7,021.2,170616,,,A*59
$GPGGA,061800.00,3205.051186,N,03448.145186,E,1,16,1.2,70.3,M,19.2,M,,*52
$GPGSV,3,1,10,28,67,024,36,13,57,319,40,30,42,064,29,17,41,144,24*75
$GPGSV,3,2,10,05,28,241,33,15,23,316,40,19,21,171,24,07,19,082,32*7A
$GPGSV,3,3,10,20,17,289,23,11,05,066,*7B
$GLGSV,3,1,09,65,51,274,40,75,47,331,36,72,35,202,32,74,30,041,26*6A
$GLGSV,3,2,09,84,27,069,19,85,25,125,38,66,15,329,24,76,14,277,22*68
$GLGSV,3,3,09,83,03,022,*54
$BDGSV,2,1,06,214,38,232,26,212,28,154,30,205,45,140,,202,29,118,*6E
$BDGSV,2,2,06,208,26,065,,210,23,068,*6F
$GPGSA,A,3,05,07,13,15,17,19,20,28,30,,,,2.0,1.0,1.7*36
$GNGSA,A,3,05,07,13,15,17,19,20,28,30,,,,2.0,1.0,1.7*28
$GNGSA,A,3,65,66,72,75,76,84,85,,,,,,2.0,1.0,1.7*2D
$QZGSA,A,3,,,,,,,,,,,,,2.0,1.0,1.7*2B
$IMGSA,A,3,,,,,,,,,,,,,2.0,1.0,1.7*24
$BDGSA,A,3,,,,,,,,,,,,,2.0,1.0,1.7*26
$GPRMC,061800.00,A,3205.051186,N,03448.145186,E,000.0,021.2,170616,,,A*5C
$GPGGA,061801.00,3205.053662,N,03448.145347,E,1,16,1.2,69.8,M,19.2,M,,*50
$GPGSV,3,1,10,28,67,024,35,13,57,319,39,30,42,064,29,17,41,144,24*78
$GPGSV,3,2,10,05,28,241,32,15,23,316,40,19,21,171,24,07,19,082,32*7B
$GPGSV,3,3,10,20,17,289,23,11,05,066,*7B
$GLGSV,3,1,09,65,51,274,40,75,47,331,36,72,35,202,32,74,30,041,25*69
$GLGSV,3,2,09,84,27,069,18,85,25,125,38,66,15,329,24,76,14,277,22*69
$GLGSV,3,3,09,83,03,022,*54
$BDGSV,2,1,06,214,38,232,26,212,28,154,32,205,45,140,,202,29,118,*6C
$BDGSV,2,2,06,208,26,065,,210,23,068,*6F
$GPGSA,A,3,05,07,13,15,17,19,20,28,30,,,,1.9,0.9,1.7*34
$GNGSA,A,3,05,07,13,15,17,19,20,28,30,,,,1.9,0.9,1.7*2A
$GNGSA,A,3,65,66,72,75,76,84,85,,,,,,1.9,0.9,1.7*2F
$QZGSA,A,3,,,,,,,,,,,,,1.9,0.9,1.7*29
$IMGSA,A,3,,,,,,,,,,,,,1.9,0.9,1.7*26
$BDGSA,A,3,,,,,,,,,,,,,1.9,0.9,1.7*24
$GPRMC,061801.00,A,3205.053662,N,03448.145347,E,000.7,021.2,170616,,,A*5A
$GPGGA,061802.00,3205.055881,N,03448.145012,E,1,16,1.2,69.8,M,19.2,M,,*55
$GPGSV,3,1,10,28,67,024,35,13,57,319,39,30,42,064,28,17,41,144,25*78
$GPGSV,3,2,10,05,28,241,32,15,23,316,41,19,21,171,25,07,19,082,31*78
$GPGSV,3,3,10,20,17,289,23,11,05,066,*7B
$GLGSV,3,1,09,65,51,274,40,75,47,331,36,72,35,202,32,74,30,041,25*69
$GLGSV,3,2,09,84,27,069,18,85,25,125,38,66,15,329,23,76,14,277,22*6E
$GLGSV,3,3,09,83,03,022,*54
$BDGSV,2,1,06,214,38,232,26,212,28,154,32,205,45,140,,202,29,118,*6C
$BDGSV,2,2,06,208,26,065,,210,23,068,*6F
$GPGSA,A,3,05,07,13,15,17,19,20,28,30,,,,2.0,1.0,1.7*36
$GNGSA,A,3,05,07,13,15,17,19,20,28,30,,,,2.0,1.0,1.7*28
$GNGSA,A,3,65,66,72,75,76,84,85,,,,,,2.0,1.0,1.7*2D
$QZGSA,A,3,,,,,,,,,,,,,2.0,1.0,1.7*2B
$IMGSA,A,3,,,,,,,,,,,,,2.0,1.0,1.7*24
$BDGSA,A,3,,,,,,,,,,,,,2.0,1.0,1.7*26
$GPRMC,061802.00,A,3205.055881,N,03448.145012,E,000.0,021.2,170616,,,A*58
$GPGGA,061803.00,3205.056596,N,03448.145145,E,1,16,1.6,69.2,M,19.2,M,,*51
$GPGSV,3,1,10,28,67,024,35,13,57,319,39,30,42,064,28,17,41,144,31*7D
$GPGSV,3,2,10,05,28,241,35,15,23,316,41,19,21,171,25,07,19,082,31*7F
$GPGSV,3,3,10,20,17,289,23,11,05,066,*7B
$GLGSV,3,1,09,65,51,274,40,75,47,331,36,72,35,202,34,74,30,041,25*6F
$GLGSV,3,2,09,84,27,069,18,85,25,125,38,66,15,329,23,76,14,277,21*6D
$GLGSV,3,3,09,83,03,022,*54
$BDGSV,2,1,06,214,38,232,25,212,28,154,32,205,45,140,,202,29,118,*6F
$BDGSV,2,2,06,208,26,065,,210,23,068,*6F
$GPGSA,A,3,05,07,13,15,17,19,20,28,30,,,,2.0,1.0,1.7*36
$GNGSA,A,3,05,07,13,15,17,19,20,28,30,,,,2.0,1.0,1.7*28
$GNGSA,A,3,65,66,72,75,76,84,85,,,,,,2.0,1.0,1.7*2D
$QZGSA,A,3,,,,,,,,,,,,,2.0,1.0,1.7*2B
$IMGSA,A,3,,,,,,,,,,,,,2.0,1.0,1.7*24
$BDGSA,A,3,,,,,,,,,,,,,2.0,1.0,1.7*26
$GPRMC,061803.00,A,3205.056596,N,03448.145145,E,000.7,021.2,170616,,,A*55
$GPGGA,061804.00,3205.056634,N,03448.145580,E,1,16,1.6,68.7,M,19.2,M,,*54
$GPGSV,3,1,10,28,67,024,35,13,57,319,38,30,42,064,27,17,41,144,36*74
$GPGSV,3,2,10,05,28,241,34,15,23,316,41,19,21,171,27,07,19,082,31*7C
$GPGSV,3,3,10,20,17,289,23,11,05,066,*7B
$GLGSV,3,1,09,65,51,274,39,75,47,331,36,72,35,202,35,74,30,041,25*60
$GLGSV,3,2,09,84,27,069,19,85,25,125,37,66,15,329,23,76,14,277,21*63
$GLGSV,3,3,09,83,03,022,*54
$BDGSV,2,1,06,214,38,232,24,212,28,154,32,205,45,140,,202,29,118,*6E
$BDGSV,2,2,06,208,26,065,,210,23,068,*6F
$GPGSA,A,3,05,07,13,15,17,19,20,28,30,,,,2.3,1.3,1.9*38
$GNGSA,A,3,05,07,13,15,17,19,20,28,30,,,,2.3,1.3,1.9*26
$GNGSA,A,3,65,66,72,75,76,84,85,,,,,,2.3,1.3,1.9*23
$QZGSA,A,3,,,,,,,,,,,,,2.3,1.3,1.9*25
$IMGSA,A,3,,,,,,,,,,,,,2.3,1.3,1.9*2A
$BDGSA,A,3,,,,,,,,,,,,,2.3,1.3,1.9*28
$GPRMC,061804.00,A,3205.056634,N,03448.145580,E,001.4,021.2,170616,,,A*56
$GPGGA,061805.00,3205.056269,N,03448.146455,E,1,16,1.6,67.9,M,19.2,M,,*52
$GPGSV,3,1,10,28,67,024,35,13,57,319,38,30,42,064,27,17,41,144,36*74
$GPGSV,3,2,10,05,28,241,34,15,23,316,40,19,21,171,27,07,19,082,31*7D
$GPGSV,3,3,10,20,17,289,23,11,05,066,*7B
$GLGSV,3,1,09,65,51,274,39,75,47,331,36,72,35,202,35,74,30,041,25*60
$GLGSV,3,2,09,84,27,069,19,85,25,125,37,66,15,329,22,76,14,277,24*67
$GLGSV,3,3,09,83,03,022,*54
$BDGSV,2,1,06,214,38,232,24,212,28,154,33,205,45,140,,202,29,118,*6F
$BDGSV,2,2,06,208,26,065,,210,23,068,*6F
$GPGSA,A,3,05,07,13,15,17,19,20,28,30,,,,2.3,1.3,1.9*38
$GNGSA,A,3,05,07,13,15,17,19,20,28,30,,,,2.3,1.3,1.9*26
$GNGSA,A,3,65,66,72,75,76,84,85,,,,,,2.3,1.3,1.9*23
$QZGSA,A,3,,,,,,,,,,,,,2.3,1.3,1.9*25
$IMGSA,A,3,,,,,,,,,,,,,2.3,1.3,1.9*2A
$BDGSA,A,3,,,,,,,,,,,,,2.3,1.3,1.9*28
$GPRMC,061805.00,A,3205.056269,N,03448.146455,E,001.5,236.9,170616,,,A*5F
$GPGGA,061806.00,3205.055296,N,03448.148109,E,1,16,1.6,67.1,M,19.2,M,,*58
$GPGSV,3,1,10,28,67,024,35,13,57,319,38,30,42,064,26,17,41,144,41*75
$GPGSV,3,2,10,05,28,241,34,15,23,316,40,19,21,171,26,07,19,082,30*7D
$GPGSV,3,3,10,20,17,289,23,11,05,066,*7B
$GLGSV,3,1,09,65,51,274,38,75,47,331,35,72,35,202,34,74,30,041,24*62
$GLGSV,3,2,09,84,27,069,20,85,25,125,36,66,15,329,22,76,14,277,23*6B
$GLGSV,3,3,09,83,03,022,*54
$BDGSV,2,1,06,214,38,232,24,212,28,154,38,205,45,140,,202,29,118,*64
$BDGSV,2,2,06,208,26,065,,210,23,068,*6F
$GPGSA,A,3,05,07,13,15,17,19,20,28,30,,,,2.3,1.3,1.9*38
$GNGSA,A,3,05,07,13,15,17,19,20,28,30,,,,2.3,1.3,1.9*26
$GNGSA,A,3,65,66,72,75,76,84,85,,,,,,2.3,1.3,1.9*23
$QZGSA,A,3,,,,,,,,,,,,,2.3,1.3,1.9*25
$IMGSA,A,3,,,,,,,,,,,,,2.3,1.3,1.9*2A
$BDGSA,A,3,,,,,,,,,,,,,2.3,1.3,1.9*28
$GPRMC,061806.00,A,3205.055296,N,03448.148109,E,001.5,236.9,170616,,,A*5D
$GPGGA,061807.00,3205.054108,N,03448.149765,E,1,16,1.2,66.3,M,19.2,M,,*56
$GPGSV,3,1,10,28,67,024,35,13,57,319,38,30,42,064,26,17,41,144,41*75
$GPGSV,3,2,10,05,28,241,33,15,23,316,39,19,21,171,26,07,19,082,30*74
$GPGSV,3,3,10,20,17,289,23,11,05,066,*7B
$GLGSV,3,1,09,65,51,274,37,75,47,331,35,72,35,202,35,74,30,041,27*6F
$GLGSV,3,2,09,84,27,069,22,85,25,125,36,66,15,329,22,76,14,277,23*69
$GLGSV,3,3,09,83,03,022,*54
$BDGSV,2,1,06,214,38,232,24,212,28,154,38,205,45,140,,202,29,118,*64
$BDGSV,2,2,06,208,26,065,,210,23,068,*6F
$GPGSA,A,3,05,07,13,15,17,19,20,28,30,,,,3.0,1.4,2.6*31
$GNGSA,A,3,05,07,13,15,17,19,20,28,30,,,,3.0,1.4,2.6*2F
$GNGSA,A,3,65,66,72,75,76,84,85,,,,,,3.0,1.4,2.6*2A
$QZGSA,A,3,,,,,,,,,,,,,3.0,1.4,2.6*2C
$IMGSA,A,3,,,,,,,,,,,,,3.0,1.4,2.6*23
$BDGSA,A,3,,,,,,,,,,,,,3.0,1.4,2.6*21
$GPRMC,061807.00,A,3205.054108,N,03448.149765,E,001.7,202.1,170616,,,A*59
$GPGGA,061808.00,3205.052451,N,03448.151361,E,1,16,1.2,65.4,M,19.2,M,,*5B
$GPGSV,3,1,10,28,67,024,35,13,57,319,37,30,42,064,29,17,41,144,41*75
$GPGSV,3,2,10,05,28,241,33,15,23,316,38,19,21,171,25,07,19,082,29*7E
$GPGSV,3,3,10,20,17,289,23,11,05,066,*7B
$GLGSV,3,1,09,65,51,274,36,75,47,331,35,72,35,202,40,74,30,041,27*6C
$GLGSV,3,2,09,84,27,069,25,85,25,125,36,66,15,329,21,76,14,277,22*6C
$GLGSV,3,3,09,83,03,022,*54
$BDGSV,2,1,06,214,38,232,23,212,28,154,39,205,45,140,,202,29,118,*62
$BDGSV,2,2,06,208,26,065,,210,23,068,*6F
$GPGSA,A,3,05,07,13,15,17,19,20,28,30,,,,2.3,1.2,1.9*39
$GNGSA,A,3,05,07,13,15,17,19,20,28,30,,,,2.3,1.2,1.9*27
$GNGSA,A,3,65,66,72,75,76,84,85,,,,,,2.3,1.2,1.9*22
$QZGSA,A,3,,,,,,,,,,,,,2.3,1.2,1.9*24
$IMGSA,A,3,,,,,,,,,,,,,2.3,1.2,1.9*2B
$BDGSA,A,3,,,,,,,,,,,,,2.3,1.2,1.9*29
$GPRMC,061808.00,A,3205.052451,N,03448.151361,E,001.8,202.9,170616,,,A*57
$GPGGA,061809.00,3205.050919,N,03448.152552,E,1,16,0.8,64.5,M,19.2,M,,*57
$GPGSV,3,1,10,28,67,024,35,13,57,319,37,30,42,064,39,17,41,144,40*75
$GPGSV,3,2,10,05,28,241,32,15,23,316,37,19,21,171,24,07,19,082,28*70
$GPGSV,3,3,10,20,17,289,23,11,05,066,*7B
$GLGSV,3,1,09,65,51,274,35,75,47,331,35,72,35,202,41,74,30,041,27*6E
$GLGSV,3,2,09,84,27,069,25,85,25,125,36,66,15,329,21,76,14,277,22*6C
$GLGSV,3,3,09,83,03,022,*54
$BDGSV,2,1,06,214,38,232,28,212,28,154,39,205,45,140,,202,29,118,*69
$BDGSV,2,2,06,208,26,065,,210,23,068,*6F
$GPGSA,A,3,05,07,13,15,17,19,20,28,30,,,,2.8,1.8,2.1*33
$GNGSA,A,3,05,07,13,15,17,19,20,28,30,,,,2.8,1.8,2.1*2D
$GNGSA,A,3,65,66,72,75,76,84,85,,,,,,2.8,1.8,2.1*28
$QZGSA,A,3,,,,,,,,,,,,,2.8,1.8,2.1*2E
$IMGSA,A,3,,,,,,,,,,,,,2.8,1.8,2.1*21
$BDGSA,A,3,,,,,,,,,,,,,2.8,1.8,2.1*23
$GPRMC,061809.00,A,3205.050919,N,03448.152552,E,002.0,196.3,170616,,,A*5F
$GPGGA,061810.00,3205.049615,N,03448.153458,E,1,16,0.8,63.6,M,19.2,M,,*5A
$GPGSV,3,1,10,28,67,024,35,13,57,319,36,30,42,064,39,17,41,144,40*74
$GPGSV,3,2,10,05,28,241,32,15,23,316,36,19,21,171,24,07,19,082,28*71
$GPGSV,3,3,10,20,17,289,23,11,05,066,*7B
$GLGSV,3,1,09,65,51,274,34,75,47,331,34,72,35,202,40,74,30,041,29*61
$GLGSV,3,2,09,84,27,069,25,85,25,125,39,66,15,329,21,76,14,277,22*63
$GLGSV,3,3,09,83,03,022,*54
$BDGSV,2,1,06,214,38,232,31,212,28,154,38,205,45,140,,202,29,118,*60
$BDGSV,2,2,06,208,26,065,,210,23,068,*6F
$GPGSA,A,3,05,07,13,15,17,19,20,28,30,,,,2.8,1.8,2.1*33
$GNGSA,A,3,05,07,13,15,17,19,20,28,30,,,,2.8,1.8,2.1*2D
$GNGSA,A,3,65,66,72,75,76,84,85,,,,,,2.8,1.8,2.1*28
$QZGSA,A,3,,,,,,,,,,,,,2.8,1.8,2.1*2E
$IMGSA,A,3,,,,,,,,,,,,,2.8,1.8,2.1*21
$BDGSA,A,3,,,,,,,,,,,,,2.8,1.8,2.1*23
$GPRMC,061810.00,A,3205.049615,N,03448.153458,E,002.2,189.1,170616,,,A*58
$GPGGA,061811.00,3205.047042,N,03448.154431,E,1,16,0.8,62.7,M,19.2,M,,*59
$GPGSV,3,1,10,28,67,024,35,13,57,319,36,30,42,064,38,17,41,144,41*74
$GPGSV,3,2,10,05,28,241,31,15,23,316,36,19,21,171,23,07,19,082,27*7A
$GPGSV,3,3,10,20,17,289,23,11,05,066,*7B
$GLGSV,3,1,09,65,51,274,33,75,47,331,34,72,35,201,40,74,30,041,30*6D
$GLGSV,3,2,09,84,27,068,24,85,25,125,42,66,15,329,23,76,14,277,21*6E
$GLGSV,3,3,09,83,03,022,*54
$BDGSV,2,1,06,214,38,232,31,212,28,154,37,205,45,140,,202,29,118,*6F
$BDGSV,2,2,06,208,26,065,,210,23,068,*6F
$GPGSA,A,3,05,07,13,15,17,19,20,28,30,,,,2.5,1.4,2.1*32
$GNGSA,A,3,05,07,13,15,17,19,20,28,30,,,,2.5,1.4,2.1*2C
$GNGSA,A,3,65,66,72,75,76,84,85,,,,,,2.5,1.4,2.1*29
$QZGSA,A,3,,,,,,,,,,,,,2.5,1.4,2.1*2F
$IMGSA,A,3,,,,,,,,,,,,,2.5,1.4,2.1*20
$BDGSA,A,3,,,,,,,,,,,,,2.5,1.4,2.1*22
$GPRMC,061811.00,A,3205.047042,N,03448.154431,E,002.4,181.2,170616,,,A*56
$GPGGA,061812.00,3205.045620,N,03448.155455,E,1,16,0.8,61.9,M,19.2,M,,*54
$GPGSV,3,1,10,28,67,024,36,13,57,319,36,30,42,064,37,17,41,144,40*79
$GPGSV,3,2,10,05,28,241,31,15,23,316,36,19,21,171,23,07,19,082,26*7B
$GPGSV,3,3,10,20,17,289,23,11,05,066,*7B
$GLGSV,3,1,09,65,51,274,32,75,47,331,34,72,35,201,39,74,30,041,30*62
$GLGSV,3,2,09,84,27,068,23,85,25,125,42,66,15,329,23,76,14,277,21*69
$GLGSV,3,3,09,83,03,022,*54
$BDGSV,2,1,06,214,38,232,30,212,28,154,36,205,45,140,,202,29,118,*6F
$BDGSV,2,2,06,208,26,065,,210,23,068,*6F
$GPGSA,A,3,05,07,13,15,17,19,20,28,30,,,,2.8,1.8,2.1*33
$GNGSA,A,3,05,07,13,15,17,19,20,28,30,,,,2.8,1.8,2.1*2D
$GNGSA,A,3,65,66,72,75,76,84,85,,,,,,2.8,1.8,2.1*28
$QZGSA,A,3,,,,,,,,,,,,,2.8,1.8,2.1*2E
$IMGSA,A,3,,,,,,,,,,,,,2.8,1.8,2.1*21
$BDGSA,A,3,,,,,,,,,,,,,2.8,1.8,2.1*23
$GPRMC,061812.00,A,3205.045620,N,03448.155455,E,002.4,179.4,170616,,,A*57
$GPGGA,061813.00,3205.044252,N,03448.156513,E,1,16,0.6,61.2,M,19.2,M,,*50
$GPGSV,3,1,10,28,67,024,37,13,57,319,36,30,42,064,36,17,41,144,40*79
$GPGSV,3,2,10,05,28,241,30,15,23,316,36,19,21,171,23,07,19,082,26*7A
$GPGSV,3,3,10,20,17,289,25,11,05,066,*7D
$GLGSV,3,1,09,65,51,274,31,75,47,331,34,72,35,201,39,74,30,041,30*61
$GLGSV,3,2,09,84,27,068,23,85,25,125,42,66,15,329,23,76,14,277,20*68
$GLGSV,3,3,09,83,03,022,*54
$BDGSV,2,1,06,214,38,232,30,212,28,154,36,205,45,140,,202,29,118,*6F
$BDGSV,2,2,06,208,26,065,,210,23,068,*6F
$GPGSA,A,3,05,07,13,15,17,19,20,28,30,,,,2.5,1.4,2.1*32
$GNGSA,A,3,05,07,13,15,17,19,20,28,30,,,,2.5,1.4,2.1*2C
$GNGSA,A,3,65,66,72,75,76,84,85,,,,,,2.5,1.4,2.1*29
$QZGSA,A,3,,,,,,,,,,,,,2.5,1.4,2.1*2F
$IMGSA,A,3,,,,,,,,,,,,,2.5,1.4,2.1*20
$BDGSA,A,3,,,,,,,,,,,,,2.5,1.4,2.1*22
$GPRMC,061813.00,A,3205.044252,N,03448.156513,E,002.5,174.8,170616,,,A*56
$GPGGA,061814.00,3205.043151,N,03448.157505,E,1,16,0.6,60.5,M,19.2,M,,*50
$GPGSV,3,1,10,28,67,024,37,13,57,319,36,30,42,064,35,17,41,144,40*7A
$GPGSV,3,2,10,05,28,241,31,15,23,316,36,19,21,171,23,07,19,082,26*7B
$GPGSV,3,3,10,20,17,289,25,11,05,066,*7D
$GLGSV,3,1,09,65,51,274,30,75,47,331,34,72,35,201,38,74,30,041,30*61
$GLGSV,3,2,09,84,27,068,22,85,25,125,42,66,15,329,23,76,14,277,20*69
$GLGSV,3,3,09,83,02,022,*55
$BDGSV,2,1,06,214,38,232,30,212,28,154,35,205,45,140,,202,29,118,*6C
$BDGSV,2,2,06,208,26,065,,210,23,068,*6F
$GPGSA,A,3,05,07,13,15,17,19,20,28,30,,,,2.5,1.4,2.1*32
$GNGSA,A,3,05,07,13,15,17,19,20,28,30,,,,2.5,1.4,2.1*2C
$GNGSA,A,3,65,66,72,75,76,84,85,,,,,,2.5,1.4,2.1*29
$QZGSA,A,3,,,,,,,,,,,,,2.5,1.4,2.1*2F
$IMGSA,A,3,,,,,,,,,,,,,2.5,1.4,2.1*20
$BDGSA,A,3,,,,,,,,,,,,,2.5,1.4,2.1*22
$GPRMC,061814.00,A,3205.043151,N,03448.157505,E,002.5,171.8,170616,,,A*55
$GPGGA,061815.00,3205.042155,N,03448.158427,E,1,16,0.6,59.8,M,19.2,M,,*5D
$GPGSV,3,1,10,28,67,024,38,13,57,319,35,30,42,064,34,17,41,144,40*77
$GPGSV,3,2,10,05,28,241,31,15,23,316,35,19,21,171,23,07,19,082,26*78
$GPGSV,3,3,10,20,17,289,24,11,05,066,*7C
$GLGSV,3,1,09,65,51,274,29,75,47,331,34,72,35,201,37,74,30,041,30*66
$GLGSV,3,2,09,84,27,068,21,85,25,125,43,66,15,329,22,76,14,277,20*6A
$GLGSV,3,3,09,83,02,022,*55
$BDGSV,2,1,06,214,38,232,29,212,28,154,34,205,45,140,,202,29,118,*65
$BDGSV,2,2,06,208,26,065,,210,23,068,*6F
$GPGSA,A,3,05,07,13,15,17,19,20,28,30,,,,2.5,1.4,2.1*32
$GNGSA,A,3,05,07,13,15,17,19,20,28,30,,,,2.5,1.4,2.1*2C
$GNGSA,A,3,65,66,72,75,76,84,85,,,,,,2.5,1.4,2.1*29
$QZGSA,A,3,,,,,,,,,,,,,2.5,1.4,2.1*2F
$IMGSA,A,3,,,,,,,,,,,,,2.5,1.4,2.1*20
$BDGSA,A,3,,,,,,,,,,,,,2.5,1.4,2.1*22
$GPRMC,061815.00,A,3205.042155,N,03448.158427,E,002.5,171.2,170616,,,A*55
$GPGGA,061816.00,3205.041290,N,03448.159181,E,1,16,0.8,59.1,M,19.2,M,,*58
$GPGSV,3,1,10,28,67,024,37,13,57,319,35,30,42,064,33,17,41,144,39*71
$GPGSV,3,2,10,05,28,241,31,15,23,316,35,19,21,171,22,07,19,082,25*7A
$GPGSV,3,3,10,20,17,289,24,11,05,066,*7C
$GLGSV,3,1,09,65,51,274,29,75,47,331,34,72,35,201,36,74,30,041,30*67
$GLGSV,3,2,09,84,27,068,21,85,25,125,42,66,15,329,23,76,14,277,20*6A
$GLGSV,3,3,09,83,02,022,*55
$BDGSV,2,1,06,214,38,232,29,212,28,154,33,205,45,140,,202,29,118,*62
$BDGSV,2,2,06,208,26,065,,210,23,068,*6F
$GPGSA,A,3,05,07,13,15,17,19,20,28,30,,,,3.1,1.5,2.7*30
$GNGSA,A,3,05,07,13,15,17,19,20,28,30,,,,3.1,1.5,2.7*2E
$GNGSA,A,3,65,66,72,75,76,84,85,,,,,,3.1,1.5,2.7*2B
$QZGSA,A,3,,,,,,,,,,,,,3.1,1.5,2.7*2D
$IMGSA,A,3,,,,,,,,,,,,,3.1,1.5,2.7*22
$BDGSA,A,3,,,,,,,,,,,,,3.1,1.5,2.7*20
$GPRMC,061816.00,A,3205.041290,N,03448.159181,E,002.6,180.9,170616,,,A*51
$GPGGA,061817.00,3205.040496,N,03448.159765,E,1,16,2.4,58.4,M,19.2,M,,*5E
$GPGSV,3,1,10,28,67,024,37,13,57,319,34,30,42,064,31,17,41,144,39*72
$GPGSV,3,2,10,05,28,241,30,15,23,316,34,19,21,171,21,07,19,082,25*79
$GPGSV,3,3,10,20,17,289,24,11,05,066,*7C
$GLGSV,3,1,09,65,51,274,28,75,47,331,33,72,35,201,35,74,30,041,29*6A
$GLGSV,3,2,09,84,27,068,20,85,25,125,41,66,15,329,23,76,14,277,19*62
$GLGSV,3,3,09,83,02,022,*55
$BDGSV,2,1,06,214,38,232,28,212,28,154,32,205,45,140,,202,29,118,*62
$BDGSV,2,2,06,208,26,065,,210,23,068,*6F
$GPGSA,A,3,05,07,13,15,17,19,20,28,30,,,,2.3,1.1,2.0*30
$GNGSA,A,3,05,07,13,15,17,19,20,28,30,,,,2.3,1.1,2.0*2E
$GNGSA,A,3,65,66,72,75,76,84,85,,,,,,2.3,1.1,2.0*2B
$QZGSA,A,3,,,,,,,,,,,,,2.3,1.1,2.0*2D
$IMGSA,A,3,,,,,,,,,,,,,2.3,1.1,2.0*22
$BDGSA,A,3,,,,,,,,,,,,,2.3,1.1,2.0*20
$GPRMC,061817.00,A,3205.040496,N,03448.159765,E,002.6,188.1,170616,,,A*5D
$GPGGA,061818.00,3205.039744,N,03448.160391,E,1,16,2.4,57.7,M,19.2,M,,*5A
$GPGSV,3,1,10,28,67,024,36,13,57,319,33,30,42,064,30,17,41,144,38*74
$GPGSV,3,2,10,05,28,241,30,15,23,316,33,19,21,171,21,07,19,082,24*7F
$GPGSV,3,3,10,20,17,289,23,11,05,066,*7B
$GLGSV,3,1,09,65,51,274,27,75,47,331,34,72,35,201,34,74,30,041,31*6A
$GLGSV,3,2,09,84,27,068,19,85,25,125,40,66,15,329,24,76,14,277,19*6E
$GLGSV,3,3,09,83,02,022,*55
$BDGSV,2,1,06,214,38,232,33,212,28,154,31,205,45,140,,202,29,118,*6B
$BDGSV,2,2,06,208,26,065,,210,23,068,*6F
$GPGSA,A,3,05,07,13,15,17,19,20,28,30,,,,2.3,1.1,2.0*30
$GNGSA,A,3,05,07,13,15,17,19,20,28,30,,,,2.3,1.1,2.0*2E
$GNGSA,A,3,65,66,72,75,76,84,85,,,,,,2.3,1.1,2.0*2B
$QZGSA,A,3,,,,,,,,,,,,,2.3,1.1,2.0*2D
$IMGSA,A,3,,,,,,,,,,,,,2.3,1.1,2.0*22
$BDGSA,A,3,,,,,,,,,,,,,2.3,1.1,2.0*20
$GPRMC,061818.00,A,3205.039744,N,03448.160391,E,002.6,175.0,170616,,,A*56
$GPGGA,061819.00,3205.038994,N,03448.160950,E,1,16,2.4,57.1,M,19.2,M,,*58
$GPGSV,3,1,10,28,67,024,37,13,57,319,33,30,42,064,30,17,41,144,38*75
$GPGSV,3,2,10,05,28,241,30,15,23,316,32,19,21,171,23,07,19,082,24*7C
$GPGSV,3,3,10,20,17,289,23,11,05,066,*7B
$GLGSV,3,1,09,65,51,274,26,75,47,331,35,72,35,201,34,74,30,041,31*6A
$GLGSV,3,2,09,84,27,068,20,85,25,125,39,66,15,329,23,76,14,277,19*6D
$GLGSV,3,3,09,83,02,022,*55
$BDGSV,2,1,06,214,38,232,35,212,28,154,31,205,45,140,,202,29,118,*6D
$BDGSV,2,2,06,208,26,065,,210,23,068,*6F
$GPGSA,A,3,05,07,13,15,17,19,20,28,30,,,,3.3,1.9,2.8*31
$GNGSA,A,3,05,07,13,15,17,19,20,28,30,,,,3.3,1.9,2.8*2F
$GNGSA,A,3,65,66,72,75,76,84,85,,,,,,3.3,1.9,2.8*2A
$QZGSA,A,3,,,,,,,,,,,,,3.3,1.9,2.8*2C
$IMGSA,A,3,,,,,,,,,,,,,3.3,1.9,2.8*23
$BDGSA,A,3,,,,,,,,,,,,,3.3,1.9,2.8*21
$GPRMC,061819.00,A,3205.038994,N,03448.160950,E,002.6,181.2,170616,,,A*5B
$GPGGA,061820.00,3205.038141,N,03448.161237,E,1,16,2.4,56.3,M,19.2,M,,*5A
$GPGSV,3,1,10,28,67,024,38,13,57,319,33,30,42,064,29,17,41,144,37*7D
$GPGSV,3,2,10,05,28,241,29,15,23,316,32,19,21,171,25,07,19,082,24*72
$GPGSV,3,3,10,20,17,289,23,11,05,066,*7B
$GLGSV,3,1,09,65,51,274,26,75,47,331,36,72,35,201,34,74,30,041,31*69
$GLGSV,3,2,09,84,27,068,20,85,25,125,38,66,15,329,23,76,14,277,19*6C
$GLGSV,3,3,09,83,02,022,*55
$BDGSV,2,1,06,214,38,232,35,212,28,154,30,205,45,140,,202,29,118,*6C
$BDGSV,2,2,06,208,26,065,,210,23,068,*6F
$GPGSA,A,3,05,07,13,15,17,19,20,28,30,,,,4.6,3.7,2.8*3F
$GNGSA,A,3,05,07,13,15,17,19,20,28,30,,,,4.6,3.7,2.8*21
$GNGSA,A,3,65,66,72,75,76,84,85,,,,,,4.6,3.7,2.8*24
$QZGSA,A,3,,,,,,,,,,,,,4.6,3.7,2.8*22
$IMGSA,A,3,,,,,,,,,,,,,4.6,3.7,2.8*2D
$BDGSA,A,3,,,,,,,,,,,,,4.6,3.7,2.8*2F
$GPRMC,061820.00,A,3205.038141,N,03448.161237,E,002.6,194.1,170616,,,A*5D
$GPGGA,061821.00,3205.037319,N,03448.161718,E,1,16,1.6,55.7,M,19.2,M,,*55
$GPGSV,3,1,10,28,67,024,38,13,57,319,32,30,42,064,28,17,41,144,37*7D
$GPGSV,3,2,10,05,28,241,29,15,23,316,36,19,21,171,25,07,19,082,24*76
$GPGSV,3,3,10,20,17,289,25,11,05,066,*7D
$GLGSV,3,1,09,65,51,274,25,75,47,331,36,72,35,201,33,74,30,041,31*6D
$GLGSV,3,2,09,84,27,068,20,85,25,125,38,66,15,329,23,76,14,277,18*6D
$GLGSV,3,3,09,83,02,022,*55
$BDGSV,2,1,06,214,38,232,36,212,28,154,30,205,45,140,,202,29,118,*6F
$BDGSV,2,2,06,208,26,065,,210,23,068,*6F
$GPGSA,A,3,05,07,13,15,17,19,20,28,30,,,,2.5,1.4,2.1*32
$GNGSA,A,3,05,07,13,15,17,19,20,28,30,,,,2.5,1.4,2.1*2C
$GNGSA,A,3,65,66,72,75,76,84,85,,,,,,2.5,1.4,2.1*29
$QZGSA,A,3,,,,,,,,,,,,,2.5,1.4,2.1*2F
$IMGSA,A,3,,,,,,,,,,,,,2.5,1.4,2.1*20
$BDGSA,A,3,,,,,,,,,,,,,2.5,1.4,2.1*22
$GPRMC,061821.00,A,3205.037319,N,03448.161718,E,002.6,182.0,170616,,,A*52
$GPGGA,061822.00,3205.036341,N,03448.162028,E,1,16,2.4,55.0,M,19.2,M,,*5B
$GPGSV,3,1,10,28,67,024,38,13,57,319,32,30,42,064,28,17,41,144,37*7D
$GPGSV,3,2,10,05,28,241,29,15,23,316,36,19,21,171,25,07,19,082,24*76
$GPGSV,3,3,10,20,17,289,26,11,05,066,*7E
$GLGSV,3,1,09,65,51,274,25,75,47,331,35,72,35,201,33,74,30,041,30*6F
$GLGSV,3,2,09,84,27,068,20,85,25,125,38,66,15,329,23,76,14,277,18*6D
$GLGSV,3,3,09,83,02,022,*55
$BDGSV,2,1,06,214,38,232,36,212,28,154,29,205,45,140,,202,29,118,*67
$BDGSV,2,2,06,208,26,065,,210,23,068,*6F
$GPGSA,A,3,05,07,13,15,17,19,20,28,30,,,,2.2,1.3,1.8*38
$GNGSA,A,3,05,07,13,15,17,19,20,28,30,,,,2.2,1.3,1.8*26
$GNGSA,A,3,65,66,72,75,76,84,85,,,,,,2.2,1.3,1.8*23
$QZGSA,A,3,,,,,,,,,,,,,2.2,1.3,1.8*25
$IMGSA,A,3,,,,,,,,,,,,,2.2,1.3,1.8*2A
$BDGSA,A,3,,,,,,,,,,,,,2.2,1.3,1.8*28
$GPRMC,061822.00,A,3205.036341,N,03448.162028,E,002.6,195.0,170616,,,A*5C
$GPGGA,061823.00,3205.035345,N,03448.162489,E,1,16,0.8,54.4,M,19.2,M,,*59
$GPGSV,3,1,10,28,67,024,38,13,57,319,33,30,42,064,27,17,41,144,38*7C
$GPGSV,3,2,10,05,28,241,29,15,23,316,36,19,21,171,24,07,19,082,25*76
$GPGSV,3,3,10,20,17,289,31,11,05,066,*78
$GLGSV,3,1,09,65,51,274,25,75,47,331,35,72,35,201,32,74,30,041,30*6E
$GLGSV,3,2,09,84,27,068,20,85,25,125,37,66,15,329,23,76,14,277,18*62
$GLGSV,3,3,09,83,02,022,*55
$BDGSV,2,1,06,214,38,232,36,212,28,154,28,205,45,140,,202,29,118,*66
$BDGSV,2,2,06,208,26,065,,210,23,068,*6F
$GPGSA,A,3,05,07,13,15,17,19,20,28,30,,,,2.8,1.6,2.3*3F
$GNGSA,A,3,05,07,13,15,17,19,20,28,30,,,,2.8,1.6,2.3*21
$GNGSA,A,3,65,66,72,75,76,84,85,,,,,,2.8,1.6,2.3*24
$QZGSA,A,3,,,,,,,,,,,,,2.8,1.6,2.3*22
$IMGSA,A,3,,,,,,,,,,,,,2.8,1.6,2.3*2D
$BDGSA,A,3,,,,,,,,,,,,,2.8,1.6,2.3*2F
$GPRMC,061823.00,A,3205.035345,N,03448.162489,E,002.6,188.7,170616,,,A*5E
$GPGGA,061824.00,3205.034479,N,03448.163112,E,1,16,1.6,53.8,M,19.2,M,,*55
$GPGSV,3,1,10,28,67,024,41,13,57,319,34,30,42,064,27,17,41,144,38*75
$GPGSV,3,2,10,05,28,241,29,15,23,316,35,19,21,171,24,07,19,082,28*78
$GPGSV,3,3,10,20,17,289,34,11,05,066,*7D
$GLGSV,3,1,09,65,51,274,26,75,47,331,34,72,35,201,32,74,30,041,30*6C
$GLGSV,3,2,09,84,27,068,20,85,25,125,37,66,15,329,23,76,14,277,18*62
$GLGSV,3,3,09,83,02,022,*55
$BDGSV,2,1,06,214,38,232,36,212,28,154,28,205,45,140,,202,29,118,*66
$BDGSV,2,2,06,208,26,065,,210,23,068,*6F
$GPGSA,A,3,05,07,13,15,17,19,20,28,30,,,,2.7,1.5,2.2*32
$GNGSA,A,3,05,07,13,15,17,19,20,28,30,,,,2.7,1.5,2.2*2C
$GNGSA,A,3,65,66,72,75,76,84,85,,,,,,2.7,1.5,2.2*29
$QZGSA,A,3,,,,,,,,,,,,,2.7,1.5,2.2*2F
$IMGSA,A,3,,,,,,,,,,,,,2.7,1.5,2.2*20
$BDGSA,A,3,,,,,,,,,,,,,2.7,1.5,2.2*22
$GPRMC,061824.00,A,3205.034479,N,03448.163112,E,002.6,186.2,170616,,,A*5D
$GPGGA,061825.00,3205.033629,N,03448.163598,E,1,16,1.6,53.1,M,19.2,M,,*5B
$GPGSV,3,1,10,28,67,024,41,13,57,319,35,30,42,064,28,17,41,144,38*7B
$GPGSV,3,2,10,05,28,241,30,15,23,316,35,19,21,171,24,07,19,082,28*70
$GPGSV,3,3,10,20,17,289,34,11,05,066,*7D
$GLGSV,3,1,09,65,51,274,26,75,47,331,33,72,35,201,32,74,30,041,29*63
$GLGSV,3,2,09,84,27,068,19,85,25,125,37,66,15,329,23,76,14,277,17*67
$GLGSV,3,3,09,83,02,022,*55
$BDGSV,2,1,06,214,38,232,36,212,28,154,28,205,45,140,,202,29,118,*66
$BDGSV,2,2,06,208,26,065,,210,23,068,*6F
$GPGSA,A,3,05,07,13,15,17,19,20,28,30,,,,2.5,1.5,2.0*32
$GNGSA,A,3,05,07,13,15,17,19,20,28,30,,,,2.5,1.5,2.0*2C
$GNGSA,A,3,65,66,72,75,76,84,85,,,,,,2.5,1.5,2.0*29
$QZGSA,A,3,,,,,,,,,,,,,2.5,1.5,2.0*2F
$IMGSA,A,3,,,,,,,,,,,,,2.5,1.5,2.0*20
$BDGSA,A,3,,,,,,,,,,,,,2.5,1.5,2.0*22
$GPRMC,061825.00,A,3205.033629,N,03448.163598,E,002.6,199.3,170616,,,A*55
$GPGGA,061826.00,3205.033077,N,03448.164027,E,1,16,3.2,52.5,M,19.2,M,,*50
$GPGSV,3,1,10,28,67,024,41,13,57,319,34,30,42,064,28,17,41,144,37*75
$GPGSV,3,2,10,05,28,241,32,15,23,316,34,19,21,171,23,07,19,083,28*75
$GPGSV,3,3,10,20,17,289,34,11,05,066,*7D
$GLGSV,3,1,09,65,51,274,26,75,47,332,33,72,35,201,33,74,30,041,29*61
$GLGSV,3,2,09,84,27,068,19,85,25,125,37,66,15,329,22,76,14,277,17*66
$GLGSV,3,3,09,83,02,022,*55
$BDGSV,2,1,06,214,38,232,37,212,28,154,28,205,45,140,,202,29,118,*67
$BDGSV,2,2,06,208,26,065,,210,23,068,*6F
$GPGSA,A,3,05,07,13,15,17,19,20,28,30,,,,2.8,1.5,2.4*3B
$GNGSA,A,3,05,07,13,15,17,19,20,28,30,,,,2.8,1.5,2.4*25
$GNGSA,A,3,65,66,72,75,76,84,85,,,,,,2.8,1.5,2.4*20
$QZGSA,A,3,,,,,,,,,,,,,2.8,1.5,2.4*26
$IMGSA,A,3,,,,,,,,,,,,,2.8,1.5,2.4*29
$BDGSA,A,3,,,,,,,,,,,,,2.8,1.5,2.4*2B
$GPRMC,061826.00,A,3205.033077,N,03448.164027,E,002.6,204.8,170616,,,A*51
$GPGGA,061827.00,3205.032580,N,03448.164233,E,1,16,3.2,51.9,M,19.2,M,,*55
$GPGSV,3,1,10,28,67,024,41,13,57,319,34,30,42,064,29,17,41,144,36*75
$GPGSV,3,2,10,05,28,241,34,15,23,316,34,19,21,171,23,07,19,083,28*73
$GPGSV,3,3,10,20,17,289,33,11,05,066,*7A
$GLGSV,3,1,09,65,51,274,26,75,47,332,32,72,35,201,36,74,30,041,36*6B
$GLGSV,3,2,09,84,27,068,19,85,25,125,37,66,15,329,22,76,14,277,17*66
$GLGSV,3,3,09,83,02,022,*55
$BDGSV,2,1,06,214,38,232,37,212,28,154,27,205,45,140,,202,29,118,*68
$BDGSV,2,2,06,208,26,065,,210,23,068,*6F
$GPGSA,A,3,05,07,13,15,17,19,20,28,30,,,,2.2,1.1,1.9*3B
$GNGSA,A,3,05,07,13,15,17,19,20,28,30,,,,2.2,1.1,1.9*25
$GNGSA,A,3,65,66,72,75,76,84,85,,,,,,2.2,1.1,1.9*20
$QZGSA,A,3,,,,,,,,,,,,,2.2,1.1,1.9*26
$IMGSA,A,3,,,,,,,,,,,,,2.2,1.1,1.9*29
$BDGSA,A,3,,,,,,,,,,,,,2.2,1.1,1.9*2B
$GPRMC,061827.00,A,3205.032580,N,03448.164233,E,002.5,203.3,170616,,,A*54
$GPGGA,061828.00,3205.032081,N,03448.164596,E,1,16,3.2,51.4,M,19.2,M,,*5B
$GPGSV,3,1,10,28,67,024,40,13,57,319,34,30,42,064,30,17,41,144,36*7C
$GPGSV,3,2,10,05,28,241,35,15,23,316,33,19,21,171,23,07,19,083,30*7C
$GPGSV,3,3,10,20,17,289,32,11,05,066,*7B
$GLGSV,3,1,09,65,51,274,27,75,47,332,31,72,35,201,35,74,30,041,36*6A
$GLGSV,3,2,09,84,27,068,21,85,25,125,36,66,15,329,22,76,14,277,17*6C
$GLGSV,3,3,09,83,02,022,*55
$BDGSV,2,1,06,214,38,232,37,212,28,154,27,205,45,140,,202,29,118,*68
$BDGSV,2,2,06,208,26,065,,210,23,068,*6F
$GPGSA,A,3,05,07,13,15,17,19,20,28,30,,,,2.4,1.3,2.0*35
$GNGSA,A,3,05,07,13,15,17,19,20,28,30,,,,2.4,1.3,2.0*2B
$GNGSA,A,3,65,66,72,75,76,84,85,,,,,,2.4,1.3,2.0*2E
$QZGSA,A,3,,,,,,,,,,,,,2.4,1.3,2.0*28
$IMGSA,A,3,,,,,,,,,,,,,2.4,1.3,2.0*27
$BDGSA,A,3,,,,,,,,,,,,,2.4,1.3,2.0*25
$GPRMC,061828.00,A,3205.032081,N,03448.164596,E,002.5,184.8,170616,,,A*50
$GPGGA,061829.00,3205.031652,N,03448.164559,E,1,16,4.8,50.9,M,19.2,M,,*53
$GPGSV,3,1,10,28,67,024,39,13,57,319,34,30,42,064,30,17,41,144,35*71
$GPGSV,3,2,10,05,28,241,35,15,23,316,33,19,21,171,23,07,19,083,30*7C
$GPGSV,3,3,10,20,17,289,32,11,05,066,*7B
$GLGSV,3,1,09,65,51,274,29,75,47,332,30,72,35,201,35,74,30,041,36*65
$GLGSV,3,2,09,84,27,068,22,85,25,125,36,66,15,329,22,76,14,277,17*6F
$GLGSV,3,3,09,83,02,022,*55
$BDGSV,2,1,06,214,38,232,37,212,28,154,27,205,45,140,,202,29,118,*68
$BDGSV,2,2,06,208,26,065,,210,23,068,*6F
$GPGSA,A,3,05,07,13,15,17,19,20,28,30,,,,2.3,1.2,2.0*33
