SiRFLive Version: SiRFLive 2.06P1 Marketing
Tuesday, August 9, 2016
PC: ROI_KCG
Physical Connection: UART

DUT Name: SiRF_EVK
08/09/2016 10:35:01.258	(255)	Cannot process message $GNGSA,A,3,,,,,,,,,,,,,1.5,0.9,1.3*23
08/09/2016 10:35:01.213	(1)	$PSRF125*21
$GPRMC,073502.000,A,3205.01515,N,03448.14519,E,1.0,159.4,090816,,A*48
$GPGGA,073502.000,3205.01515,N,03448.14519,E,1,13,0.9,067.04,M,17.1,M,,*61
$GNGSA,A,3,25,24,12,02,29,32,06,,,,,,1.5,0.9,1.3*2F
$GNGSA,A,3,75,74,84,85,73,83,,,,,,,1.5,0.9,1.3*2C
$GNGSA,A,3,,,,,,,,,,,,,1.5,0.9,1.3*23
$GPGSV,3,1,10,02,59,088,35,06,28,047,28,12,61,006,38,14,06,312,*7D
$GPGSV,3,2,10,19,09,050,17,24,56,178,28,25,37,316,28,29,36,253,40*79
$GPGSV,3,3,10,32,11,292,23,33,24,246,,,,,,,,,*77
$GLGSV,2,1,06,74,77,028,38,73,38,132,35,75,29,331,26,84,63,009,35*61
$GLGSV,2,2,06,83,11,032,23,85,54,240,41,,,,,,,,*67
08/09/2016 10:35:02.235	(255)	Cannot process message $GNGSA,A,3,,,,,,,,,,,,,1.5,0.9,1.3*23
$GPRMC,073503.000,A,3205.01522,N,03448.14544,E,1.0,86.1,090816,,A*73
$GPGGA,073503.000,3205.01522,N,03448.14544,E,1,13,0.9,067.63,M,17.1,M,,*6D
$GNGSA,A,3,25,24,12,02,29,32,06,,,,,,1.5,0.9,1.3*2F
$GNGSA,A,3,75,74,84,85,73,83,,,,,,,1.5,0.9,1.3*2C
$GNGSA,A,3,,,,,,,,,,,,,1.5,0.9,1.3*23
$GPGSV,3,1,10,02,59,088,34,06,28,047,28,12,61,006,37,14,06,312,*73
$GPGSV,3,2,10,19,09,050,17,24,56,178,28,25,37,316,28,29,36,254,38*71
$GPGSV,3,3,10,32,11,292,23,33,24,246,,,,,,,,,*77
$GLGSV,2,1,06,74,77,030,39,73,38,132,34,75,29,331,26,84,63,009,35*68
$GLGSV,2,2,06,83,11,032,24,85,54,240,41,,,,,,,,*60
08/09/2016 10:35:03.205	(255)	Cannot process message $GNGSA,A,3,,,,,,,,,,,,,1.5,0.9,1.3*23
$GPRMC,073504.000,A,3205.01538,N,03448.14570,E,1.4,66.8,090816,,A*7B
$GPGGA,073504.000,3205.01538,N,03448.14570,E,1,13,0.9,067.98,M,17.1,M,,*62
$GNGSA,A,3,25,24,12,02,29,32,06,,,,,,1.5,0.9,1.3*2F
$GNGSA,A,3,75,74,84,85,73,83,,,,,,,1.5,0.9,1.3*2C
$GNGSA,A,3,,,,,,,,,,,,,1.5,0.9,1.3*23
$GPGSV,3,1,10,02,59,088,35,06,28,047,27,12,61,006,37,14,06,312,*7D
$GPGSV,3,2,10,19,09,050,17,24,56,178,28,25,37,316,28,29,36,254,37*7E
$GPGSV,3,3,10,32,11,292,23,33,24,246,30,,,,,,,,*74
$GLGSV,2,1,06,74,77,030,38,73,38,132,34,75,29,331,30,84,63,009,35*6E
$GLGSV,2,2,06,83,11,032,24,85,54,240,41,,,,,,,,*60
08/09/2016 10:35:04.228	(255)	Cannot process message $GNGSA,A,3,,,,,,,,,,,,,1.7,0.9,1.5*27
$GPRMC,073505.000,A,3205.01576,N,03448.14612,E,1.7,62.1,090816,,A*79
$GPGGA,073505.000,3205.01576,N,03448.14612,E,1,12,0.9,068.15,M,17.1,M,,*65
$GNGSA,A,3,25,24,12,02,29,32,06,,,,,,1.7,0.9,1.5*2B
$GNGSA,A,3,75,74,84,85,73,,,,,,,,1.7,0.9,1.5*23
$GNGSA,A,3,,,,,,,,,,,,,1.7,0.9,1.5*27
$GPGSV,3,1,10,02,59,088,36,06,28,047,28,12,61,006,38,14,06,312,*7E
$GPGSV,3,2,10,19,09,050,17,24,56,178,27,25,37,316,27,29,36,254,35*7C
$GPGSV,3,3,10,32,11,292,23,33,24,246,31,,,,,,,,*75
$GLGSV,2,1,06,74,77,030,37,73,38,132,35,75,29,331,32,84,63,009,34*63
$GLGSV,2,2,06,83,11,032,,85,54,240,42,,,,,,,,*65
08/09/2016 10:35:05.352	(255)	Cannot process message $GNGSA,A,3,,,,,,,,,,,,,1.5,0.9,1.3*23
$GPRMC,073506.000,A,3205.01591,N,03448.14666,E,1.2,80.0,090816,,A*78
$GPGGA,073506.000,3205.01591,N,03448.14666,E,1,13,0.9,068.39,M,17.1,M,,*63
$GNGSA,A,3,25,24,12,02,29,32,06,,,,,,1.5,0.9,1.3*2F
$GNGSA,A,3,75,74,84,85,73,83,,,,,,,1.5,0.9,1.3*2C
$GNGSA,A,3,,,,,,,,,,,,,1.5,0.9,1.3*23
$GPGSV,3,1,10,02,59,088,36,06,28,047,28,12,61,006,37,14,06,312,*71
$GPGSV,3,2,10,19,09,050,17,24,56,178,27,25,37,316,27,29,36,254,34*7D
$GPGSV,3,3,10,32,11,292,24,33,24,246,32,,,,,,,,*71
$GLGSV,2,1,06,74,77,030,36,73,38,132,34,75,29,331,31,84,63,009,34*60
$GLGSV,2,2,06,83,11,032,23,85,54,240,42,,,,,,,,*64
08/09/2016 10:35:06.194	(255)	Cannot process message $GNGSA,A,3,,,,,,,,,,,,,1.5,0.9,1.3*23
$GPRMC,073507.000,A,3205.01598,N,03448.14709,E,0.9,47.3,090816,,A*7A
$GPGGA,073507.000,3205.01598,N,03448.14709,E,1,13,0.9,068.71,M,17.1,M,,*6F
$GNGSA,A,3,25,24,12,02,29,32,06,,,,,,1.5,0.9,1.3*2F
$GNGSA,A,3,75,74,84,85,73,83,,,,,,,1.5,0.9,1.3*2C
$GNGSA,A,3,,,,,,,,,,,,,1.5,0.9,1.3*23
$GPGSV,3,1,10,02,59,088,36,06,28,047,27,12,61,006,37,14,06,312,*7E
$GPGSV,3,2,10,19,09,050,17,24,56,178,26,25,37,316,27,29,36,254,35*7D
$GPGSV,3,3,10,32,11,292,25,33,24,246,32,,,,,,,,*70
$GLGSV,2,1,06,74,77,030,36,73,38,132,35,75,29,331,32,84,63,009,30*66
$GLGSV,2,2,06,83,11,032,22,85,54,240,41,,,,,,,,*66
08/09/2016 10:35:07.238	(255)	Cannot process message $GNGSA,A,3,,,,,,,,,,,,,1.5,0.9,1.3*23
$GPRMC,073508.000,A,3205.01610,N,03448.14728,E,1.4,30.6,090816,,A*7C
$GPGGA,073508.000,3205.01610,N,03448.14728,E,1,13,0.9,069.00,M,17.1,M,,*67
$GNGSA,A,3,25,24,12,02,29,32,06,,,,,,1.5,0.9,1.3*2F
$GNGSA,A,3,75,74,84,85,73,83,,,,,,,1.5,0.9,1.3*2C
$GNGSA,A,3,,,,,,,,,,,,,1.5,0.9,1.3*23
$GPGSV,3,1,10,02,59,088,38,06,28,047,28,12,61,006,37,14,06,312,*7F
$GPGSV,3,2,10,19,09,050,17,24,56,178,27,25,37,316,27,29,36,254,36*7F
$GPGSV,3,3,10,32,11,292,25,33,24,246,31,,,,,,,,*73
$GLGSV,2,1,06,74,77,030,36,73,38,132,35,75,29,331,31,84,63,009,30*65
$GLGSV,2,2,06,83,11,032,21,85,54,240,40,,,,,,,,*64
08/09/2016 10:35:08.226	(255)	Cannot process message $GNGSA,A,3,,,,,,,,,,,,,1.5,0.9,1.3*23
$GPRMC,073509.000,A,3205.01643,N,03448.14747,E,1.3,19.9,090816,,A*71
$GPGGA,073509.000,3205.01643,N,03448.14747,E,1,13,0.9,069.34,M,17.1,M,,*6E
$GNGSA,A,3,25,24,12,02,29,32,06,,,,,,1.5,0.9,1.3*2F
$GNGSA,A,3,75,74,84,85,73,83,,,,,,,1.5,0.9,1.3*2C
$GNGSA,A,3,,,,,,,,,,,,,1.5,0.9,1.3*23
$GPGSV,3,1,10,02,59,088,38,06,28,047,28,12,61,006,36,14,06,312,*7E
$GPGSV,3,2,10,19,09,050,17,24,56,178,26,25,37,316,27,29,36,254,35*7D
$GPGSV,3,3,10,32,11,291,25,33,24,246,34,,,,,,,,*75
$GLGSV,2,1,06,74,77,030,36,73,38,132,35,75,29,331,31,84,63,009,30*65
$GLGSV,2,2,06,83,11,032,20,85,54,240,41,,,,,,,,*64
08/09/2016 10:35:09.236	(255)	Cannot process message $GNGSA,A,3,,,,,,,,,,,,,1.5,0.9,1.3*23
$GPRMC,073510.000,A,3205.01718,N,03448.14747,E,1.0,1.5,090816,,A*40
$GPGGA,073510.000,3205.01718,N,03448.14747,E,1,13,0.9,069.16,M,17.1,M,,*69
$GNGSA,A,3,25,24,12,02,29,32,06,,,,,,1.5,0.9,1.3*2F
$GNGSA,A,3,75,74,84,85,73,83,,,,,,,1.5,0.9,1.3*2C
$GNGSA,A,3,,,,,,,,,,,,,1.5,0.9,1.3*23
$GPGSV,3,1,10,02,59,088,39,06,28,047,28,12,61,006,37,14,06,312,*7E
$GPGSV,3,2,10,19,09,050,17,24,56,178,25,25,37,316,26,29,36,254,34*7E
$GPGSV,3,3,10,32,11,291,25,33,24,246,36,,,,,,,,*77
$GLGSV,2,1,06,74,77,030,36,73,38,132,36,75,29,331,35,84,63,009,30*62
$GLGSV,2,2,06,83,11,032,21,85,54,240,41,,,,,,,,*65
08/09/2016 10:35:10.226	(255)	Cannot process message $GNGSA,A,3,,,,,,,,,,,,,1.6,0.9,1.3*20
$GPRMC,073511.000,A,3205.01829,N,03448.14746,E,1.5,72.0,090816,,A*79
$GPGGA,073511.000,3205.01829,N,03448.14746,E,1,12,0.9,068.15,M,17.1,M,,*67
$GNGSA,A,3,24,12,02,29,32,06,,,,,,,1.6,0.9,1.3*2B
$GNGSA,A,3,75,74,84,85,73,83,,,,,,,1.6,0.9,1.3*2F
$GNGSA,A,3,,,,,,,,,,,,,1.6,0.9,1.3*20
$GPGSV,3,1,10,02,59,088,39,06,28,047,29,12,61,006,36,14,06,312,*7E
$GPGSV,3,2,10,19,09,050,17,24,56,178,24,25,37,316,,29,36,254,34*7B
$GPGSV,3,3,10,32,11,291,25,33,24,246,34,,,,,,,,*75
$GLGSV,2,1,06,74,77,030,36,73,38,132,37,75,29,331,37,84,63,009,30*61
$GLGSV,2,2,06,83,11,032,21,85,54,240,41,,,,,,,,*65
08/09/2016 10:35:11.254	(255)	Cannot process message $GNGSA,A,3,,,,,,,,,,,,,1.6,0.9,1.3*20
$GPRMC,073512.000,A,3205.01852,N,03448.14862,E,2.3,80.6,090816,,A*71
$GPGGA,073512.000,3205.01852,N,03448.14862,E,1,12,0.9,068.02,M,17.1,M,,*67
$GNGSA,A,3,24,12,02,29,32,06,,,,,,,1.6,0.9,1.3*2B
$GNGSA,A,3,75,74,84,85,73,83,,,,,,,1.6,0.9,1.3*2F
$GNGSA,A,3,,,,,,,,,,,,,1.6,0.9,1.3*20
$GPGSV,3,1,10,02,59,088,39,06,28,047,30,12,61,006,35,14,06,312,*75
$GPGSV,3,2,10,19,09,050,17,24,56,178,24,25,37,316,,29,36,254,37*78
$GPGSV,3,3,10,32,11,291,25,33,24,246,34,,,,,,,,*75
$GLGSV,2,1,06,74,77,030,35,73,38,132,37,75,29,331,38,84,63,009,30*6D
$GLGSV,2,2,06,83,11,032,20,85,54,240,41,,,,,,,,*64
08/09/2016 10:35:12.220	(255)	Cannot process message $GNGSA,A,3,,,,,,,,,,,,,1.5,0.9,1.3*23
$GPRMC,073513.000,A,3205.01887,N,03448.14973,E,1.8,59.8,090816,,A*7B
$GPGGA,073513.000,3205.01887,N,03448.14973,E,1,12,0.9,068.03,M,17.1,M,,*6E
$GNGSA,A,3,24,12,02,29,32,06,,,,,,,1.5,0.9,1.3*28
$GNGSA,A,3,75,74,84,85,73,83,,,,,,,1.5,0.9,1.3*2C
$GNGSA,A,3,,,,,,,,,,,,,1.5,0.9,1.3*23
$GPGSV,3,1,10,02,59,087,39,06,28,047,32,12,61,006,37,14,06,312,*7A
$GPGSV,3,2,10,19,09,050,17,24,56,178,24,25,37,316,,29,36,254,38*77
$GPGSV,3,3,10,32,11,291,25,33,24,246,33,,,,,,,,*72
$GLGSV,2,1,06,74,77,030,35,73,38,132,36,75,29,331,37,84,63,009,30*63
$GLGSV,2,2,06,83,11,032,20,85,54,240,41,,,,,,,,*64
08/09/2016 10:35:13.266	(255)	Cannot process message $GNGSA,A,3,,,,,,,,,,,,,1.5,0.9,1.3*23
$GPRMC,073514.000,A,3205.01923,N,03448.15036,E,1.1,19.1,090816,,A*7E
$GPGGA,073514.000,3205.01923,N,03448.15036,E,1,13,0.9,068.17,M,17.1,M,,*6B
$GNGSA,A,3,25,24,12,02,29,32,06,,,,,,1.5,0.9,1.3*2F
$GNGSA,A,3,75,74,84,85,73,83,,,,,,,1.5,0.9,1.3*2C
$GNGSA,A,3,,,,,,,,,,,,,1.5,0.9,1.3*23
$GPGSV,3,1,10,02,59,087,39,06,28,047,32,12,61,006,37,14,06,312,*7A
$GPGSV,3,2,10,19,09,050,18,24,56,178,24,25,37,316,30,29,36,254,38*7B
$GPGSV,3,3,10,32,11,291,25,33,24,246,30,,,,,,,,*71
$GLGSV,2,1,06,74,77,030,33,73,38,132,35,75,29,331,35,84,63,009,25*60
$GLGSV,2,2,06,83,11,032,20,85,54,240,42,,,,,,,,*67
08/09/2016 10:35:14.251	(255)	Cannot process message $GNGSA,A,3,,,,,,,,,,,,,1.5,0.9,1.3*23
$GPRMC,073515.000,A,3205.01910,N,03448.15115,E,1.5,3.6,090816,,A*47
$GPGGA,073515.000,3205.01910,N,03448.15115,E,1,13,0.9,068.38,M,17.1,M,,*67
$GNGSA,A,3,25,24,12,02,29,32,06,,,,,,1.5,0.9,1.3*2F
$GNGSA,A,3,75,74,84,85,73,83,,,,,,,1.5,0.9,1.3*2C
$GNGSA,A,3,,,,,,,,,,,,,1.5,0.9,1.3*23
$GPGSV,3,1,10,02,59,087,37,06,28,047,31,12,61,006,37,14,06,312,*77
$GPGSV,3,2,10,19,09,050,18,24,56,178,25,25,37,316,31,29,36,254,37*74
$GPGSV,3,3,10,32,11,291,26,33,24,246,30,,,,,,,,*72
$GLGSV,2,1,06,74,77,030,28,73,38,132,40,75,29,331,34,84,63,009,25*69
$GLGSV,2,2,06,83,11,032,22,85,54,240,41,,,,,,,,*66
08/09/2016 10:35:15.232	(255)	Cannot process message $GNGSA,A,3,,,,,,,,,,,,,1.5,0.9,1.3*23
$GPRMC,073516.000,A,3205.01928,N,03448.15195,E,1.7,5.3,090816,,A*46
$GPGGA,073516.000,3205.01928,N,03448.15195,E,1,13,0.9,068.07,M,17.1,M,,*6B
$GNGSA,A,3,25,24,12,02,29,32,06,,,,,,1.5,0.9,1.3*2F
$GNGSA,A,3,75,74,84,85,73,83,,,,,,,1.5,0.9,1.3*2C
$GNGSA,A,3,,,,,,,,,,,,,1.5,0.9,1.3*23
$GPGSV,3,1,10,02,59,087,37,06,28,047,31,12,61,006,37,14,06,312,*77
$GPGSV,3,2,10,19,09,050,18,24,56,178,25,25,37,316,31,29,36,254,36*75
$GPGSV,3,3,10,32,11,291,26,33,24,246,26,,,,,,,,*75
$GLGSV,2,1,06,74,77,030,28,73,38,132,41,75,29,331,34,84,63,009,25*68
$GLGSV,2,2,06,83,11,032,25,85,54,240,41,,,,,,,,*61
08/09/2016 10:35:16.236	(255)	Cannot process message $GNGSA,A,3,,,,,,,,,,,,,1.5,0.9,1.2*22
$GPRMC,073517.000,A,3205.01995,N,03448.15244,E,1.8,1.9,090816,,A*4F
$GPGGA,073517.000,3205.01995,N,03448.15244,E,1,13,0.9,067.14,M,17.1,M,,*6E
$GNGSA,A,3,25,24,12,02,29,32,06,,,,,,1.5,0.9,1.2*2E
$GNGSA,A,3,75,74,84,85,73,83,,,,,,,1.5,0.9,1.2*2D
$GNGSA,A,3,,,,,,,,,,,,,1.5,0.9,1.2*22
$GPGSV,3,1,10,02,59,087,36,06,28,047,34,12,61,006,37,14,06,312,*73
$GPGSV,3,2,10,19,09,050,18,24,56,178,25,25,37,316,31,29,36,254,35*76
$GPGSV,3,3,10,32,11,291,26,33,24,246,26,,,,,,,,*75
$GLGSV,2,1,06,74,77,030,27,73,38,132,40,75,29,331,36,84,63,009,25*64
$GLGSV,2,2,06,83,11,032,25,85,54,240,42,,,,,,,,*62
08/09/2016 10:35:17.260	(255)	Cannot process message $GNGSA,A,3,,,,,,,,,,,,,1.5,0.9,1.2*22
$GPRMC,073518.000,A,3205.02070,N,03448.15283,E,1.5,354.2,090816,,A*4F
$GPGGA,073518.000,3205.02070,N,03448.15283,E,1,13,0.9,065.89,M,17.1,M,,*6D
$GNGSA,A,3,25,24,12,02,29,32,06,,,,,,1.5,0.9,1.2*2E
$GNGSA,A,3,75,74,84,85,73,83,,,,,,,1.5,0.9,1.2*2D
$GNGSA,A,3,,,,,,,,,,,,,1.5,0.9,1.2*22
$GPGSV,3,1,10,02,59,087,32,06,28,047,33,12,61,006,37,14,06,312,*70
$GPGSV,3,2,10,19,09,050,18,24,56,178,26,25,37,316,32,29,36,254,35*76
$GPGSV,3,3,10,32,11,291,25,33,24,246,24,,,,,,,,*74
$GLGSV,2,1,06,74,77,030,27,73,38,132,40,75,29,331,37,84,63,009,25*65
$GLGSV,2,2,06,83,11,032,27,85,54,240,42,,,,,,,,*60
08/09/2016 10:35:18.222	(255)	Cannot process message $GNGSA,A,3,,,,,,,,,,,,,1.5,0.9,1.2*22
$GPRMC,073519.000,A,3205.02149,N,03448.15315,E,2.0,354.4,090816,,A*4B
$GPGGA,073519.000,3205.02149,N,03448.15315,E,1,13,0.9,064.65,M,17.1,M,,*6A
$GNGSA,A,3,25,24,12,02,29,32,06,,,,,,1.5,0.9,1.2*2E
$GNGSA,A,3,75,74,84,85,73,83,,,,,,,1.5,0.9,1.2*2D
$GNGSA,A,3,,,,,,,,,,,,,1.5,0.9,1.2*22
$GPGSV,3,1,10,02,59,087,29,06,28,047,36,12,61,006,37,14,06,312,*7F
$GPGSV,3,2,10,19,09,050,18,24,56,178,27,25,37,316,32,29,36,254,35*77
$GPGSV,3,3,10,32,11,291,26,33,24,246,23,,,,,,,,*70
$GLGSV,2,1,06,74,77,030,25,73,38,132,40,75,29,331,37,84,63,009,25*67
$GLGSV,2,2,06,83,11,032,26,85,54,240,42,,,,,,,,*61
08/09/2016 10:35:19.225	(255)	Cannot process message $GNGSA,A,3,,,,,,,,,,,,,1.5,0.9,1.2*22
$GPRMC,073520.000,A,3205.02236,N,03448.15332,E,2.4,351.6,090816,,A*4C
$GPGGA,073520.000,3205.02236,N,03448.15332,E,1,13,0.9,063.99,M,17.1,M,,*6A
$GNGSA,A,3,25,24,12,02,29,32,06,,,,,,1.5,0.9,1.2*2E
$GNGSA,A,3,75,74,84,85,73,83,,,,,,,1.5,0.9,1.2*2D
$GNGSA,A,3,,,,,,,,,,,,,1.5,0.9,1.2*22
$GPGSV,3,1,10,02,59,087,24,06,28,047,36,12,61,006,38,14,06,312,*7D
$GPGSV,3,2,10,19,09,050,18,24,56,178,28,25,37,316,33,29,36,254,34*78
$GPGSV,3,3,10,32,11,291,26,33,24,246,22,,,,,,,,*71
$GLGSV,2,1,06,74,77,030,26,73,38,132,40,75,29,331,37,84,63,009,25*64
$GLGSV,2,2,06,83,11,032,25,85,54,240,42,,,,,,,,*62
08/09/2016 10:35:20.251	(255)	Cannot process message $GNGSA,A,3,,,,,,,,,,,,,1.5,0.9,1.2*22
$GPRMC,073521.000,A,3205.02329,N,03448.15322,E,2.5,349.9,090816,,A*44
$GPGGA,073521.000,3205.02329,N,03448.15322,E,1,13,0.9,063.58,M,17.1,M,,*68
$GNGSA,A,3,25,24,12,02,29,32,06,,,,,,1.5,0.9,1.2*2E
$GNGSA,A,3,75,74,84,85,73,83,,,,,,,1.5,0.9,1.2*2D
$GNGSA,A,3,,,,,,,,,,,,,1.5,0.9,1.2*22
$GPGSV,3,1,10,02,59,087,25,06,27,047,38,12,61,006,38,14,06,312,*7D
$GPGSV,3,2,10,19,09,050,18,24,56,178,29,25,37,316,31,29,36,254,35*7A
$GPGSV,3,3,10,32,11,291,26,33,24,246,22,,,,,,,,*71
$GLGSV,2,1,06,74,77,030,26,73,38,132,41,75,29,331,38,84,62,010,25*63
$GLGSV,2,2,06,83,11,032,24,85,54,240,42,,,,,,,,*63
08/09/2016 10:35:21.254	(255)	Cannot process message $GNGSA,A,3,,,,,,,,,,,,,1.5,0.9,1.2*22
$GPRMC,073522.000,A,3205.02425,N,03448.15340,E,2.4,353.6,090816,,A*4D
$GPGGA,073522.000,3205.02425,N,03448.15340,E,1,13,0.9,062.45,M,17.1,M,,*69
$GNGSA,A,3,25,24,12,02,29,32,06,,,,,,1.5,0.9,1.2*2E
$GNGSA,A,3,75,74,84,85,73,83,,,,,,,1.5,0.9,1.2*2D
$GNGSA,A,3,,,,,,,,,,,,,1.5,0.9,1.2*22
$GPGSV,3,1,10,02,59,087,28,06,27,047,40,12,61,006,38,14,06,312,*7F
$GPGSV,3,2,10,19,09,050,18,24,56,178,33,25,37,316,30,29,36,254,34*71
$GPGSV,3,3,10,32,11,291,27,33,24,246,21,,,,,,,,*73
$GLGSV,2,1,06,74,77,030,26,73,38,132,41,75,29,331,38,84,62,010,25*63
$GLGSV,2,2,06,83,11,032,24,85,54,240,42,,,,,,,,*63
08/09/2016 10:35:22.218	(255)	Cannot process message $GNGSA,A,3,,,,,,,,,,,,,1.5,0.9,1.2*22
$GPRMC,073523.000,A,3205.02520,N,03448.15357,E,2.4,354.1,090816,,A*4E
$GPGGA,073523.000,3205.02520,N,03448.15357,E,1,13,0.9,061.82,M,17.1,M,,*62
$GNGSA,A,3,25,24,12,02,29,32,06,,,,,,1.5,0.9,1.2*2E
$GNGSA,A,3,75,74,84,85,73,83,,,,,,,1.5,0.9,1.2*2D
$GNGSA,A,3,,,,,,,,,,,,,1.5,0.9,1.2*22
$GPGSV,3,1,09,02,59,087,31,06,27,047,40,12,61,006,39,14,06,312,*7E
$GPGSV,3,2,09,19,09,050,18,24,56,178,35,25,37,316,30,29,36,254,34*7F
$GPGSV,3,3,09,32,11,291,27,,,,,,,,,,,,*4E
$GLGSV,2,1,06,74,77,030,26,73,38,132,41,75,29,331,39,84,62,010,24*63
$GLGSV,2,2,06,83,11,032,24,85,54,240,42,,,,,,,,*63
08/09/2016 10:35:23.223	(255)	Cannot process message $GNGSA,A,3,,,,,,,,,,,,,1.5,0.9,1.2*22
$GPRMC,073524.000,A,3205.02613,N,03448.15355,E,2.3,356.5,090816,,A*49
$GPGGA,073524.000,3205.02613,N,03448.15355,E,1,13,0.9,061.45,M,17.1,M,,*6F
$GNGSA,A,3,25,24,12,02,29,32,06,,,,,,1.5,0.9,1.2*2E
$GNGSA,A,3,75,74,84,85,73,83,,,,,,,1.5,0.9,1.2*2D
$GNGSA,A,3,,,,,,,,,,,,,1.5,0.9,1.2*22
$GPGSV,3,1,09,02,59,087,33,06,27,047,41,12,61,006,39,14,06,312,*7D
$GPGSV,3,2,09,19,09,050,18,24,56,178,36,25,37,316,34,29,36,254,35*79
$GPGSV,3,3,09,32,11,291,28,,,,,,,,,,,,*41
$GLGSV,2,1,06,74,77,030,26,73,38,132,41,75,29,331,39,84,62,010,24*63
$GLGSV,2,2,06,83,11,032,24,85,54,240,42,,,,,,,,*63
08/09/2016 10:35:24.212	(255)	Cannot process message $GNGSA,A,3,,,,,,,,,,,,,1.5,0.9,1.2*22
$GPRMC,073525.000,A,3205.02698,N,03448.15356,E,2.1,358.8,090816,,A*49
$GPGGA,073525.000,3205.02698,N,03448.15356,E,1,13,0.9,061.02,M,17.1,M,,*6D
$GNGSA,A,3,25,24,12,02,29,32,06,,,,,,1.5,0.9,1.2*2E
$GNGSA,A,3,75,74,84,85,73,83,,,,,,,1.5,0.9,1.2*2D
$GNGSA,A,3,,,,,,,,,,,,,1.5,0.9,1.2*22
$GPGSV,3,1,09,02,59,087,37,06,27,047,40,12,61,006,39,14,06,312,*78
$GPGSV,3,2,09,19,09,050,18,24,56,178,35,25,37,316,36,29,36,254,38*75
$GPGSV,3,3,09,32,11,291,30,,,,,,,,,,,,*48
$GLGSV,2,1,06,74,77,030,26,73,38,132,40,75,29,331,38,84,62,010,25*62
$GLGSV,2,2,06,83,11,032,24,85,54,240,42,,,,,,,,*63
08/09/2016 10:35:25.278	(255)	Cannot process message $GNGSA,A,3,,,,,,,,,,,,,1.5,0.9,1.2*22
$GPRMC,073526.000,A,3205.02796,N,03448.15331,E,2.1,357.2,090816,,A*41
$GPGGA,073526.000,3205.02796,N,03448.15331,E,1,13,0.9,060.62,M,17.1,M,,*67
$GNGSA,A,3,25,24,12,02,29,32,06,,,,,,1.5,0.9,1.2*2E
$GNGSA,A,3,75,74,84,85,73,83,,,,,,,1.5,0.9,1.2*2D
$GNGSA,A,3,,,,,,,,,,,,,1.5,0.9,1.2*22
$GPGSV,3,1,09,02,59,087,38,06,27,047,40,12,61,006,39,14,06,312,*77
$GPGSV,3,2,09,19,09,050,18,24,56,178,35,25,37,316,37,29,36,254,38*74
$GPGSV,3,3,09,32,11,291,30,,,,,,,,,,,,*48
$GLGSV,2,1,06,74,77,030,27,73,38,132,36,75,29,331,38,84,62,010,26*61
$GLGSV,2,2,06,83,11,032,24,85,54,240,41,,,,,,,,*60
08/09/2016 10:35:26.222	(255)	Cannot process message $GNGSA,A,3,,,,,,,,,,,,,1.5,0.9,1.2*22
$GPRMC,073527.000,A,3205.02881,N,03448.15301,E,2.1,356.0,090816,,A*49
$GPGGA,073527.000,3205.02881,N,03448.15301,E,1,13,0.9,060.47,M,17.1,M,,*6B
$GNGSA,A,3,25,24,12,02,29,32,06,,,,,,1.5,0.9,1.2*2E
$GNGSA,A,3,75,74,84,85,73,83,,,,,,,1.5,0.9,1.2*2D
$GNGSA,A,3,,,,,,,,,,,,,1.5,0.9,1.2*22
$GPGSV,3,1,10,02,59,087,38,06,27,047,39,12,61,006,38,14,06,312,*70
$GPGSV,3,2,10,19,09,050,18,24,56,178,37,25,37,316,38,29,36,254,38*71
$GPGSV,3,3,10,32,11,291,31,33,24,246,,,,,,,,,*77
$GLGSV,2,1,06,74,77,030,26,73,38,132,34,75,29,331,39,84,62,010,27*62
$GLGSV,2,2,06,83,11,032,24,85,54,240,40,,,,,,,,*61
08/09/2016 10:35:27.226	(255)	Cannot process message $GNGSA,A,3,,,,,,,,,,,,,1.5,0.9,1.2*22
$GPRMC,073528.000,A,3205.02970,N,03448.15289,E,2.3,1.0,090816,,A*4B
$GPGGA,073528.000,3205.02970,N,03448.15289,E,1,13,0.9,060.58,M,17.1,M,,*64
$GNGSA,A,3,25,24,12,02,29,32,06,,,,,,1.5,0.9,1.2*2E
$GNGSA,A,3,75,74,84,85,73,83,,,,,,,1.5,0.9,1.2*2D
$GNGSA,A,3,,,,,,,,,,,,,1.5,0.9,1.2*22
$GPGSV,3,1,09,02,59,087,40,06,27,047,35,12,61,006,39,14,06,312,*7A
$GPGSV,3,2,09,19,09,050,18,24,56,178,36,25,37,316,38,29,36,254,36*76
$GPGSV,3,3,09,32,11,291,34,,,,,,,,,,,,*4C
$GLGSV,2,1,06,74,77,030,25,73,38,132,30,75,29,331,38,84,62,010,28*6B
$GLGSV,2,2,06,83,11,032,24,85,54,240,40,,,,,,,,*61
08/09/2016 10:35:28.208	(255)	Cannot process message $GNGSA,A,3,,,,,,,,,,,,,1.5,0.9,1.2*22
$GPRMC,073529.000,A,3205.03055,N,03448.15286,E,2.2,356.4,090816,,A*4E
$GPGGA,073529.000,3205.03055,N,03448.15286,E,1,13,0.9,060.00,M,17.1,M,,*68
$GNGSA,A,3,25,24,12,02,29,32,06,,,,,,1.5,0.9,1.2*2E
$GNGSA,A,3,75,74,84,85,73,83,,,,,,,1.5,0.9,1.2*2D
$GNGSA,A,3,,,,,,,,,,,,,1.5,0.9,1.2*22
$GPGSV,3,1,09,02,59,087,40,06,27,047,33,12,61,006,38,14,06,312,*7D
$GPGSV,3,2,09,19,09,050,18,24,56,178,36,25,37,316,38,29,36,254,36*76
$GPGSV,3,3,09,32,11,291,34,,,,,,,,,,,,*4C
$GLGSV,2,1,06,74,77,030,25,73,38,132,29,75,29,331,38,84,62,010,29*62
$GLGSV,2,2,06,83,11,032,24,85,54,240,40,,,,,,,,*61
08/09/2016 10:35:29.250	(255)	Cannot process message $GNGSA,A,3,,,,,,,,,,,,,1.7,1.1,1.4*2F
$GPRMC,073530.000,A,3205.03132,N,03448.15257,E,2.2,357.4,090816,,A*4B
$GPGGA,073530.000,3205.03132,N,03448.15257,E,1,12,1.1,059.38,M,17.1,M,,*65
$GNGSA,A,3,25,24,12,02,29,32,06,,,,,,1.7,1.1,1.4*23
$GNGSA,A,3,75,74,84,85,83,,,,,,,,1.7,1.1,1.4*24
$GNGSA,A,3,,,,,,,,,,,,,1.7,1.1,1.4*2F
$GPGSV,3,1,09,02,59,087,40,06,27,047,30,12,61,006,38,14,06,312,*7E
$GPGSV,3,2,09,19,09,050,18,24,56,178,36,25,37,316,37,29,36,254,31*7E
$GPGSV,3,3,09,32,11,291,30,,,,,,,,,,,,*48
$GLGSV,2,1,06,74,77,030,25,73,38,132,,75,29,331,38,84,62,010,30*61
$GLGSV,2,2,06,83,11,032,24,85,54,240,40,,,,,,,,*61
08/09/2016 10:35:30.196	(255)	Cannot process message $GNGSA,A,3,,,,,,,,,,,,,1.7,1.1,1.4*2F
$GPRMC,073531.000,A,3205.03215,N,03448.15225,E,2.5,358.3,090816,,A*46
$GPGGA,073531.000,3205.03215,N,03448.15225,E,1,12,1.1,058.81,M,17.1,M,,*64
$GNGSA,A,3,25,24,12,02,29,32,06,,,,,,1.7,1.1,1.4*23
$GNGSA,A,3,75,74,84,85,83,,,,,,,,1.7,1.1,1.4*24
$GNGSA,A,3,,,,,,,,,,,,,1.7,1.1,1.4*2F
$GPGSV,3,1,09,02,59,087,40,06,27,047,28,12,61,006,38,14,06,312,*77
$GPGSV,3,2,09,19,09,050,19,24,56,178,36,25,37,316,37,29,36,254,31*7F
$GPGSV,3,3,09,32,11,291,28,,,,,,,,,,,,*41
$GLGSV,2,1,06,74,77,030,25,73,38,132,,75,29,331,38,84,62,010,31*60
$GLGSV,2,2,06,83,11,032,25,85,54,240,40,,,,,,,,*60
08/09/2016 10:35:31.278	(255)	Cannot process message $GNGSA,A,3,,,,,,,,,,,,,1.7,1.1,1.4*2F
$GPRMC,073532.000,A,3205.03307,N,03448.15201,E,2.6,358.1,090816,,A*40
$GPGGA,073532.000,3205.03307,N,03448.15201,E,1,12,1.1,058.15,M,17.1,M,,*6E
$GNGSA,A,3,25,24,12,02,29,32,06,,,,,,1.7,1.1,1.4*23
$GNGSA,A,3,75,74,84,85,83,,,,,,,,1.7,1.1,1.4*24
$GNGSA,A,3,,,,,,,,,,,,,1.7,1.1,1.4*2F
$GPGSV,3,1,09,02,59,087,39,06,27,047,26,12,61,006,37,14,06,312,*78
$GPGSV,3,2,09,19,09,050,19,24,56,178,36,25,37,316,36,29,36,254,33*7C
$GPGSV,3,3,09,32,11,291,29,,,,,,,,,,,,*40
$GLGSV,2,1,06,74,77,030,26,73,38,132,,75,29,331,38,84,62,010,31*63
$GLGSV,2,2,06,83,11,032,25,85,54,240,40,,,,,,,,*60
08/09/2016 10:35:32.204	(255)	Cannot process message $GNGSA,A,3,,,,,,,,,,,,,1.5,0.9,1.2*22
$GPRMC,073533.000,A,3205.03389,N,03448.15177,E,2.2,357.4,090816,,A*4B
$GPGGA,073533.000,3205.03389,N,03448.15177,E,1,13,0.9,057.90,M,17.1,M,,*61
$GNGSA,A,3,25,24,12,02,29,32,06,,,,,,1.5,0.9,1.2*2E
$GNGSA,A,3,75,74,84,85,73,83,,,,,,,1.5,0.9,1.2*2D
$GNGSA,A,3,,,,,,,,,,,,,1.5,0.9,1.2*22
$GPGSV,3,1,09,02,59,087,37,06,27,047,26,12,61,007,37,14,06,312,*77
$GPGSV,3,2,09,19,09,050,19,24,56,178,38,25,37,316,37,29,36,254,33*73
$GPGSV,3,3,09,32,11,291,28,,,,,,,,,,,,*41
$GLGSV,2,1,06,74,77,030,26,73,38,132,26,75,29,331,38,84,62,010,30*66
$GLGSV,2,2,06,83,11,032,25,85,54,240,38,,,,,,,,*6F
$GPRMC,073534.000,A,3205.03462,N,03448.15157,E,2.2,6.0,090816,,A*4F
$GPGGA,073534.000,3205.03462,N,03448.15157,E,1,12,0.9,057.67,M,17.1,M,,*6F
$GNGSA,A,3,25,24,12,02,29,06,,,,,,,1.7,0.9,1.5*2A
$GNGSA,A,3,75,74,84,85,73,83,,,,,,,1.7,0.9,1.5*28
$GNGSA,A,3,,,,,,,,,,,,,1.7,0.9,1.5*27
08/09/2016 10:35:33.251	(255)	Cannot process message $GNGSA,A,3,,,,,,,,,,,,,1.7,0.9,1.5*27
$GPGSV,3,1,09,02,59,087,37,06,27,047,26,12,61,007,37,14,06,312,*77
$GPGSV,3,2,09,19,09,050,19,24,56,178,37,25,37,316,36,29,36,254,36*78
$GPGSV,3,3,09,32,11,291,,,,,,,,,,,,,*4B
$GLGSV,2,1,06,74,77,030,27,73,38,132,27,75,29,331,37,84,62,010,30*69
$GLGSV,2,2,06,83,11,032,24,85,54,240,30,,,,,,,,*66
08/09/2016 10:35:34.189	(255)	Cannot process message $GNGSA,A,3,,,,,,,,,,,,,2.1,0.9,1.8*2F
$GPRMC,073535.000,A,3205.03535,N,03448.15141,E,2.3,3.1,090816,,A*4F
$GPGGA,073535.000,3205.03535,N,03448.15141,E,1,11,0.9,057.45,M,17.1,M,,*69
$GNGSA,A,3,25,24,12,02,29,06,,,,,,,2.1,0.9,1.8*22
$GNGSA,A,3,75,74,84,85,73,,,,,,,,2.1,0.9,1.8*2B
$GNGSA,A,3,,,,,,,,,,,,,2.1,0.9,1.8*2F
$GPGSV,3,1,09,02,59,087,36,06,27,047,26,12,61,007,37,14,06,312,*76
$GPGSV,3,2,09,19,09,050,19,24,56,178,38,25,37,316,35,29,36,254,35*77
$GPGSV,3,3,09,32,11,291,,,,,,,,,,,,,*4B
$GLGSV,2,1,06,74,77,030,28,73,38,132,27,75,29,331,37,84,62,010,30*66
$GLGSV,2,2,06,83,11,032,,85,54,240,29,,,,,,,,*68
08/09/2016 10:35:35.211	(255)	Cannot process message $GNGSA,A,3,,,,,,,,,,,,,1.5,0.9,1.2*22
$GPRMC,073536.000,A,3205.03618,N,03448.15113,E,2.5,359.5,090816,,A*49
$GPGGA,073536.000,3205.03618,N,03448.15113,E,1,13,0.9,057.21,M,17.1,M,,*61
$GNGSA,A,3,25,24,12,02,29,32,06,,,,,,1.5,0.9,1.2*2E
$GNGSA,A,3,75,74,84,85,73,83,,,,,,,1.5,0.9,1.2*2D
$GNGSA,A,3,,,,,,,,,,,,,1.5,0.9,1.2*22
$GPGSV,3,1,09,02,59,087,37,06,27,047,25,12,61,007,37,14,06,312,*74
$GPGSV,3,2,09,19,09,050,19,24,56,178,38,25,37,316,35,29,36,254,37*75
$GPGSV,3,3,09,32,11,291,27,,,,,,,,,,,,*4E
$GLGSV,2,1,06,74,77,030,27,73,38,132,27,75,29,331,38,84,62,010,30*66
$GLGSV,2,2,06,83,11,032,22,85,54,240,30,,,,,,,,*60
08/09/2016 10:35:36.217	(255)	Cannot process message $GNGSA,A,3,,,,,,,,,,,,,1.5,0.9,1.2*22
$GPRMC,073537.000,A,3205.03705,N,03448.15082,E,2.9,2.0,090816,,A*48
$GPGGA,073537.000,3205.03705,N,03448.15082,E,1,13,0.9,056.96,M,17.1,M,,*69
$GNGSA,A,3,25,24,12,02,29,32,06,,,,,,1.5,0.9,1.2*2E
$GNGSA,A,3,75,74,84,85,73,83,,,,,,,1.5,0.9,1.2*2D
$GNGSA,A,3,,,,,,,,,,,,,1.5,0.9,1.2*22
$GPGSV,3,1,09,02,59,087,37,06,27,047,25,12,61,007,36,14,06,312,*75
$GPGSV,3,2,09,19,09,050,19,24,56,178,38,25,37,316,35,29,36,254,37*75
$GPGSV,3,3,09,32,11,291,27,,,,,,,,,,,,*4E
$GLGSV,2,1,06,74,77,030,27,73,38,132,27,75,29,331,38,84,62,010,30*66
$GLGSV,2,2,06,83,11,032,22,85,54,240,29,,,,,,,,*68
08/09/2016 10:35:37.222	(255)	Cannot process message $GNGSA,A,3,,,,,,,,,,,,,1.7,0.9,1.5*27
$GPRMC,073538.000,A,3205.03789,N,03448.15056,E,2.7,356.4,090816,,A*42
$GPGGA,073538.000,3205.03789,N,03448.15056,E,1,12,0.9,056.65,M,17.1,M,,*66
$GNGSA,A,3,25,24,12,02,29,32,06,,,,,,1.7,0.9,1.5*2B
$GNGSA,A,3,75,74,84,85,73,,,,,,,,1.7,0.9,1.5*23
$GNGSA,A,3,,,,,,,,,,,,,1.7,0.9,1.5*27
$GPGSV,3,1,09,02,59,087,38,06,27,047,25,12,61,007,37,14,06,312,*7B
$GPGSV,3,2,09,19,09,050,19,24,56,178,38,25,37,316,34,29,36,254,35*76
$GPGSV,3,3,09,32,11,291,27,,,,,,,,,,,,*4E
$GLGSV,2,1,06,74,77,030,27,73,38,132,31,75,29,331,38,84,62,010,30*61
$GLGSV,2,2,06,83,11,032,,85,54,240,29,,,,,,,,*68
08/09/2016 10:35:38.183	(255)	Cannot process message $GNGSA,A,3,,,,,,,,,,,,,1.7,0.9,1.5*27
$GPRMC,073539.000,A,3205.03888,N,03448.15005,E,2.6,4.7,090816,,A*4D
$GPGGA,073539.000,3205.03888,N,03448.15005,E,1,12,0.9,056.50,M,17.1,M,,*69
$GNGSA,A,3,25,24,12,02,29,32,06,,,,,,1.7,0.9,1.5*2B
$GNGSA,A,3,75,74,84,85,73,,,,,,,,1.7,0.9,1.5*23
$GNGSA,A,3,,,,,,,,,,,,,1.7,0.9,1.5*27
$GPGSV,3,1,09,02,59,087,39,06,27,047,25,12,61,007,37,14,06,312,*7A
$GPGSV,3,2,09,19,09,050,19,24,56,178,38,25,37,316,34,29,36,254,33*70
$GPGSV,3,3,09,32,11,291,29,,,,,,,,,,,,*40
$GLGSV,2,1,06,74,77,030,27,73,38,132,31,75,29,331,38,84,62,010,30*61
$GLGSV,2,2,06,83,11,032,,85,54,240,28,,,,,,,,*69
08/09/2016 10:35:39.229	(255)	Cannot process message $GNGSA,A,3,,,,,,,,,,,,,1.5,0.9,1.2*22
$GPRMC,073540.000,A,3205.03991,N,03448.14952,E,2.9,0.1,090816,,A*4D
$GPGGA,073540.000,3205.03991,N,03448.14952,E,1,13,0.9,056.55,M,17.1,M,,*60
$GNGSA,A,3,25,24,12,02,29,32,06,,,,,,1.5,0.9,1.2*2E
$GNGSA,A,3,75,74,84,85,73,83,,,,,,,1.5,0.9,1.2*2D
$GNGSA,A,3,,,,,,,,,,,,,1.5,0.9,1.2*22
$GPGSV,3,1,09,02,59,087,40,06,27,047,25,12,61,007,36,14,06,312,*75
$GPGSV,3,2,09,19,09,050,19,24,56,178,38,25,37,316,34,29,36,254,32*71
$GPGSV,3,3,09,32,11,291,29,,,,,,,,,,,,*40
$GLGSV,2,1,06,74,77,030,26,73,38,132,33,75,29,331,38,84,62,010,31*63
$GLGSV,2,2,06,83,11,032,23,85,54,240,28,,,,,,,,*68
08/09/2016 10:35:40.210	(255)	Cannot process message $GNGSA,A,3,,,,,,,,,,,,,1.5,0.9,1.2*22
$GPRMC,073541.000,A,3205.04092,N,03448.14911,E,2.1,6.3,090816,,A*4A
$GPGGA,073541.000,3205.04092,N,03448.14911,E,1,13,0.9,056.55,M,17.1,M,,*6B
$GNGSA,A,3,25,24,12,02,29,32,06,,,,,,1.5,0.9,1.2*2E
$GNGSA,A,3,75,74,84,85,73,83,,,,,,,1.5,0.9,1.2*2D
$GNGSA,A,3,,,,,,,,,,,,,1.5,0.9,1.2*22
$GPGSV,3,1,09,02,59,087,40,06,27,047,24,12,61,007,38,14,06,312,*7A
$GPGSV,3,2,09,19,09,050,19,24,56,178,38,25,37,316,35,29,36,254,31*73
$GPGSV,3,3,09,32,11,291,28,,,,,,,,,,,,*41
$GLGSV,2,1,06,74,77,030,27,73,38,132,33,75,29,331,37,84,62,010,31*6D
$GLGSV,2,2,06,83,11,032,23,85,54,240,28,,,,,,,,*68
08/09/2016 10:35:41.234	(255)	Cannot process message $GNGSA,A,3,,,,,,,,,,,,,1.7,0.9,1.5*27
$GPRMC,073542.000,A,3205.04165,N,03448.14853,E,1.4,19.4,090816,,A*78
$GPGGA,073542.000,3205.04165,N,03448.14853,E,1,12,0.9,056.58,M,17.1,M,,*6A
$GNGSA,A,3,25,24,12,02,29,32,06,,,,,,1.7,0.9,1.5*2B
$GNGSA,A,3,75,74,84,85,73,,,,,,,,1.7,0.9,1.5*23
$GNGSA,A,3,,,,,,,,,,,,,1.7,0.9,1.5*27
$GPGSV,3,1,09,02,59,087,40,06,27,047,24,12,61,007,38,14,06,312,*7A
$GPGSV,3,2,09,19,09,050,19,24,56,178,38,25,37,316,35,29,36,254,28*7B
$GPGSV,3,3,09,32,11,291,28,,,,,,,,,,,,*41
$GLGSV,2,1,06,74,77,030,35,73,38,132,33,75,29,331,36,84,62,010,31*6F
$GLGSV,2,2,06,83,11,032,,85,54,240,28,,,,,,,,*69
08/09/2016 10:35:42.197	(255)	Cannot process message $GNGSA,A,3,,,,,,,,,,,,,1.5,0.9,1.2*22
$GPRMC,073543.000,A,3205.04214,N,03448.14816,E,0.7,72.5,090816,,A*73
$GPGGA,073543.000,3205.04214,N,03448.14816,E,1,13,0.9,056.55,M,17.1,M,,*63
$GNGSA,A,3,25,24,12,02,29,32,06,,,,,,1.5,0.9,1.2*2E
$GNGSA,A,3,75,74,84,85,73,83,,,,,,,1.5,0.9,1.2*2D
$GNGSA,A,3,,,,,,,,,,,,,1.5,0.9,1.2*22
$GPGSV,3,1,09,02,59,087,38,06,27,047,24,12,61,007,38,14,06,312,*75
$GPGSV,3,2,09,19,09,050,19,24,56,178,36,25,37,316,35,29,36,254,29*74
$GPGSV,3,3,09,32,11,291,28,,,,,,,,,,,,*41
$GLGSV,2,1,06,74,77,030,38,73,38,132,33,75,29,331,35,84,62,010,32*62
$GLGSV,2,2,06,83,11,032,23,85,54,240,28,,,,,,,,*68
08/09/2016 10:35:43.222	(255)	Cannot process message $GNGSA,A,3,,,,,,,,,,,,,1.7,0.9,1.5*27
$GPRMC,073544.000,A,3205.04256,N,03448.14807,E,0.3,38.0,090816,,A*7D
$GPGGA,073544.000,3205.04256,N,03448.14807,E,1,12,0.9,056.54,M,17.1,M,,*62
$GNGSA,A,3,25,24,12,02,29,32,06,,,,,,1.7,0.9,1.5*2B
$GNGSA,A,3,75,74,84,85,73,,,,,,,,1.7,0.9,1.5*23
$GNGSA,A,3,,,,,,,,,,,,,1.7,0.9,1.5*27
$GPGSV,3,1,09,02,59,087,37,06,27,047,25,12,61,007,38,14,06,312,*7B
$GPGSV,3,2,09,19,09,050,19,24,56,178,33,25,37,316,34,29,36,254,28*71
$GPGSV,3,3,09,32,11,291,27,,,,,,,,,,,,*4E
$GLGSV,2,1,06,74,77,030,39,73,38,132,34,75,29,331,34,84,62,010,33*64
$GLGSV,2,2,06,83,11,032,,85,54,240,29,,,,,,,,*68
08/09/2016 10:35:44.227	(255)	Cannot process message $GNGSA,A,3,,,,,,,,,,,,,1.5,0.9,1.2*22
$GPRMC,073545.000,A,3205.04289,N,03448.14795,E,0.4,95.1,090816,,A*7B
$GPGGA,073545.000,3205.04289,N,03448.14795,E,1,13,0.9,056.18,M,17.1,M,,*6C
$GNGSA,A,3,25,24,12,02,29,32,06,,,,,,1.5,0.9,1.2*2E
$GNGSA,A,3,75,74,84,85,73,83,,,,,,,1.5,0.9,1.2*2D
$GNGSA,A,3,,,,,,,,,,,,,1.5,0.9,1.2*22
$GPGSV,3,1,10,02,59,087,36,06,27,047,25,12,61,007,37,14,06,312,*7D
$GPGSV,3,2,10,19,09,050,19,24,56,178,33,25,37,316,35,29,36,254,28*78
$GPGSV,3,3,10,32,11,291,27,33,24,246,,,,,,,,,*70
$GLGSV,2,1,06,74,77,030,39,73,38,132,35,75,29,331,34,84,62,010,33*65
$GLGSV,2,2,06,83,11,032,23,85,54,240,28,,,,,,,,*68
08/09/2016 10:35:45.275	(255)	Cannot process message $GNGSA,A,3,,,,,,,,,,,,,1.5,0.9,1.2*22
$GPRMC,073546.000,A,3205.04332,N,03448.14794,E,1.0,61.8,090816,,A*7F
$GPGGA,073546.000,3205.04332,N,03448.14794,E,1,13,0.9,055.75,M,17.1,M,,*67
$GNGSA,A,3,25,24,12,02,29,32,06,,,,,,1.5,0.9,1.2*2E
$GNGSA,A,3,75,74,84,85,73,83,,,,,,,1.5,0.9,1.2*2D
$GNGSA,A,3,,,,,,,,,,,,,1.5,0.9,1.2*22
$GPGSV,3,1,10,02,59,087,36,06,27,047,25,12,61,007,37,14,06,312,*7D
$GPGSV,3,2,10,19,09,050,19,24,56,178,33,25,37,316,34,29,36,254,27*76
$GPGSV,3,3,10,32,11,291,27,33,24,246,,,,,,,,,*70
$GLGSV,2,1,06,74,77,030,39,73,38,132,35,75,29,331,35,84,62,010,34*63
$GLGSV,2,2,06,83,11,032,23,85,54,240,28,,,,,,,,*68
08/09/2016 10:35:46.238	(255)	Cannot process message $GNGSA,A,3,,,,,,,,,,,,,1.5,0.9,1.2*22
$GPRMC,073547.000,A,3205.04372,N,03448.14792,E,0.4,9.4,090816,,A*4B
$GPGGA,073547.000,3205.04372,N,03448.14792,E,1,13,0.9,055.45,M,17.1,M,,*67
$GNGSA,A,3,25,24,12,02,29,32,06,,,,,,1.5,0.9,1.2*2E
$GNGSA,A,3,75,74,84,85,73,83,,,,,,,1.5,0.9,1.2*2D
$GNGSA,A,3,,,,,,,,,,,,,1.5,0.9,1.2*22
$GPGSV,3,1,10,02,59,087,35,06,27,047,28,12,61,007,38,14,06,312,*7C
$GPGSV,3,2,10,19,08,050,19,24,56,178,34,25,37,316,34,29,36,254,27*70
$GPGSV,3,3,10,32,11,291,27,33,24,246,,,,,,,,,*70
$GLGSV,2,1,06,74,77,030,39,73,38,132,36,75,29,331,35,84,62,010,34*60
$GLGSV,2,2,06,83,11,032,23,85,54,240,28,,,,,,,,*68
08/09/2016 10:35:47.220	(255)	Cannot process message $GNGSA,A,3,,,,,,,,,,,,,1.5,0.9,1.2*22
$GPRMC,073548.000,A,3205.04421,N,03448.14765,E,0.4,284.4,090816,,A*4A
$GPGGA,073548.000,3205.04421,N,03448.14765,E,1,13,0.9,055.03,M,17.1,M,,*63
$GNGSA,A,3,25,24,12,02,29,32,06,,,,,,1.5,0.9,1.2*2E
$GNGSA,A,3,75,74,84,85,73,83,,,,,,,1.5,0.9,1.2*2D
$GNGSA,A,3,,,,,,,,,,,,,1.5,0.9,1.2*22
$GPGSV,3,1,10,02,59,087,34,06,27,047,29,12,61,007,38,14,06,312,*7C
$GPGSV,3,2,10,19,08,050,19,24,56,178,35,25,37,316,34,29,36,254,27*71
$GPGSV,3,3,10,32,11,291,29,33,24,246,,,,,,,,,*7E
$GLGSV,2,1,06,74,77,030,39,73,38,132,36,75,29,331,37,84,62,010,34*62
$GLGSV,2,2,06,83,11,032,23,85,54,240,27,,,,,,,,*67
08/09/2016 10:35:48.226	(255)	Cannot process message $GNGSA,A,3,,,,,,,,,,,,,1.5,0.9,1.2*22
$GPRMC,073549.000,A,3205.04485,N,03448.14696,E,0.8,286.8,090816,,A*4A
$GPGGA,073549.000,3205.04485,N,03448.14696,E,1,13,0.9,055.05,M,17.1,M,,*67
$GNGSA,A,3,25,24,12,02,29,32,06,,,,,,1.5,0.9,1.2*2E
$GNGSA,A,3,75,74,84,85,73,83,,,,,,,1.5,0.9,1.2*2D
$GNGSA,A,3,,,,,,,,,,,,,1.5,0.9,1.2*22
$GPGSV,3,1,10,02,59,087,34,06,27,047,29,12,61,007,38,14,06,312,*7C
$GPGSV,3,2,10,19,08,050,19,24,56,178,36,25,37,316,33,29,36,254,26*74
$GPGSV,3,3,10,32,11,291,29,33,24,246,,,,,,,,,*7E
$GLGSV,2,1,06,74,77,030,39,73,38,132,37,75,29,331,36,84,62,010,34*62
$GLGSV,2,2,06,83,11,032,23,85,54,240,27,,,,,,,,*67
08/09/2016 10:35:49.234	(255)	Cannot process message $GNGSA,A,3,,,,,,,,,,,,,1.7,0.9,1.5*27
$GPRMC,073550.000,A,3205.04514,N,03448.14621,E,1.4,257.0,090816,,A*4E
$GPGGA,073550.000,3205.04514,N,03448.14621,E,1,12,0.9,054.89,M,17.1,M,,*6E
$GNGSA,A,3,25,24,12,02,29,32,06,,,,,,1.7,0.9,1.5*2B
$GNGSA,A,3,75,74,84,85,73,,,,,,,,1.7,0.9,1.5*23
$GNGSA,A,3,,,,,,,,,,,,,1.7,0.9,1.5*27
$GPGSV,3,1,09,02,59,087,34,06,27,047,29,12,61,007,37,14,06,312,*7B
$GPGSV,3,2,09,19,08,050,19,24,56,178,37,25,37,316,35,29,36,254,26*7B
$GPGSV,3,3,09,32,11,291,29,,,,,,,,,,,,*40
$GLGSV,2,1,06,74,77,030,38,73,38,132,36,75,29,331,37,84,62,010,34*63
$GLGSV,2,2,06,83,11,032,,85,54,240,29,,,,,,,,*68
08/09/2016 10:35:50.196	(255)	Cannot process message $GNGSA,A,3,,,,,,,,,,,,,1.7,0.9,1.5*27
$GPRMC,073551.000,A,3205.04531,N,03448.14549,E,1.3,213.8,090816,,A*4A
$GPGGA,073551.000,3205.04531,N,03448.14549,E,1,12,0.9,054.57,M,17.1,M,,*66
$GNGSA,A,3,25,24,12,02,29,32,06,,,,,,1.7,0.9,1.5*2B
$GNGSA,A,3,75,74,84,85,73,,,,,,,,1.7,0.9,1.5*23
$GNGSA,A,3,,,,,,,,,,,,,1.7,0.9,1.5*27
$GPGSV,3,1,09,02,59,087,34,06,27,047,29,12,61,007,37,14,06,312,*7B
$GPGSV,3,2,09,19,08,050,19,24,56,178,36,25,37,316,35,29,36,254,28*74
$GPGSV,3,3,09,32,11,291,29,,,,,,,,,,,,*40
$GLGSV,2,1,06,74,77,030,38,73,38,132,36,75,29,331,37,84,62,010,34*63
$GLGSV,2,2,06,83,11,032,,85,54,240,29,,,,,,,,*68
08/09/2016 10:35:51.200	(255)	Cannot process message $GNGSA,A,3,,,,,,,,,,,,,1.5,0.9,1.2*22
$GPRMC,073552.000,A,3205.04536,N,03448.14498,E,1.4,203.2,090816,,A*4F
$GPGGA,073552.000,3205.04536,N,03448.14498,E,1,13,0.9,054.04,M,17.1,M,,*68
$GNGSA,A,3,25,24,12,02,29,32,06,,,,,,1.5,0.9,1.2*2E
$GNGSA,A,3,75,74,84,85,73,83,,,,,,,1.5,0.9,1.2*2D
$GNGSA,A,3,,,,,,,,,,,,,1.5,0.9,1.2*22
$GPGSV,3,1,09,02,59,087,34,06,27,047,29,12,61,007,37,14,06,312,*7B
$GPGSV,3,2,09,19,08,050,19,24,56,178,35,25,37,316,35,29,36,254,27*78
$GPGSV,3,3,09,32,11,291,29,,,,,,,,,,,,*40
$GLGSV,2,1,06,74,77,030,38,73,38,132,34,75,29,331,38,84,62,010,34*6E
$GLGSV,2,2,06,83,11,032,23,85,54,240,32,,,,,,,,*63
08/09/2016 10:35:52.225	(255)	Cannot process message $GNGSA,A,3,,,,,,,,,,,,,1.5,0.9,1.2*22
$GPRMC,073553.000,A,3205.04555,N,03448.14484,E,1.7,185.2,090816,,A*48
$GPGGA,073553.000,3205.04555,N,03448.14484,E,1,13,0.9,053.20,M,17.1,M,,*60
$GNGSA,A,3,25,24,12,02,29,32,06,,,,,,1.5,0.9,1.2*2E
$GNGSA,A,3,75,74,84,85,73,83,,,,,,,1.5,0.9,1.2*2D
$GNGSA,A,3,,,,,,,,,,,,,1.5,0.9,1.2*22
$GPGSV,3,1,09,02,59,087,33,06,27,047,27,12,61,007,36,14,06,312,*73
$GPGSV,3,2,09,19,08,050,19,24,56,178,34,25,37,316,36,29,36,254,26*7B
$GPGSV,3,3,09,32,11,291,28,,,,,,,,,,,,*41
$GLGSV,2,1,06,74,77,030,37,73,38,132,31,75,29,331,39,84,62,010,34*65
$GLGSV,2,2,06,83,11,032,23,85,55,240,34,,,,,,,,*64
08/09/2016 10:35:53.225	(255)	Cannot process message $GNGSA,A,3,,,,,,,,,,,,,1.7,0.9,1.5*27
$GPRMC,073554.000,A,3205.04561,N,03448.14450,E,1.6,173.0,090816,,A*4B
$GPGGA,073554.000,3205.04561,N,03448.14450,E,1,12,0.9,052.34,M,17.1,M,,*6C
$GNGSA,A,3,25,24,12,02,29,32,06,,,,,,1.7,0.9,1.5*2B
$GNGSA,A,3,75,74,84,85,73,,,,,,,,1.7,0.9,1.5*23
$GNGSA,A,3,,,,,,,,,,,,,1.7,0.9,1.5*27
$GPGSV,3,1,09,02,59,087,35,06,27,047,27,12,61,007,38,14,06,312,*7B
$GPGSV,3,2,09,19,08,050,19,24,56,178,33,25,37,316,38,29,36,254,28*7C
$GPGSV,3,3,09,32,11,291,28,,,,,,,,,,,,*41
$GLGSV,2,1,06,74,77,030,37,73,38,132,32,75,29,331,39,84,62,010,34*66
$GLGSV,2,2,06,83,11,032,,85,55,240,34,,,,,,,,*65
08/09/2016 10:35:54.208	(255)	Cannot process message $GNGSA,A,3,,,,,,,,,,,,,1.7,0.9,1.5*27
$GPRMC,073555.000,A,3205.04544,N,03448.14428,E,2.1,161.4,090816,,A*41
$GPGGA,073555.000,3205.04544,N,03448.14428,E,1,12,0.9,051.87,M,17.1,M,,*6E
$GNGSA,A,3,25,24,12,02,29,32,06,,,,,,1.7,0.9,1.5*2B
$GNGSA,A,3,75,74,84,85,73,,,,,,,,1.7,0.9,1.5*23
$GNGSA,A,3,,,,,,,,,,,,,1.7,0.9,1.5*27
$GPGSV,3,1,09,02,59,087,35,06,27,047,27,12,61,007,37,14,06,312,*74
$GPGSV,3,2,09,19,08,050,19,24,56,178,36,25,37,316,40,29,36,254,29*77
$GPGSV,3,3,09,32,11,291,27,,,,,,,,,,,,*4E
$GLGSV,2,1,06,74,77,030,37,73,38,132,32,75,29,331,40,84,62,010,34*68
$GLGSV,2,2,06,83,11,032,,85,55,240,33,,,,,,,,*62
08/09/2016 10:35:55.192	(255)	Cannot process message $GNGSA,A,3,,,,,,,,,,,,,1.7,0.9,1.5*27
$GPRMC,073556.000,A,3205.04501,N,03448.14427,E,2.5,164.8,090816,,A*41
$GPGGA,073556.000,3205.04501,N,03448.14427,E,1,12,0.9,051.54,M,17.1,M,,*6D
$GNGSA,A,3,25,24,12,02,29,32,06,,,,,,1.7,0.9,1.5*2B
$GNGSA,A,3,75,74,84,85,73,,,,,,,,1.7,0.9,1.5*23
$GNGSA,A,3,,,,,,,,,,,,,1.7,0.9,1.5*27
$GPGSV,3,1,09,02,59,087,36,06,27,047,27,12,61,007,38,14,06,312,*78
$GPGSV,3,2,09,19,08,050,19,24,56,178,35,25,37,316,39,29,36,254,28*7B
$GPGSV,3,3,09,32,11,291,27,,,,,,,,,,,,*4E
$GLGSV,2,1,06,74,77,030,37,73,38,132,30,75,29,331,40,84,62,010,34*6A
$GLGSV,2,2,06,83,11,032,,85,55,240,32,,,,,,,,*63
08/09/2016 10:35:56.197	(255)	Cannot process message $GNGSA,A,3,,,,,,,,,,,,,1.7,0.9,1.5*27
$GPRMC,073557.000,A,3205.04461,N,03448.14399,E,2.4,168.7,090816,,A*47
$GPGGA,073557.000,3205.04461,N,03448.14399,E,1,12,0.9,050.94,M,17.1,M,,*64
$GNGSA,A,3,25,24,12,02,29,32,06,,,,,,1.7,0.9,1.5*2B
$GNGSA,A,3,75,74,84,85,73,,,,,,,,1.7,0.9,1.5*23
$GNGSA,A,3,,,,,,,,,,,,,1.7,0.9,1.5*27
$GPGSV,3,1,09,02,59,087,36,06,27,047,26,12,61,007,38,14,06,312,*79
$GPGSV,3,2,09,19,08,050,19,24,56,178,36,25,37,316,40,29,36,254,27*79
$GPGSV,3,3,09,32,11,291,27,,,,,,,,,,,,*4E
$GLGSV,2,1,06,74,77,030,38,73,38,132,31,75,29,331,41,84,62,010,34*65
$GLGSV,2,2,06,83,11,032,,85,55,240,29,,,,,,,,*69
08/09/2016 10:35:57.309	(255)	Cannot process message $GNGSA,A,3,,,,,,,,,,,,,1.5,0.9,1.2*22
$GPRMC,073558.000,A,3205.04404,N,03448.14373,E,1.0,189.7,090816,,A*47
$GPGGA,073558.000,3205.04404,N,03448.14373,E,1,13,0.9,050.44,M,17.1,M,,*60
$GNGSA,A,3,25,24,12,02,29,32,06,,,,,,1.5,0.9,1.2*2E
$GNGSA,A,3,75,74,84,85,73,83,,,,,,,1.5,0.9,1.2*2D
$GNGSA,A,3,,,,,,,,,,,,,1.5,0.9,1.2*22
$GPGSV,3,1,09,02,59,087,35,06,27,047,26,12,61,007,39,14,06,312,*7B
$GPGSV,3,2,09,19,08,050,18,24,56,178,36,25,37,316,39,29,36,254,26*77
$GPGSV,3,3,09,32,11,291,25,,,,,,,,,,,,*4C
$GLGSV,2,1,06,74,77,030,38,73,38,132,34,75,29,331,41,84,62,010,34*60
$GLGSV,2,2,06,83,11,032,23,85,55,240,27,,,,,,,,*66
08/09/2016 10:35:58.231	(255)	Cannot process message $GNGSA,A,3,,,,,,,,,,,,,1.5,0.9,1.2*22
$GPRMC,073559.000,A,3205.04379,N,03448.14358,E,1.2,168.2,090816,,A*4A
$GPGGA,073559.000,3205.04379,N,03448.14358,E,1,13,0.9,049.90,M,17.1,M,,*64
$GNGSA,A,3,25,24,12,02,29,32,06,,,,,,1.5,0.9,1.2*2E
$GNGSA,A,3,75,74,84,85,73,83,,,,,,,1.5,0.9,1.2*2D
$GNGSA,A,3,,,,,,,,,,,,,1.5,0.9,1.2*22
$GPGSV,3,1,10,02,59,087,35,06,27,047,26,12,61,007,39,14,06,312,*73
$GPGSV,3,2,10,19,08,050,18,24,56,178,36,25,37,316,39,29,36,254,26*7F
$GPGSV,3,3,10,32,11,291,24,33,24,246,,,,,,,,,*73
$GLGSV,2,1,06,74,78,032,38,73,38,132,32,75,29,331,41,84,62,010,34*6B
$GLGSV,2,2,06,83,11,032,24,85,55,240,28,,,,,,,,*6E
08/09/2016 10:35:59.215	(255)	Cannot process message $GNGSA,A,3,,,,,,,,,,,,,1.5,0.9,1.2*22
$GPRMC,073600.000,A,3205.04343,N,03448.14357,E,1.6,172.1,090816,,A*4F
$GPGGA,073600.000,3205.04343,N,03448.14357,E,1,13,0.9,049.73,M,17.1,M,,*60
$GNGSA,A,3,25,24,12,02,29,32,06,,,,,,1.5,0.9,1.2*2E
$GNGSA,A,3,75,74,84,85,73,83,,,,,,,1.5,0.9,1.2*2D
$GNGSA,A,3,,,,,,,,,,,,,1.5,0.9,1.2*22
$GPGSV,3,1,10,02,59,087,36,06,27,047,26,12,61,007,39,14,06,312,*70
$GPGSV,3,2,10,19,08,050,18,24,56,178,37,25,37,316,39,29,36,254,27*7F
$GPGSV,3,3,10,32,11,291,25,33,24,246,,,,,,,,,*72
$GLGSV,2,1,06,74,78,032,38,73,38,132,38,75,29,331,41,84,62,010,34*61
$GLGSV,2,2,06,83,11,032,23,85,55,240,29,,,,,,,,*68
08/09/2016 10:36:00.222	(255)	Cannot process message $GNGSA,A,3,,,,,,,,,,,,,1.5,0.9,1.2*22
$GPRMC,073601.000,A,3205.04316,N,03448.14307,E,2.2,168.9,090816,,A*4F
$GPGGA,073601.000,3205.04316,N,03448.14307,E,1,13,0.9,050.08,M,17.1,M,,*60
$GNGSA,A,3,25,24,12,02,29,32,06,,,,,,1.5,0.9,1.2*2E
$GNGSA,A,3,75,74,84,85,73,83,,,,,,,1.5,0.9,1.2*2D
$GNGSA,A,3,,,,,,,,,,,,,1.5,0.9,1.2*22
$GPGSV,3,1,10,02,59,087,36,06,27,047,25,12,61,007,39,14,06,312,*73
$GPGSV,3,2,10,19,08,050,18,24,56,178,37,25,37,316,40,29,36,254,27*71
$GPGSV,3,3,10,32,11,291,25,33,24,246,,,,,,,,,*72
$GLGSV,2,1,06,74,78,032,37,73,38,133,38,75,29,331,41,84,62,010,34*6F
$GLGSV,2,2,06,83,11,032,24,85,55,240,28,,,,,,,,*6E
08/09/2016 10:36:01.246	(255)	Cannot process message $GNGSA,A,3,,,,,,,,,,,,,1.5,0.9,1.2*22
$GPRMC,073602.000,A,3205.04261,N,03448.14276,E,2.2,175.2,090816,,A*4D
$GPGGA,073602.000,3205.04261,N,03448.14276,E,1,13,0.9,049.98,M,17.1,M,,*64
$GNGSA,A,3,25,24,12,02,29,32,06,,,,,,1.5,0.9,1.2*2E
$GNGSA,A,3,75,74,84,85,73,83,,,,,,,1.5,0.9,1.2*2D
$GNGSA,A,3,,,,,,,,,,,,,1.5,0.9,1.2*22
$GPGSV,3,1,09,02,59,087,36,06,27,047,26,12,61,007,39,14,06,312,*78
$GPGSV,3,2,09,19,08,050,18,24,56,178,37,25,37,316,41,29,36,254,27*78
$GPGSV,3,3,09,32,11,291,25,,,,,,,,,,,,*4C
$GLGSV,2,1,06,74,78,032,38,73,38,133,38,75,29,331,41,84,62,010,35*61
$GLGSV,2,2,06,83,11,032,23,85,55,240,28,,,,,,,,*69
08/09/2016 10:36:02.229	(255)	Cannot process message $GNGSA,A,3,,,,,,,,,,,,,1.5,0.9,1.2*22
$GPRMC,073603.000,A,3205.04210,N,03448.14274,E,2.3,175.1,090816,,A*4A
$GPGGA,073603.000,3205.04210,N,03448.14274,E,1,13,0.9,050.05,M,17.1,M,,*6D
$GNGSA,A,3,25,24,12,02,29,32,06,,,,,,1.5,0.9,1.2*2E
$GNGSA,A,3,75,74,84,85,73,83,,,,,,,1.5,0.9,1.2*2D
$GNGSA,A,3,,,,,,,,,,,,,1.5,0.9,1.2*22
$GPGSV,3,1,09,02,59,087,35,06,27,047,26,12,61,007,39,14,06,312,*7B
$GPGSV,3,2,09,19,08,050,17,24,56,178,37,25,37,316,41,29,36,254,29*79
$GPGSV,3,3,09,32,11,291,25,,,,,,,,,,,,*4C
$GLGSV,2,1,06,74,78,032,38,73,38,133,39,75,29,331,41,84,62,010,35*60
$GLGSV,2,2,06,83,11,032,23,85,55,240,29,,,,,,,,*68
08/09/2016 10:36:03.197	(255)	Cannot process message $GNGSA,A,3,,,,,,,,,,,,,1.5,0.9,1.2*22
$GPRMC,073604.000,A,3205.04185,N,03448.14280,E,2.0,179.3,090816,,A*44
$GPGGA,073604.000,3205.04185,N,03448.14280,E,1,13,0.9,050.18,M,17.1,M,,*62
$GNGSA,A,3,25,24,12,02,29,32,06,,,,,,1.5,0.9,1.2*2E
$GNGSA,A,3,75,74,84,85,73,83,,,,,,,1.5,0.9,1.2*2D
$GNGSA,A,3,,,,,,,,,,,,,1.5,0.9,1.2*22
$GPGSV,3,1,09,02,59,087,33,06,27,047,26,12,61,007,38,14,06,312,*7C
$GPGSV,3,2,09,19,08,050,17,24,56,178,37,25,37,316,37,29,36,254,29*78
$GPGSV,3,3,09,32,11,291,24,,,,,,,,,,,,*4D
$GLGSV,2,1,06,74,78,032,39,73,38,133,39,75,29,331,41,84,62,010,35*61
$GLGSV,2,2,06,83,11,032,23,85,55,240,35,,,,,,,,*65
08/09/2016 10:36:04.210	(255)	Cannot process message $GNGSA,A,3,,,,,,,,,,,,,1.5,0.9,1.2*22
$GPRMC,073605.000,A,3205.04158,N,03448.14272,E,2.0,178.6,090816,,A*4C
$GPGGA,073605.000,3205.04158,N,03448.14272,E,1,13,0.9,049.85,M,17.1,M,,*62
$GNGSA,A,3,25,24,12,02,29,32,06,,,,,,1.5,0.9,1.2*2E
$GNGSA,A,3,75,74,84,85,73,83,,,,,,,1.5,0.9,1.2*2D
$GNGSA,A,3,,,,,,,,,,,,,1.5,0.9,1.2*22
$GPGSV,3,1,09,02,59,087,33,06,27,047,26,12,61,007,38,14,06,312,*7C
$GPGSV,3,2,09,19,08,050,17,24,56,178,37,25,37,316,36,29,36,254,30*71
$GPGSV,3,3,09,32,11,291,24,,,,,,,,,,,,*4D
$GLGSV,2,1,06,74,78,032,39,73,38,133,38,75,29,331,40,84,62,010,35*61
$GLGSV,2,2,06,83,11,032,24,85,55,240,35,,,,,,,,*62
08/09/2016 10:36:05.275	(255)	Cannot process message $GNGSA,A,3,,,,,,,,,,,,,1.5,0.9,1.2*22
$GPRMC,073606.000,A,3205.04093,N,03448.14261,E,1.9,179.5,090816,,A*43
$GPGGA,073606.000,3205.04093,N,03448.14261,E,1,13,0.9,049.40,M,17.1,M,,*6C
$GNGSA,A,3,25,24,12,02,29,32,06,,,,,,1.5,0.9,1.2*2E
$GNGSA,A,3,75,74,84,85,73,83,,,,,,,1.5,0.9,1.2*2D
$GNGSA,A,3,,,,,,,,,,,,,1.5,0.9,1.2*22
$GPGSV,3,1,09,02,59,087,36,06,27,047,27,12,61,007,38,14,06,312,*78
$GPGSV,3,2,09,19,08,050,17,24,56,178,36,25,37,316,34,29,36,254,34*76
$GPGSV,3,3,09,32,11,291,24,,,,,,,,,,,,*4D
$GLGSV,2,1,06,74,78,032,39,73,38,133,37,75,29,331,40,84,62,010,35*6E
$GLGSV,2,2,06,83,11,032,25,85,55,240,33,,,,,,,,*65
08/09/2016 10:36:06.199	(255)	Cannot process message $GNGSA,A,3,,,,,,,,,,,,,1.7,0.9,1.5*27
$GPRMC,073607.000,A,3205.04016,N,03448.14272,E,2.1,169.2,090816,,A*40
$GPGGA,073607.000,3205.04016,N,03448.14272,E,1,12,0.9,048.87,M,17.1,M,,*69
$GNGSA,A,3,25,24,12,02,29,32,06,,,,,,1.7,0.9,1.5*2B
$GNGSA,A,3,75,74,84,85,73,,,,,,,,1.7,0.9,1.5*23
$GNGSA,A,3,,,,,,,,,,,,,1.7,0.9,1.5*27
$GPGSV,3,1,09,02,59,087,37,06,27,047,28,12,61,007,38,14,06,312,*76
$GPGSV,3,2,09,19,08,050,,24,56,178,37,25,37,316,34,29,36,254,36*73
$GPGSV,3,3,09,32,11,291,24,,,,,,,,,,,,*4D
$GLGSV,2,1,06,74,78,032,39,73,38,133,36,75,29,331,40,84,62,010,35*6F
$GLGSV,2,2,06,83,11,032,,85,55,240,33,,,,,,,,*62
08/09/2016 10:36:07.224	(255)	Cannot process message $GNGSA,A,3,,,,,,,,,,,,,1.5,0.9,1.2*22
$GPRMC,073608.000,A,3205.03977,N,03448.14391,E,2.3,170.6,090816,,A*44
$GPGGA,073608.000,3205.03977,N,03448.14391,E,1,13,0.9,048.13,M,17.1,M,,*6F
$GNGSA,A,3,25,24,12,02,29,32,06,,,,,,1.5,0.9,1.2*2E
$GNGSA,A,3,75,74,84,85,73,83,,,,,,,1.5,0.9,1.2*2D
$GNGSA,A,3,,,,,,,,,,,,,1.5,0.9,1.2*22
$GPGSV,3,1,09,02,59,087,37,06,27,047,28,12,61,007,38,14,06,312,*76
$GPGSV,3,2,09,19,08,050,,24,56,178,37,25,37,316,34,29,36,254,37*72
$GPGSV,3,3,09,32,11,291,25,,,,,,,,,,,,*4C
$GLGSV,2,1,06,74,78,032,39,73,38,133,36,75,29,331,40,84,62,010,35*6F
$GLGSV,2,2,06,83,11,032,25,85,55,240,32,,,,,,,,*64
08/09/2016 10:36:08.228	(255)	Cannot process message $GNGSA,A,3,,,,,,,,,,,,,1.5,0.9,1.2*22
$GPRMC,073609.000,A,3205.03929,N,03448.14492,E,2.5,180.6,090816,,A*43
$GPGGA,073609.000,3205.03929,N,03448.14492,E,1,13,0.9,047.55,M,17.1,M,,*6C
$GNGSA,A,3,25,24,12,02,29,32,06,,,,,,1.5,0.9,1.2*2E
$GNGSA,A,3,75,74,84,85,73,83,,,,,,,1.5,0.9,1.2*2D
$GNGSA,A,3,,,,,,,,,,,,,1.5,0.9,1.2*22
$GPGSV,3,1,09,02,59,087,37,06,27,047,29,12,61,007,38,14,06,312,*77
$GPGSV,3,2,09,19,08,050,,24,56,178,37,25,37,316,32,29,36,254,37*74
$GPGSV,3,3,09,32,11,291,25,,,,,,,,,,,,*4C
$GLGSV,2,1,06,74,78,032,39,73,38,133,36,75,29,331,40,84,62,010,35*6F
$GLGSV,2,2,06,83,11,032,25,85,55,240,32,,,,,,,,*64
08/09/2016 10:36:09.259	(255)	Cannot process message $GNGSA,A,3,,,,,,,,,,,,,1.5,0.9,1.2*22
$GPRMC,073610.000,A,3205.03855,N,03448.14512,E,2.1,172.4,090816,,A*43
$GPGGA,073610.000,3205.03855,N,03448.14512,E,1,13,0.9,047.22,M,17.1,M,,*67
$GNGSA,A,3,25,24,12,02,29,32,06,,,,,,1.5,0.9,1.2*2E
$GNGSA,A,3,75,74,84,85,73,83,,,,,,,1.5,0.9,1.2*2D
$GNGSA,A,3,,,,,,,,,,,,,1.5,0.9,1.2*22
$GPGSV,3,1,09,02,59,087,36,06,27,047,31,12,61,007,38,14,06,312,*7F
$GPGSV,3,2,09,19,08,050,,24,56,178,37,25,37,316,32,29,36,254,37*74
$GPGSV,3,3,09,32,11,291,26,,,,,,,,,,,,*4F
$GLGSV,2,1,06,74,78,032,39,73,38,133,36,75,29,331,41,84,62,010,35*6E
$GLGSV,2,2,06,83,11,032,25,85,55,240,32,,,,,,,,*64
08/09/2016 10:36:10.222	(255)	Cannot process message $GNGSA,A,3,,,,,,,,,,,,,1.5,0.9,1.2*22
$GPRMC,073611.000,A,3205.03826,N,03448.14521,E,2.1,172.5,090816,,A*47
$GPGGA,073611.000,3205.03826,N,03448.14521,E,1,13,0.9,046.52,M,17.1,M,,*64
$GNGSA,A,3,25,24,12,02,29,32,06,,,,,,1.5,0.9,1.2*2E
$GNGSA,A,3,75,74,84,85,73,83,,,,,,,1.5,0.9,1.2*2D
$GNGSA,A,3,,,,,,,,,,,,,1.5,0.9,1.2*22
$GPGSV,3,1,09,02,59,087,37,06,27,047,31,12,61,007,38,14,06,312,*7E
$GPGSV,3,2,09,19,08,050,,24,56,178,38,25,37,316,32,29,36,254,36*7A
$GPGSV,3,3,09,32,11,291,26,,,,,,,,,,,,*4F
$GLGSV,2,1,06,74,78,032,39,73,38,133,37,75,29,331,42,84,62,010,35*6C
$GLGSV,2,2,06,83,11,032,25,85,55,240,34,,,,,,,,*62
08/09/2016 10:36:11.205	(255)	Cannot process message $GNGSA,A,3,,,,,,,,,,,,,2.0,1.1,1.7*28
$GPRMC,073612.000,A,3205.03772,N,03448.14506,E,1.7,171.9,090816,,A*45
$GPGGA,073612.000,3205.03772,N,03448.14506,E,1,11,1.1,046.07,M,17.1,M,,*67
$GNGSA,A,3,25,24,12,02,29,32,06,,,,,,2.0,1.1,1.7*24
$GNGSA,A,3,75,74,84,85,,,,,,,,,2.0,1.1,1.7*28
$GNGSA,A,3,,,,,,,,,,,,,2.0,1.1,1.7*28
$GPGSV,3,1,09,02,59,087,38,06,27,047,31,12,61,007,38,14,06,312,*71
$GPGSV,3,2,09,19,08,050,,24,56,178,37,25,37,316,33,29,36,254,36*74
$GPGSV,3,3,09,32,11,291,27,,,,,,,,,,,,*4E
$GLGSV,2,1,06,74,78,032,38,73,38,133,,75,29,331,41,84,62,010,35*6A
$GLGSV,2,2,06,83,11,032,,85,55,240,36,,,,,,,,*67
08/09/2016 10:36:12.212	(255)	Cannot process message $GNGSA,A,3,,,,,,,,,,,,,1.7,0.9,1.5*27
$GPRMC,073613.000,A,3205.03714,N,03448.14446,E,1.9,183.0,090816,,A*4B
$GPGGA,073613.000,3205.03714,N,03448.14446,E,1,12,0.9,046.34,M,17.1,M,,*69
$GNGSA,A,3,25,24,12,02,29,32,06,,,,,,1.7,0.9,1.5*2B
$GNGSA,A,3,75,74,84,85,73,,,,,,,,1.7,0.9,1.5*23
$GNGSA,A,3,,,,,,,,,,,,,1.7,0.9,1.5*27
$GPGSV,3,1,10,02,59,087,37,06,27,047,29,12,61,007,38,14,06,312,*7F
$GPGSV,3,2,10,19,08,050,17,24,56,178,37,25,37,316,33,29,36,254,36*7A
$GPGSV,3,3,10,32,11,291,29,33,24,246,,,,,,,,,*7E
$GLGSV,2,1,06,74,78,032,36,73,38,133,36,75,30,331,40,84,62,010,35*68
$GLGSV,2,2,06,83,11,032,,85,55,240,36,,,,,,,,*67
08/09/2016 10:36:13.237	(255)	Cannot process message $GNGSA,A,3,,,,,,,,,,,,,2.1,0.9,1.8*2F
$GPRMC,073614.000,A,3205.03663,N,03448.14434,E,1.7,166.8,090816,,A*45
$GPGGA,073614.000,3205.03663,N,03448.14434,E,1,11,0.9,046.10,M,17.1,M,,*6F
$GNGSA,A,3,25,24,12,02,29,06,,,,,,,2.1,0.9,1.8*22
$GNGSA,A,3,75,74,84,85,73,,,,,,,,2.1,0.9,1.8*2B
$GNGSA,A,3,,,,,,,,,,,,,2.1,0.9,1.8*2F
$GPGSV,3,1,10,02,59,087,37,06,27,047,26,12,61,007,38,14,06,312,*70
$GPGSV,3,2,10,19,08,050,,24,56,178,37,25,37,316,34,29,36,254,36*7B
$GPGSV,3,3,10,32,11,291,,33,24,246,,,,,,,,,*75
$GLGSV,2,1,06,74,78,032,35,73,38,133,35,75,30,331,39,84,62,010,36*65
$GLGSV,2,2,06,83,11,032,,85,55,240,37,,,,,,,,*66
08/09/2016 10:36:14.225	(255)	Cannot process message $GNGSA,A,3,,,,,,,,,,,,,1.7,0.9,1.5*27
$GPRMC,073615.000,A,3205.03612,N,03448.14462,E,1.9,185.5,090816,,A*4F
$GPGGA,073615.000,3205.03612,N,03448.14462,E,1,12,0.9,046.04,M,17.1,M,,*6D
$GNGSA,A,3,25,24,12,02,29,32,06,,,,,,1.7,0.9,1.5*2B
$GNGSA,A,3,75,74,84,85,73,,,,,,,,1.7,0.9,1.5*23
$GNGSA,A,3,,,,,,,,,,,,,1.7,0.9,1.5*27
$GPGSV,3,1,10,02,59,087,35,06,27,047,26,12,61,007,38,14,06,312,*72
$GPGSV,3,2,10,19,08,050,,24,56,178,37,25,37,316,34,29,36,254,39*74
$GPGSV,3,3,10,32,11,291,33,33,24,246,,,,,,,,,*75
$GLGSV,2,1,06,74,78,032,35,73,38,133,37,75,30,331,37,84,62,010,36*69
$GLGSV,2,2,06,83,11,032,,85,55,240,38,,,,,,,,*69
08/09/2016 10:36:15.231	(255)	Cannot process message $GNGSA,A,3,,,,,,,,,,,,,1.5,0.9,1.2*22
$GPRMC,073616.000,A,3205.03507,N,03448.14462,E,2.1,207.3,090816,,A*4F
$GPGGA,073616.000,3205.03507,N,03448.14462,E,1,13,0.9,046.92,M,17.1,M,,*67
$GNGSA,A,3,25,24,12,02,29,32,06,,,,,,1.5,0.9,1.2*2E
$GNGSA,A,3,75,74,84,85,73,83,,,,,,,1.5,0.9,1.2*2D
$GNGSA,A,3,,,,,,,,,,,,,1.5,0.9,1.2*22
$GPGSV,3,1,10,02,59,087,31,06,27,047,27,12,61,007,39,14,06,312,*76
$GPGSV,3,2,10,19,08,050,,24,56,178,37,25,37,316,34,29,36,254,39*74
$GPGSV,3,3,10,32,11,291,32,33,24,246,,,,,,,,,*74
$GLGSV,2,1,06,74,78,032,34,73,38,133,37,75,30,331,36,84,62,010,35*6A
$GLGSV,2,2,06,83,11,032,23,85,55,240,38,,,,,,,,*68
08/09/2016 10:36:16.214	(255)	Cannot process message $GNGSA,A,3,,,,,,,,,,,,,1.5,0.9,1.2*22
$GPRMC,073617.000,A,3205.03414,N,03448.14452,E,1.8,178.6,090816,,A*4A
$GPGGA,073617.000,3205.03414,N,03448.14452,E,1,13,0.9,047.44,M,17.1,M,,*6C
$GNGSA,A,3,25,24,12,02,29,32,06,,,,,,1.5,0.9,1.2*2E
$GNGSA,A,3,75,74,84,85,73,83,,,,,,,1.5,0.9,1.2*2D
$GNGSA,A,3,,,,,,,,,,,,,1.5,0.9,1.2*22
$GPGSV,3,1,10,02,59,086,29,06,27,047,29,12,61,007,39,14,06,312,*70
$GPGSV,3,2,10,19,08,050,,24,56,178,36,25,37,316,33,29,36,254,39*72
$GPGSV,3,3,10,32,11,291,31,33,24,246,,,,,,,,,*77
$GLGSV,2,1,06,74,78,032,35,73,38,133,37,75,30,331,34,84,62,010,35*69
$GLGSV,2,2,06,83,11,032,23,85,55,240,38,,,,,,,,*68
08/09/2016 10:36:17.263	(255)	Cannot process message $GNGSA,A,3,,,,,,,,,,,,,1.5,0.9,1.2*22
$GPRMC,073618.000,A,3205.03336,N,03448.14493,E,1.8,166.9,090816,,A*4F
$GPGGA,073618.000,3205.03336,N,03448.14493,E,1,13,0.9,047.84,M,17.1,M,,*65
$GNGSA,A,3,25,24,12,02,29,32,06,,,,,,1.5,0.9,1.2*2E
$GNGSA,A,3,75,74,84,85,73,83,,,,,,,1.5,0.9,1.2*2D
$GNGSA,A,3,,,,,,,,,,,,,1.5,0.9,1.2*22
$GPGSV,3,1,09,02,59,086,28,06,27,047,29,12,61,007,39,14,06,312,*79
$GPGSV,3,2,09,19,08,050,,24,56,178,34,25,37,316,33,29,36,254,38*79
$GPGSV,3,3,09,32,11,291,31,,,,,,,,,,,,*49
$GLGSV,2,1,06,74,78,032,36,73,38,133,37,75,30,331,33,84,62,010,35*6D
$GLGSV,2,2,06,83,11,032,23,85,55,240,39,,,,,,,,*69
08/09/2016 10:36:18.225	(255)	Cannot process message $GNGSA,A,3,,,,,,,,,,,,,1.5,0.9,1.2*22
$GPRMC,073619.000,A,3205.03238,N,03448.14470,E,1.2,178.9,090816,,A*49
$GPGGA,073619.000,3205.03238,N,03448.14470,E,1,13,0.9,048.37,M,17.1,M,,*61
$GNGSA,A,3,25,24,12,02,29,32,06,,,,,,1.5,0.9,1.2*2E
$GNGSA,A,3,75,74,84,85,73,83,,,,,,,1.5,0.9,1.2*2D
$GNGSA,A,3,,,,,,,,,,,,,1.5,0.9,1.2*22
$GPGSV,3,1,09,02,59,086,24,06,27,047,27,12,61,007,39,14,06,312,*7B
$GPGSV,3,2,09,19,08,050,,24,56,178,30,25,37,316,32,29,36,254,39*7D
$GPGSV,3,3,09,32,11,291,30,,,,,,,,,,,,*48
$GLGSV,2,1,06,74,78,032,36,73,38,133,36,75,30,331,33,84,62,010,35*6C
$GLGSV,2,2,06,83,10,032,23,85,55,240,38,,,,,,,,*69
08/09/2016 10:36:19.233	(255)	Cannot process message $GNGSA,A,3,,,,,,,,,,,,,1.5,0.9,1.2*22
$GPRMC,073620.000,A,3205.03181,N,03448.14469,E,1.2,157.0,090816,,A*4E
$GPGGA,073620.000,3205.03181,N,03448.14469,E,1,13,0.9,048.60,M,17.1,M,,*60
$GNGSA,A,3,25,24,12,02,29,32,06,,,,,,1.5,0.9,1.2*2E
$GNGSA,A,3,75,74,84,85,73,83,,,,,,,1.5,0.9,1.2*2D
$GNGSA,A,3,,,,,,,,,,,,,1.5,0.9,1.2*22
$GPGSV,3,1,09,02,59,086,25,06,27,047,27,12,61,007,39,14,06,312,*7A
$GPGSV,3,2,09,19,08,050,,24,56,178,30,25,37,316,31,29,36,254,38*7F
$GPGSV,3,3,09,32,11,291,29,,,,,,,,,,,,*40
$GLGSV,2,1,06,74,78,032,36,73,38,133,35,75,30,331,31,84,62,010,35*6D
$GLGSV,2,2,06,83,10,032,23,85,55,240,38,,,,,,,,*69
08/09/2016 10:36:20.216	(255)	Cannot process message $GNGSA,A,3,,,,,,,,,,,,,1.5,0.9,1.2*22
$GPRMC,073621.000,A,3205.03111,N,03448.14507,E,2.5,155.0,090816,,A*49
$GPGGA,073621.000,3205.03111,N,03448.14507,E,1,13,0.9,048.75,M,17.1,M,,*65
$GNGSA,A,3,25,24,12,02,29,32,06,,,,,,1.5,0.9,1.2*2E
$GNGSA,A,3,75,74,84,85,73,83,,,,,,,1.5,0.9,1.2*2D
$GNGSA,A,3,,,,,,,,,,,,,1.5,0.9,1.2*22
$GPGSV,3,1,09,02,59,086,25,06,27,047,27,12,61,007,38,14,06,312,*7B
$GPGSV,3,2,09,19,08,050,,24,56,178,28,25,37,316,30,29,36,254,37*78
$GPGSV,3,3,09,32,11,291,29,,,,,,,,,,,,*40
$GLGSV,2,1,06,74,78,032,35,73,38,133,36,75,30,331,31,84,62,010,35*6D
$GLGSV,2,2,06,83,10,032,23,85,55,240,39,,,,,,,,*68
08/09/2016 10:36:21.240	(255)	Cannot process message $GNGSA,A,3,,,,,,,,,,,,,1.7,0.9,1.5*27
$GPRMC,073622.000,A,3205.03026,N,03448.14511,E,2.0,167.4,090816,,A*48
$GPGGA,073622.000,3205.03026,N,03448.14511,E,1,12,0.9,049.02,M,17.1,M,,*64
$GNGSA,A,3,25,24,12,02,29,32,06,,,,,,1.7,0.9,1.5*2B
$GNGSA,A,3,75,74,84,85,73,,,,,,,,1.7,0.9,1.5*23
$GNGSA,A,3,,,,,,,,,,,,,1.7,0.9,1.5*27
$GPGSV,3,1,09,02,59,086,32,06,27,047,26,12,61,007,38,14,06,312,*7C
$GPGSV,3,2,09,19,08,050,,24,56,178,25,25,37,316,30,29,36,254,37*75
$GPGSV,3,3,09,32,11,291,27,,,,,,,,,,,,*4E
$GLGSV,2,1,06,74,78,032,34,73,38,133,36,75,30,331,30,84,62,010,35*6D
$GLGSV,2,2,06,83,10,032,,85,55,240,39,,,,,,,,*69
08/09/2016 10:36:22.219	(255)	Cannot process message $GNGSA,A,3,,,,,,,,,,,,,1.5,0.9,1.2*22
$GPRMC,073623.000,A,3205.02958,N,03448.14542,E,1.6,171.7,090816,,A*4F
$GPGGA,073623.000,3205.02958,N,03448.14542,E,1,13,0.9,049.18,M,17.1,M,,*68
$GNGSA,A,3,25,24,12,02,29,32,06,,,,,,1.5,0.9,1.2*2E
$GNGSA,A,3,75,74,84,85,73,83,,,,,,,1.5,0.9,1.2*2D
$GNGSA,A,3,,,,,,,,,,,,,1.5,0.9,1.2*22
$GPGSV,3,1,09,02,59,086,33,06,27,047,26,12,61,007,38,14,06,312,*7D
$GPGSV,3,2,09,19,08,050,,24,56,178,27,25,37,316,29,29,36,254,37*7F
$GPGSV,3,3,09,32,11,291,27,,,,,,,,,,,,*4E
$GLGSV,2,1,06,74,78,032,33,73,38,133,36,75,30,331,30,84,62,010,35*6A
$GLGSV,2,2,06,83,10,032,22,85,55,240,39,,,,,,,,*69
08/09/2016 10:36:23.309	(255)	Cannot process message $GNGSA,A,3,,,,,,,,,,,,,1.5,0.9,1.2*22
$GPRMC,073624.000,A,3205.02873,N,03448.14588,E,2.0,151.9,090816,,A*4F
$GPGGA,073624.000,3205.02873,N,03448.14588,E,1,13,0.9,049.08,M,17.1,M,,*60
$GNGSA,A,3,25,24,12,02,29,32,06,,,,,,1.5,0.9,1.2*2E
$GNGSA,A,3,75,74,84,85,73,83,,,,,,,1.5,0.9,1.2*2D
$GNGSA,A,3,,,,,,,,,,,,,1.5,0.9,1.2*22
$GPGSV,3,1,10,02,59,086,36,06,27,047,26,12,61,007,38,14,06,312,*70
$GPGSV,3,2,10,19,08,050,,24,56,178,27,25,37,316,29,29,36,254,37*77
$GPGSV,3,3,10,32,11,291,27,33,24,246,,,,,,,,,*70
$GLGSV,2,1,06,74,78,032,40,73,38,133,36,75,30,331,30,84,62,010,35*6E
$GLGSV,2,2,06,83,10,032,23,85,55,240,40,,,,,,,,*66
08/09/2016 10:36:24.233	(255)	Cannot process message $GNGSA,A,3,,,,,,,,,,,,,1.5,0.9,1.2*22
$GPRMC,073625.000,A,3205.02797,N,03448.14650,E,1.5,113.0,090816,,A*44
$GPGGA,073625.000,3205.02797,N,03448.14650,E,1,13,0.9,049.09,M,17.1,M,,*63
$GNGSA,A,3,25,24,12,02,29,32,06,,,,,,1.5,0.9,1.2*2E
$GNGSA,A,3,75,74,84,85,73,83,,,,,,,1.5,0.9,1.2*2D
$GNGSA,A,3,,,,,,,,,,,,,1.5,0.9,1.2*22
$GPGSV,3,1,10,02,59,086,35,06,27,047,26,12,61,007,37,14,06,312,*7C
$GPGSV,3,2,10,19,08,050,,24,56,178,26,25,37,316,28,29,36,254,37*77
$GPGSV,3,3,10,32,11,291,26,33,24,246,,,,,,,,,*71
$GLGSV,2,1,06,74,78,032,39,73,38,133,36,75,30,331,30,84,62,010,35*60
$GLGSV,2,2,06,83,10,032,22,85,55,240,40,,,,,,,,*67
08/09/2016 10:36:25.282	(255)	Cannot process message $GNGSA,A,3,,,,,,,,,,,,,1.5,0.9,1.2*22
$GPRMC,073626.000,A,3205.02771,N,03448.14693,E,1.4,56.7,090816,,A*76
$GPGGA,073626.000,3205.02771,N,03448.14693,E,1,13,0.9,049.22,M,17.1,M,,*6E
$GNGSA,A,3,25,24,12,02,29,32,06,,,,,,1.5,0.9,1.2*2E
$GNGSA,A,3,75,74,84,85,73,83,,,,,,,1.5,0.9,1.2*2D
$GNGSA,A,3,,,,,,,,,,,,,1.5,0.9,1.2*22
$GPGSV,3,1,10,02,59,086,34,06,27,047,23,12,61,007,36,14,06,312,*79
$GPGSV,3,2,10,19,08,050,,24,56,178,25,25,37,316,27,29,36,254,36*7A
$GPGSV,3,3,10,32,11,291,26,33,24,246,30,,,,,,,,*72
$GLGSV,2,1,06,74,78,032,38,73,38,133,34,75,30,331,31,84,62,010,31*66
$GLGSV,2,2,06,83,10,032,22,85,55,240,40,,,,,,,,*67
08/09/2016 10:36:26.248	(255)	Cannot process message $GNGSA,A,3,,,,,,,,,,,,,1.5,0.9,1.2*22
$GPRMC,073627.000,A,3205.02766,N,03448.14749,E,2.0,58.7,090816,,A*7E
$GPGGA,073627.000,3205.02766,N,03448.14749,E,1,13,0.9,049.24,M,17.1,M,,*69
$GNGSA,A,3,25,24,12,02,29,32,06,,,,,,1.5,0.9,1.2*2E
$GNGSA,A,3,75,74,84,85,73,83,,,,,,,1.5,0.9,1.2*2D
$GNGSA,A,3,,,,,,,,,,,,,1.5,0.9,1.2*22
$GPGSV,3,1,10,02,59,086,33,06,27,047,24,12,61,007,36,14,06,312,*79
$GPGSV,3,2,10,19,08,050,,24,56,178,26,25,37,316,26,29,36,254,34*7A
$GPGSV,3,3,10,32,11,291,22,33,24,246,32,,,,,,,,*74
$GLGSV,2,1,06,74,78,032,37,73,38,133,35,75,30,331,31,84,62,010,30*69
$GLGSV,2,2,06,83,10,032,22,85,55,240,41,,,,,,,,*66
08/09/2016 10:36:27.244	(255)	Cannot process message $GNGSA,A,3,,,,,,,,,,,,,1.5,0.9,1.2*22
$GPRMC,073628.000,A,3205.02749,N,03448.14802,E,1.8,68.2,090816,,A*71
$GPGGA,073628.000,3205.02749,N,03448.14802,E,1,13,0.9,049.03,M,17.1,M,,*6E
$GNGSA,A,3,25,24,12,02,29,32,06,,,,,,1.5,0.9,1.2*2E
$GNGSA,A,3,75,74,84,85,73,83,,,,,,,1.5,0.9,1.2*2D
$GNGSA,A,3,,,,,,,,,,,,,1.5,0.9,1.2*22
$GPGSV,3,1,10,02,59,086,32,06,27,047,24,12,61,007,36,14,06,312,*78
$GPGSV,3,2,10,19,08,050,,24,56,178,25,25,37,316,27,29,36,254,34*78
$GPGSV,3,3,10,32,11,291,22,33,24,246,32,,,,,,,,*74
$GLGSV,2,1,06,74,78,032,37,73,38,133,34,75,30,331,31,84,62,010,29*60
$GLGSV,2,2,06,83,10,032,21,85,55,240,40,,,,,,,,*64
08/09/2016 10:36:28.250	(255)	Cannot process message $GNGSA,A,3,,,,,,,,,,,,,1.5,0.9,1.2*22
$GPRMC,073629.000,A,3205.02741,N,03448.14865,E,1.9,85.8,090816,,A*71
$GPGGA,073629.000,3205.02741,N,03448.14865,E,1,13,0.9,048.75,M,17.1,M,,*66
$GNGSA,A,3,25,24,12,02,29,32,06,,,,,,1.5,0.9,1.2*2E
$GNGSA,A,3,75,74,84,85,73,83,,,,,,,1.5,0.9,1.2*2D
$GNGSA,A,3,,,,,,,,,,,,,1.5,0.9,1.2*22
$GPGSV,3,1,10,02,59,086,33,06,27,047,25,12,61,007,36,14,06,312,*78
$GPGSV,3,2,10,19,08,050,,24,56,178,25,25,37,316,27,29,36,254,34*78
$GPGSV,3,3,10,32,11,291,23,33,24,246,30,,,,,,,,*77
$GLGSV,2,1,06,74,78,032,37,73,38,133,34,75,30,331,31,84,62,010,31*69
$GLGSV,2,2,06,83,10,032,21,85,55,240,39,,,,,,,,*6A
08/09/2016 10:36:29.283	(255)	Cannot process message $GNGSA,A,3,,,,,,,,,,,,,1.5,0.9,1.2*22
$GPRMC,073630.000,A,3205.02705,N,03448.14932,E,2.0,87.0,090816,,A*7A
$GPGGA,073630.000,3205.02705,N,03448.14932,E,1,13,0.9,048.42,M,17.1,M,,*69
$GNGSA,A,3,25,24,12,02,29,32,06,,,,,,1.5,0.9,1.2*2E
$GNGSA,A,3,75,74,84,85,73,83,,,,,,,1.5,0.9,1.2*2D
$GNGSA,A,3,,,,,,,,,,,,,1.5,0.9,1.2*22
