$GPGGA,061537.00,,,,,0,00,999.9,,M,,M,,*60
$GPGSV,3,1,11,28,68,023,27,13,56,319,18,30,43,062,16,17,40,145,16*7A
$GPGSV,3,2,11,05,29,242,26,15,22,316,20,19,20,172,20,07,20,081,23*75
$GPGSV,3,3,11,20,17,290,16,11,05,067,,09,00,141,*48
$GLGSV,3,1,09,65,51,277,23,75,47,329,19,72,37,202,23,74,31,040,20*6C
$GLGSV,3,2,09,84,26,070,16,85,24,126,28,66,14,330,15,76,13,276,18*69
$GLGSV,3,3,09,83,03,023,*55
$BDGSV,2,1,06,214,39,233,24,202,29,118,08,205,45,140,,212,27,155,*69
$BDGSV,2,2,06,208,26,066,,210,23,068,*6C
$GPGSA,A,1,,,,,,,,,,,,,140.0,99.0,99.0*35
$GNGSA,A,1,,,,,,,,,,,,,140.0,99.0,99.0*2B
$GNGSA,A,1,,,,,,,,,,,,,140.0,99.0,99.0*2B
$QZGSA,A,1,,,,,,,,,,,,,140.0,99.0,99.0*29
$IMGSA,A,1,,,,,,,,,,,,,140.0,99.0,99.0*26
$BDGSA,A,1,,,,,,,,,,,,,140.0,99.0,99.0*24
$GPRMC,061537.00,V,,,,,,,170616,,,N*7C
$GPGGA,061538.00,,,,,0,00,999.9,,M,,M,,*6F
$GPGSV,3,1,11,28,68,023,37,13,56,319,24,30,43,062,28,17,40,145,24*78
$GPGSV,3,2,11,05,29,242,33,15,22,316,26,19,20,172,25,07,20,081,30*70
$GPGSV,3,3,11,20,17,290,23,11,05,067,,09,00,141,*4E
$GLGSV,3,1,09,65,51,277,30,75,47,329,13,72,37,202,16,74,31,040,14*65
$GLGSV,3,2,09,84,26,070,11,85,24,126,19,66,14,330,11,76,13,276,12*62
$GLGSV,3,3,09,83,03,023,*55
$BDGSV,2,1,06,214,39,233,16,205,45,140,,202,29,118,,212,27,155,*60
$BDGSV,2,2,06,208,26,066,,210,23,068,*6C
$GPGSA,A,1,,,,,,,,,,,,,140.0,99.0,99.0*35
$GNGSA,A,1,,,,,,,,,,,,,140.0,99.0,99.0*2B
$GNGSA,A,1,,,,,,,,,,,,,140.0,99.0,99.0*2B
$QZGSA,A,1,,,,,,,,,,,,,140.0,99.0,99.0*29
$IMGSA,A,1,,,,,,,,,,,,,140.0,99.0,99.0*26
$BDGSA,A,1,,,,,,,,,,,,,140.0,99.0,99.0*24
$GPRMC,061538.00,V,,,,,,,170616,,,N*73
$GPGGA,061539.00,,,,,0,10,9.6,99.6,M,19.2,M,,*6C
$GPGSV,3,1,11,28,68,023,38,13,56,319,24,30,43,063,28,17,40,145,26*74
$GPGSV,3,2,11,05,29,242,35,15,22,316,28,19,20,172,27,07,20,081,30*7A
$GPGSV,3,3,11,20,17,290,24,11,05,067,,09,00,141,*49
$GLGSV,3,1,09,65,51,277,30,75,47,329,25,72,37,202,30,74,31,040,32*60
$GLGSV,3,2,09,85,24,126,35,76,13,276,27,84,26,070,,66,14,330,*6A
$GLGSV,3,3,09,83,03,023,*55
$BDGSV,2,1,06,214,39,233,10,205,45,140,,202,29,118,,212,27,155,*66
$BDGSV,2,2,06,208,26,066,,210,23,068,*6C
$GPGSA,A,1,,,,,,,,,,,,,2.0,0.8,1.8*33
$GNGSA,A,1,,,,,,,,,,,,,2.0,0.8,1.8*2D
$GNGSA,A,1,,,,,,,,,,,,,2.0,0.8,1.8*2D
$QZGSA,A,1,,,,,,,,,,,,,2.0,0.8,1.8*2F
$IMGSA,A,1,,,,,,,,,,,,,2.0,0.8,1.8*20
$BDGSA,A,1,,,,,,,,,,,,,2.0,0.8,1.8*22
$GPRMC,061539.00,V,,,,,,,170616,,,N*72
$GPGGA,061540.00,3205.021924,N,03448.148798,E,1,10,6.4,99.5,M,19.2,M,,*5E
$GPGSV,3,1,11,28,68,023,40,13,56,319,24,30,43,063,28,17,40,145,26*7B
$GPGSV,3,2,11,05,29,242,34,15,22,316,27,19,20,172,29,07,20,081,30*7A
$GPGSV,3,3,11,20,17,290,23,11,05,067,,09,00,141,*4E
$GLGSV,3,1,09,65,51,277,30,75,47,329,26,72,37,202,30,74,31,040,32*63
$GLGSV,3,2,09,85,24,126,37,76,13,276,27,84,26,070,,66,14,330,*68
$GLGSV,3,3,09,83,03,023,*55
$BDGSV,2,1,06,205,45,140,,214,39,233,,202,29,118,,212,27,155,*67
$BDGSV,2,2,06,208,26,066,,210,23,068,*6C
$GPGSA,A,3,05,13,15,17,28,30,,,,,,,2.1,0.9,1.9*3C
$GNGSA,A,3,05,13,15,17,28,30,,,,,,,2.1,0.9,1.9*22
$GNGSA,A,3,65,72,75,85,,,,,,,,,2.1,0.9,1.9*27
$QZGSA,A,3,,,,,,,,,,,,,2.1,0.9,1.9*2C
$IMGSA,A,3,,,,,,,,,,,,,2.1,0.9,1.9*23
$BDGSA,A,3,,,,,,,,,,,,,2.1,0.9,1.9*21
$GPRMC,061540.00,A,3205.021924,N,03448.148798,E,000.8,046.8,170616,,,A*55
$GPGGA,061541.00,3205.027478,N,03448.149313,E,1,10,9.6,97.2,M,19.2,M,,*5F
$GPGSV,3,1,11,28,68,023,40,13,56,319,26,30,43,063,28,17,40,145,28*77
$GPGSV,3,2,11,05,29,242,35,15,22,316,28,19,20,172,29,07,20,081,29*7C
$GPGSV,3,3,11,20,17,290,23,11,05,067,,09,00,141,*4E
$GLGSV,3,1,09,65,51,277,30,75,47,329,25,72,37,202,29,74,31,040,32*68
$GLGSV,3,2,09,85,24,126,36,76,13,276,26,84,26,070,,66,14,330,*68
$GLGSV,3,3,09,83,03,023,*55
$BDGSV,2,1,06,205,45,140,,214,39,233,,202,29,118,,212,27,155,*67
$BDGSV,2,2,06,208,26,066,,210,23,068,*6C
$GPGSA,A,3,05,13,17,19,28,30,,,,,,,3.2,1.2,2.9*3B
$GNGSA,A,3,05,13,17,19,28,30,,,,,,,3.2,1.2,2.9*25
$GNGSA,A,3,65,72,75,85,,,,,,,,,3.2,1.2,2.9*2C
$QZGSA,A,3,,,,,,,,,,,,,3.2,1.2,2.9*27
$IMGSA,A,3,,,,,,,,,,,,,3.2,1.2,2.9*28
$BDGSA,A,3,,,,,,,,,,,,,3.2,1.2,2.9*2A
$GPRMC,061541.00,A,3205.027478,N,03448.149313,E,000.3,308.9,170616,,,A*53
$GPGGA,061542.00,3205.032623,N,03448.148758,E,1,10,6.4,96.5,M,19.2,M,,*55
$GPGSV,3,1,11,28,68,023,40,13,56,319,25,30,43,063,28,17,40,145,29*75
$GPGSV,3,2,11,05,29,242,35,15,22,316,28,19,20,172,28,07,20,081,29*7D
$GPGSV,3,3,11,20,17,290,22,11,05,067,,09,00,141,*4F
$GLGSV,3,1,09,65,51,277,30,75,47,329,28,72,37,202,29,74,31,040,34*63
$GLGSV,3,2,09,84,26,070,21,85,24,126,36,76,13,276,26,66,14,330,*6B
$GLGSV,3,3,09,83,03,023,*55
$BDGSV,2,1,06,205,45,140,,214,39,233,,202,29,118,,212,27,155,*67
$BDGSV,2,2,06,208,26,066,,210,23,068,*6C
$GPGSA,A,3,05,13,17,19,28,30,,,,,,,3.2,1.2,2.9*3B
$GNGSA,A,3,05,13,17,19,28,30,,,,,,,3.2,1.2,2.9*25
$GNGSA,A,3,65,72,75,85,,,,,,,,,3.2,1.2,2.9*2C
$QZGSA,A,3,,,,,,,,,,,,,3.2,1.2,2.9*27
$IMGSA,A,3,,,,,,,,,,,,,3.2,1.2,2.9*28
$BDGSA,A,3,,,,,,,,,,,,,3.2,1.2,2.9*2A
$GPRMC,061542.00,A,3205.032623,N,03448.148758,E,002.0,026.7,170616,,,A*52
$GPGGA,061543.00,3205.031867,N,03448.155217,E,1,10,4.8,82.1,M,19.2,M,,*54
$GPGSV,3,1,10,28,68,023,39,13,56,319,26,30,43,063,28,17,40,145,28*78
$GPGSV,3,2,10,05,29,242,35,15,22,316,33,19,20,172,28,07,20,081,29*76
$GPGSV,3,3,10,20,17,290,22,11,05,067,*73
$GLGSV,3,1,09,65,51,277,31,75,47,329,31,72,37,202,30,74,31,040,35*63
$GLGSV,3,2,09,84,26,070,21,85,24,126,36,66,14,330,24,76,13,276,26*6D
$GLGSV,3,3,09,83,03,023,*55
$BDGSV,2,1,06,205,45,140,,214,39,233,,202,29,118,,212,27,155,*67
$BDGSV,2,2,06,208,26,066,,210,23,068,*6C
$GPGSA,A,3,13,17,28,30,,,,,,,,,1.9,0.9,1.7*38
$GNGSA,A,3,13,17,28,30,,,,,,,,,1.9,0.9,1.7*26
$GNGSA,A,3,65,72,75,76,84,85,,,,,,,1.9,0.9,1.7*2F
$QZGSA,A,3,,,,,,,,,,,,,1.9,0.9,1.7*29
$IMGSA,A,3,,,,,,,,,,,,,1.9,0.9,1.7*26
$BDGSA,A,3,,,,,,,,,,,,,1.9,0.9,1.7*24
$GPRMC,061543.00,A,3205.031867,N,03448.155217,E,001.1,066.7,170616,,,A*5A
$GPGGA,061544.00,3205.029043,N,03448.157448,E,1,16,1.6,73.7,M,19.2,M,,*5F
$GPGSV,3,1,10,28,68,023,39,13,56,319,27,30,43,063,28,17,40,145,28*79
$GPGSV,3,2,10,05,28,242,34,15,22,316,36,19,20,172,28,07,20,081,29*73
$GPGSV,3,3,10,20,17,290,22,11,05,067,*73
$GLGSV,3,1,09,65,51,277,32,75,47,329,31,72,37,202,29,74,31,040,35*68
$GLGSV,3,2,09,84,26,070,21,85,24,126,38,66,14,330,24,76,13,276,25*60
$GLGSV,3,3,09,83,03,023,*55
$BDGSV,2,1,06,205,45,140,,214,39,233,,202,29,118,,212,27,155,*67
$BDGSV,2,2,06,208,26,066,,210,23,068,*6C
$GPGSA,A,3,05,07,13,15,17,19,20,28,30,,,,1.8,1.0,1.5*3F
$GNGSA,A,3,05,07,13,15,17,19,20,28,30,,,,1.8,1.0,1.5*21
$GNGSA,A,3,65,66,72,75,76,84,85,,,,,,1.8,1.0,1.5*24
$QZGSA,A,3,,,,,,,,,,,,,1.8,1.0,1.5*22
$IMGSA,A,3,,,,,,,,,,,,,1.8,1.0,1.5*2D
$BDGSA,A,3,,,,,,,,,,,,,1.8,1.0,1.5*2F
$GPRMC,061544.00,A,3205.029043,N,03448.157448,E,,,170616,,,A*53
$GPGGA,061545.00,3205.029313,N,03448.157461,E,1,16,1.6,67.7,M,19.2,M,,*56
$GPGSV,3,1,10,28,68,023,38,13,56,319,28,30,43,063,28,17,40,145,28*77
$GPGSV,3,2,10,05,28,242,34,15,22,316,36,19,20,172,27,07,20,081,28*7D
$GPGSV,3,3,10,20,17,290,22,11,05,067,08*7B
$GLGSV,3,1,09,65,51,277,32,75,47,329,31,72,37,202,33,74,31,040,35*63
$GLGSV,3,2,09,84,26,070,22,85,24,126,38,66,14,330,24,76,13,276,24*62
$GLGSV,3,3,09,83,03,023,*55
$BDGSV,2,1,06,205,45,140,,214,39,233,,202,29,118,,212,27,155,*67
$BDGSV,2,2,06,208,26,066,,210,23,068,*6C
$GPGSA,A,3,05,07,13,15,17,19,20,28,30,,,,2.2,1.1,2.0*31
$GNGSA,A,3,05,07,13,15,17,19,20,28,30,,,,2.2,1.1,2.0*2F
$GNGSA,A,3,65,66,72,75,76,84,85,,,,,,2.2,1.1,2.0*2A
$QZGSA,A,3,,,,,,,,,,,,,2.2,1.1,2.0*2C
$IMGSA,A,3,,,,,,,,,,,,,2.2,1.1,2.0*23
$BDGSA,A,3,,,,,,,,,,,,,2.2,1.1,2.0*21
$GPRMC,061545.00,A,3205.029313,N,03448.157461,E,001.4,,170616,,,A*74
$GPGGA,061546.00,3205.029432,N,03448.157480,E,1,16,2.4,63.3,M,19.2,M,,*5F
$GPGSV,3,1,10,28,68,023,38,13,56,319,28,30,43,063,30,17,40,145,31*76
$GPGSV,3,2,10,05,28,242,33,15,22,316,36,19,20,172,26,07,20,081,28*7B
$GPGSV,3,3,10,20,17,290,26,11,05,067,08*7F
$GLGSV,3,1,09,65,51,276,32,75,47,329,30,72,37,202,33,74,31,040,35*63
$GLGSV,3,2,09,84,26,070,22,85,24,126,37,66,14,330,24,76,13,276,23*6A
$GLGSV,3,3,09,83,03,023,*55
$BDGSV,2,1,06,205,45,140,,214,39,233,,202,29,118,,212,27,155,*67
$BDGSV,2,2,06,208,26,066,,210,23,068,*6C
$GPGSA,A,3,05,07,13,15,17,19,20,28,30,,,,2.2,1.0,1.9*3A
$GNGSA,A,3,05,07,13,15,17,19,20,28,30,,,,2.2,1.0,1.9*24
$GNGSA,A,3,65,66,72,75,76,84,85,,,,,,2.2,1.0,1.9*21
$QZGSA,A,3,,,,,,,,,,,,,2.2,1.0,1.9*27
$IMGSA,A,3,,,,,,,,,,,,,2.2,1.0,1.9*28
$BDGSA,A,3,,,,,,,,,,,,,2.2,1.0,1.9*2A
$GPRMC,061546.00,A,3205.029432,N,03448.157480,E,001.4,,170616,,,A*7C
$GPGGA,061547.00,3205.029427,N,03448.157480,E,1,16,1.6,55.1,M,19.2,M,,*5C
$GPGSV,3,1,10,28,68,023,38,13,56,319,27,30,43,063,32,17,40,145,35*7F
$GPGSV,3,2,10,05,28,242,33,15,22,316,36,19,20,172,26,07,20,081,29*7A
$GPGSV,3,3,10,20,17,290,26,11,05,067,*77
$GLGSV,3,1,09,65,51,276,34,75,47,329,30,72,37,202,32,74,31,040,36*67
$GLGSV,3,2,09,84,26,070,22,85,24,126,37,66,14,330,24,76,13,276,22*6B
$GLGSV,3,3,09,83,03,023,*55
$BDGSV,2,1,06,205,45,140,,214,39,233,,202,29,118,,212,27,155,*67
$BDGSV,2,2,06,208,26,066,,210,23,068,*6C
$GPGSA,A,3,05,07,13,15,17,19,20,28,30,,,,1.6,0.8,1.4*39
$GNGSA,A,3,05,07,13,15,17,19,20,28,30,,,,1.6,0.8,1.4*27
$GNGSA,A,3,65,66,72,75,76,84,85,,,,,,1.6,0.8,1.4*22
$QZGSA,A,3,,,,,,,,,,,,,1.6,0.8,1.4*24
$IMGSA,A,3,,,,,,,,,,,,,1.6,0.8,1.4*2B
$BDGSA,A,3,,,,,,,,,,,,,1.6,0.8,1.4*29
$GPRMC,061547.00,A,3205.029427,N,03448.157480,E,001.0,,170616,,,A*7D
$GPGGA,061548.00,3205.029133,N,03448.157502,E,1,16,1.6,49.6,M,19.2,M,,*52
$GPGSV,3,1,10,28,68,023,37,13,56,319,27,30,43,063,32,17,40,145,35*70
$GPGSV,3,2,10,05,28,242,32,15,22,316,36,19,20,172,25,07,20,081,29*78
$GPGSV,3,3,10,20,17,290,26,11,05,067,*77
$GLGSV,3,1,09,65,51,276,35,75,47,329,34,72,37,202,32,74,31,040,36*62
$GLGSV,3,2,09,84,26,070,22,85,24,126,37,66,14,330,29,76,13,276,21*65
$GLGSV,3,3,09,83,03,023,*55
$BDGSV,2,1,06,205,45,140,,214,39,233,,202,29,118,,212,27,155,*67
$BDGSV,2,2,06,208,26,066,,210,23,068,*6C
$GPGSA,A,3,05,07,13,15,17,19,20,28,30,,,,2.3,1.7,1.5*30
$GNGSA,A,3,05,07,13,15,17,19,20,28,30,,,,2.3,1.7,1.5*2E
$GNGSA,A,3,65,66,72,75,76,84,85,,,,,,2.3,1.7,1.5*2B
$QZGSA,A,3,,,,,,,,,,,,,2.3,1.7,1.5*2D
$IMGSA,A,3,,,,,,,,,,,,,2.3,1.7,1.5*22
$BDGSA,A,3,,,,,,,,,,,,,2.3,1.7,1.5*20
$GPRMC,061548.00,A,3205.029133,N,03448.157502,E,001.2,,170616,,,A*7B
$GPGGA,061549.00,3205.028642,N,03448.157533,E,1,16,1.6,41.1,M,19.2,M,,*5E
$GPGSV,3,1,10,28,68,023,36,13,56,319,32,30,43,063,32,17,40,145,35*75
$GPGSV,3,2,10,05,28,242,32,15,22,316,35,19,20,172,25,07,20,081,30*73
$GPGSV,3,3,10,20,17,290,26,11,05,067,*77
$GLGSV,3,1,09,65,51,276,35,75,47,329,37,72,37,202,32,74,31,040,36*61
$GLGSV,3,2,09,84,26,070,22,85,24,126,37,66,14,330,35,76,13,276,21*68
$GLGSV,3,3,09,83,03,023,*55
$BDGSV,2,1,06,205,45,140,,214,39,233,,202,29,118,,212,27,155,*67
$BDGSV,2,2,06,208,26,066,,210,23,068,*6C
$GPGSA,A,3,05,07,13,15,17,19,20,28,30,,,,1.9,1.3,1.3*3B
$GNGSA,A,3,05,07,13,15,17,19,20,28,30,,,,1.9,1.3,1.3*25
$GNGSA,A,3,65,66,72,75,76,84,85,,,,,,1.9,1.3,1.3*20
$QZGSA,A,3,,,,,,,,,,,,,1.9,1.3,1.3*26
$IMGSA,A,3,,,,,,,,,,,,,1.9,1.3,1.3*29
$BDGSA,A,3,,,,,,,,,,,,,1.9,1.3,1.3*2B
$GPRMC,061549.00,A,3205.028642,N,03448.157533,E,001.0,,170616,,,A*7A
$GPGGA,061550.00,3205.028071,N,03448.157564,E,1,16,1.6,38.4,M,19.2,M,,*59
$GPGSV,3,1,10,28,68,023,35,13,56,319,36,30,43,063,31,17,40,145,36*72
$GPGSV,3,2,10,05,28,242,32,15,22,316,35,19,20,172,25,07,20,081,30*73
$GPGSV,3,3,10,20,17,290,26,11,05,067,*77
$GLGSV,3,1,09,65,51,276,35,75,47,329,37,72,37,202,32,74,31,040,35*62
$GLGSV,3,2,09,84,26,070,22,85,24,126,37,66,14,330,35,76,13,276,20*69
$GLGSV,3,3,09,83,03,023,*55
$BDGSV,2,1,06,205,45,140,,214,39,233,,202,29,118,,212,27,155,*67
$BDGSV,2,2,06,208,26,066,,210,23,068,*6C
$GPGSA,A,3,05,07,13,15,17,19,20,28,30,,,,1.7,1.1,1.3*37
$GNGSA,A,3,05,07,13,15,17,19,20,28,30,,,,1.7,1.1,1.3*29
$GNGSA,A,3,65,66,72,75,76,84,85,,,,,,1.7,1.1,1.3*2C
$QZGSA,A,3,,,,,,,,,,,,,1.7,1.1,1.3*2A
$IMGSA,A,3,,,,,,,,,,,,,1.7,1.1,1.3*25
$BDGSA,A,3,,,,,,,,,,,,,1.7,1.1,1.3*27
$GPRMC,061550.00,A,3205.028071,N,03448.157564,E,001.1,,170616,,,A*77
$GPGGA,061551.00,3205.028062,N,03448.157565,E,1,16,1.2,23.6,M,19.2,M,,*57
$GPGSV,3,1,10,28,68,023,34,13,56,319,39,30,43,063,31,17,40,145,36*7C
$GPGSV,3,2,10,05,28,242,36,15,22,316,34,19,20,172,25,07,20,081,36*70
$GPGSV,3,3,10,20,17,290,26,11,05,067,*77
$GLGSV,3,1,09,65,51,276,34,75,47,329,36,72,37,202,31,74,31,040,35*61
$GLGSV,3,2,09,84,26,070,24,85,24,126,37,66,14,330,34,76,13,276,20*6E
$GLGSV,3,3,09,83,03,023,*55
$BDGSV,2,1,06,205,45,140,,214,39,233,,202,29,118,,212,27,155,*67
$BDGSV,2,2,06,208,26,066,,210,23,068,*6C
$GPGSA,A,3,05,07,13,15,17,19,20,28,30,,,,1.7,1.0,1.4*31
$GNGSA,A,3,05,07,13,15,17,19,20,28,30,,,,1.7,1.0,1.4*2F
$GNGSA,A,3,65,66,72,75,76,84,85,,,,,,1.7,1.0,1.4*2A
$QZGSA,A,3,,,,,,,,,,,,,1.7,1.0,1.4*2C
$IMGSA,A,3,,,,,,,,,,,,,1.7,1.0,1.4*23
$BDGSA,A,3,,,,,,,,,,,,,1.7,1.0,1.4*21
$GPRMC,061551.00,A,3205.028062,N,03448.157565,E,000.5,,170616,,,A*70
$GPGGA,061552.00,3205.027452,N,03448.157618,E,1,16,1.2,21.4,M,19.2,M,,*55
$GPGSV,3,1,10,28,68,023,33,13,56,319,39,30,43,063,30,17,40,145,36*7A
$GPGSV,3,2,10,05,28,242,40,15,22,316,34,19,20,172,24,07,20,081,35*73
$GPGSV,3,3,10,20,17,290,26,11,05,067,*77
$GLGSV,3,1,09,65,51,276,33,75,47,329,36,72,37,202,34,74,31,040,36*60
$GLGSV,3,2,09,84,26,070,24,85,24,126,37,66,14,330,35,76,13,276,19*65
$GLGSV,3,3,09,83,03,023,*55
$BDGSV,2,1,06,205,45,140,,214,39,233,,202,29,118,,212,27,155,*67
$BDGSV,2,2,06,208,26,066,,210,23,068,*6C
$GPGSA,A,3,05,07,13,15,17,19,20,28,30,,,,1.9,1.2,1.5*3C
$GNGSA,A,3,05,07,13,15,17,19,20,28,30,,,,1.9,1.2,1.5*22
$GNGSA,A,3,65,66,72,75,76,84,85,,,,,,1.9,1.2,1.5*27
$QZGSA,A,3,,,,,,,,,,,,,1.9,1.2,1.5*21
$IMGSA,A,3,,,,,,,,,,,,,1.9,1.2,1.5*2E
$BDGSA,A,3,,,,,,,,,,,,,1.9,1.2,1.5*2C
$GPRMC,061552.00,A,3205.027452,N,03448.157618,E,001.3,,170616,,,A*75
$GPGGA,061553.00,3205.025660,N,03448.157884,E,1,16,1.2,21.8,M,19.2,M,,*52
$GPGSV,3,1,10,28,68,023,32,13,56,319,38,30,43,063,30,17,40,145,36*7A
$GPGSV,3,2,10,05,28,242,40,15,22,316,33,19,20,172,24,07,20,082,34*76
$GPGSV,3,3,10,20,17,290,26,11,05,067,*77
$GLGSV,3,1,09,65,51,276,33,75,47,329,36,72,37,202,34,74,31,040,36*60
$GLGSV,3,2,09,84,26,070,23,85,24,126,37,66,14,330,35,76,13,276,19*62
$GLGSV,3,3,09,83,03,023,*55
$BDGSV,2,1,06,205,45,140,,214,39,233,,202,29,118,,212,27,155,*67
$BDGSV,2,2,06,208,26,066,,210,23,068,*6C
$GPGSA,A,3,05,07,13,15,17,19,20,28,30,,,,1.9,1.2,1.5*3C
$GNGSA,A,3,05,07,13,15,17,19,20,28,30,,,,1.9,1.2,1.5*22
$GNGSA,A,3,65,66,72,75,76,84,85,,,,,,1.9,1.2,1.5*27
$QZGSA,A,3,,,,,,,,,,,,,1.9,1.2,1.5*21
$IMGSA,A,3,,,,,,,,,,,,,1.9,1.2,1.5*2E
$BDGSA,A,3,,,,,,,,,,,,,1.9,1.2,1.5*2C
$GPRMC,061553.00,A,3205.025660,N,03448.157884,E,000.8,,170616,,,A*74
$GPGGA,061554.00,3205.025214,N,03448.157989,E,1,16,0.8,20.9,M,19.2,M,,*55
$GPGSV,3,1,10,28,68,023,31,13,56,319,38,30,42,063,29,17,40,145,35*73
$GPGSV,3,2,10,05,28,242,40,15,22,316,33,19,20,172,24,07,20,082,33*71
$GPGSV,3,3,10,20,17,290,26,11,05,067,*77
$GLGSV,3,1,09,65,51,276,32,75,47,330,38,72,37,202,34,74,31,040,39*68
$GLGSV,3,2,09,84,26,070,23,85,24,126,37,66,14,330,35,76,13,276,18*63
$GLGSV,3,3,09,83,03,023,*55
$BDGSV,2,1,06,205,45,140,,214,39,233,,202,29,118,,212,27,155,*67
$BDGSV,2,2,06,208,26,066,,210,23,068,*6C
$GPGSA,A,3,05,07,13,15,17,19,20,28,30,,,,2.2,1.4,1.7*30
$GNGSA,A,3,05,07,13,15,17,19,20,28,30,,,,2.2,1.4,1.7*2E
$GNGSA,A,3,65,66,72,75,76,84,85,,,,,,2.2,1.4,1.7*2B
$QZGSA,A,3,,,,,,,,,,,,,2.2,1.4,1.7*2D
$IMGSA,A,3,,,,,,,,,,,,,2.2,1.4,1.7*22
$BDGSA,A,3,,,,,,,,,,,,,2.2,1.4,1.7*20
$GPRMC,061554.00,A,3205.025214,N,03448.157989,E,001.6,,170616,,,A*77
$GPGGA,061555.00,3205.024774,N,03448.157870,E,1,16,1.2,24.5,M,19.2,M,,*52
$GPGSV,3,1,10,28,68,023,30,13,56,319,37,30,42,063,29,17,40,145,35*7D
$GPGSV,3,2,10,05,28,242,40,15,22,316,33,19,20,172,23,07,20,082,32*77
$GPGSV,3,3,10,20,17,290,26,11,05,067,*77
$GLGSV,3,1,09,65,51,276,31,75,47,330,38,72,37,202,34,74,31,040,39*6B
$GLGSV,3,2,09,84,26,070,23,85,24,126,37,66,14,330,35,76,13,276,18*63
$GLGSV,3,3,09,83,03,023,*55
$BDGSV,2,1,06,205,45,140,,214,39,233,,202,29,118,,212,27,155,*67
$BDGSV,2,2,06,208,26,066,,210,23,068,*6C
$GPGSA,A,3,05,07,13,15,17,19,20,28,30,,,,1.7,1.0,1.4*31
$GNGSA,A,3,05,07,13,15,17,19,20,28,30,,,,1.7,1.0,1.4*2F
$GNGSA,A,3,65,66,72,75,76,84,85,,,,,,1.7,1.0,1.4*2A
$QZGSA,A,3,,,,,,,,,,,,,1.7,1.0,1.4*2C
$IMGSA,A,3,,,,,,,,,,,,,1.7,1.0,1.4*23
$BDGSA,A,3,,,,,,,,,,,,,1.7,1.0,1.4*21
$GPRMC,061555.00,A,3205.024774,N,03448.157870,E,002.1,,170616,,,A*77
$GPGGA,061556.00,3205.024502,N,03448.157697,E,1,16,1.6,32.6,M,19.2,M,,*55
$GPGSV,3,1,10,28,68,023,29,13,56,319,37,30,42,063,28,17,40,145,35*74
$GPGSV,3,2,10,05,28,242,40,15,22,316,32,19,20,172,23,07,20,082,30*74
$GPGSV,3,3,10,20,17,290,26,11,05,067,*77
$GLGSV,3,1,09,65,51,276,30,75,47,330,38,72,37,202,34,74,31,040,39*6A
$GLGSV,3,2,09,84,26,070,22,85,24,126,39,66,14,330,35,76,13,276,17*63
$GLGSV,3,3,09,83,03,023,*55
$BDGSV,2,1,06,205,45,140,,214,38,233,,202,29,118,,212,27,155,*66
$BDGSV,2,2,06,208,26,066,,210,23,068,*6C
$GPGSA,A,3,05,07,13,15,17,19,20,28,30,,,,1.9,1.2,1.4*3D
$GNGSA,A,3,05,07,13,15,17,19,20,28,30,,,,1.9,1.2,1.4*23
$GNGSA,A,3,65,66,72,75,76,84,85,,,,,,1.9,1.2,1.4*26
$QZGSA,A,3,,,,,,,,,,,,,1.9,1.2,1.4*20
$IMGSA,A,3,,,,,,,,,,,,,1.9,1.2,1.4*2F
$BDGSA,A,3,,,,,,,,,,,,,1.9,1.2,1.4*2D
$GPRMC,061556.00,A,3205.024502,N,03448.157697,E,002.3,000.6,170616,,,A*5A
$GPGGA,061557.00,3205.024402,N,03448.157490,E,1,16,1.2,41.0,M,19.2,M,,*56
$GPGSV,3,1,10,28,68,023,28,13,56,319,37,30,42,063,27,17,40,145,34*7B
$GPGSV,3,2,10,05,28,242,40,15,22,316,32,19,20,172,23,07,20,082,29*7C
$GPGSV,3,3,10,20,17,290,25,11,05,067,*74
$GLGSV,3,1,09,65,51,276,29,75,47,330,38,72,37,202,34,74,31,040,39*62
$GLGSV,3,2,09,84,26,070,22,85,24,126,39,66,14,330,34,76,13,276,17*62
$GLGSV,3,3,09,83,03,023,*55
$BDGSV,2,1,06,205,45,140,,214,38,233,,202,29,118,,212,27,155,*66
$BDGSV,2,2,06,208,26,066,,210,23,068,*6C
$GPGSA,A,3,05,07,13,15,17,19,20,28,30,,,,2.1,1.2,1.6*34
$GNGSA,A,3,05,07,13,15,17,19,20,28,30,,,,2.1,1.2,1.6*2A
$GNGSA,A,3,65,66,72,75,76,84,85,,,,,,2.1,1.2,1.6*2F
$QZGSA,A,3,,,,,,,,,,,,,2.1,1.2,1.6*29
$IMGSA,A,3,,,,,,,,,,,,,2.1,1.2,1.6*26
$BDGSA,A,3,,,,,,,,,,,,,2.1,1.2,1.6*24
$GPRMC,061557.00,A,3205.024402,N,03448.157490,E,002.5,004.5,170616,,,A*5E
$GPGGA,061558.00,3205.024798,N,03448.157140,E,1,16,1.2,40.9,M,19.2,M,,*59
$GPGSV,3,1,10,28,68,023,27,13,56,319,36,30,42,063,27,17,40,145,34*75
$GPGSV,3,2,10,05,28,242,39,15,22,316,32,19,20,172,23,07,20,082,27*7C
$GPGSV,3,3,10,20,17,290,25,11,05,067,*74
$GLGSV,3,1,09,65,51,276,28,75,47,330,38,72,37,202,33,74,31,040,39*64
$GLGSV,3,2,09,84,26,070,22,85,24,126,39,66,14,330,34,76,13,276,17*62
$GLGSV,3,3,09,83,03,023,*55
$BDGSV,2,1,06,205,45,140,,214,38,233,,202,29,118,,212,27,155,*66
$BDGSV,2,2,06,208,26,066,,210,23,068,*6C
$GPGSA,A,3,05,07,13,15,17,19,20,28,30,,,,1.9,1.2,1.4*3D
$GNGSA,A,3,05,07,13,15,17,19,20,28,30,,,,1.9,1.2,1.4*23
$GNGSA,A,3,65,66,72,75,76,84,85,,,,,,1.9,1.2,1.4*26
$QZGSA,A,3,,,,,,,,,,,,,1.9,1.2,1.4*20
$IMGSA,A,3,,,,,,,,,,,,,1.9,1.2,1.4*2F
$BDGSA,A,3,,,,,,,,,,,,,1.9,1.2,1.4*2D
$GPRMC,061558.00,A,3205.024798,N,03448.157140,E,002.4,348.3,170616,,,A*55
$GPGGA,061559.00,3205.025612,N,03448.156560,E,1,16,1.2,39.1,M,19.2,M,,*5B
$GPGSV,3,1,10,28,68,023,27,13,56,319,36,30,42,063,27,17,40,145,34*75
$GPGSV,3,2,10,05,28,242,39,15,22,316,34,19,20,172,23,07,20,082,26*7B
$GPGSV,3,3,10,20,17,290,27,11,05,067,*76
$GLGSV,3,1,09,65,51,276,28,75,47,330,38,72,37,202,33,74,31,040,38*65
$GLGSV,3,2,09,84,26,070,21,85,24,126,38,66,14,329,34,76,13,276,16*69
$GLGSV,3,3,09,83,03,023,*55
$BDGSV,2,1,06,205,45,140,,214,38,233,,202,29,118,,212,27,155,*66
$BDGSV,2,2,06,208,26,066,,210,23,068,*6C
$GPGSA,A,3,05,07,13,15,17,19,20,28,30,,,,1.9,1.2,1.4*3D
$GNGSA,A,3,05,07,13,15,17,19,20,28,30,,,,1.9,1.2,1.4*23
$GNGSA,A,3,65,66,72,75,76,84,85,,,,,,1.9,1.2,1.4*26
$QZGSA,A,3,,,,,,,,,,,,,1.9,1.2,1.4*20
$IMGSA,A,3,,,,,,,,,,,,,1.9,1.2,1.4*2F
$BDGSA,A,3,,,,,,,,,,,,,1.9,1.2,1.4*2D
$GPRMC,061559.00,A,3205.025612,N,03448.156560,E,002.3,341.5,170616,,,A*59
$GPGGA,061600.00,3205.026277,N,03448.156292,E,1,16,1.2,39.8,M,19.2,M,,*53
$GPGSV,3,1,10,28,68,023,26,13,56,319,36,30,42,063,27,17,40,145,33*73
$GPGSV,3,2,10,05,28,242,38,15,22,316,34,19,20,172,22,07,20,082,24*79
$GPGSV,3,3,10,20,17,290,27,11,05,067,*76
$GLGSV,3,1,09,65,51,276,27,75,47,330,38,72,37,202,33,74,31,040,38*6A
$GLGSV,3,2,09,84,26,070,21,85,24,126,38,66,14,329,33,76,13,276,16*6E
$GLGSV,3,3,09,83,03,023,*55
$BDGSV,2,1,06,205,45,140,,214,38,233,,202,29,118,,212,27,155,*66
$BDGSV,2,2,06,208,26,066,,210,23,068,*6C
$GPGSA,A,3,05,07,13,15,17,19,20,28,30,,,,2.0,1.2,1.6*35
$GNGSA,A,3,05,07,13,15,17,19,20,28,30,,,,2.0,1.2,1.6*2B
$GNGSA,A,3,65,66,72,75,76,84,85,,,,,,2.0,1.2,1.6*2E
$QZGSA,A,3,,,,,,,,,,,,,2.0,1.2,1.6*28
$IMGSA,A,3,,,,,,,,,,,,,2.0,1.2,1.6*27
$BDGSA,A,3,,,,,,,,,,,,,2.0,1.2,1.6*25
$GPRMC,061600.00,A,3205.026277,N,03448.156292,E,002.2,344.0,170616,,,A*59
$GPGGA,061601.00,3205.027071,N,03448.156144,E,1,16,1.2,40.0,M,19.2,M,,*59
$GPGSV,3,1,10,28,68,023,25,13,56,319,36,30,42,063,26,17,40,145,33*71
$GPGSV,3,2,10,05,28,242,38,15,22,316,34,19,20,172,22,07,20,082,23*7E
$GPGSV,3,3,10,20,17,290,29,11,05,067,*78
$GLGSV,3,1,09,65,51,276,27,75,47,330,38,72,37,202,32,74,31,040,37*64
$GLGSV,3,2,09,84,26,070,21,85,24,126,37,66,14,329,33,76,13,276,16*61
$GLGSV,3,3,09,83,03,023,*55
$BDGSV,2,1,06,205,45,140,,214,38,233,,202,29,118,,212,27,155,*66
$BDGSV,2,2,06,208,26,066,,210,23,068,*6C
$GPGSA,A,3,05,07,13,15,17,19,20,28,30,,,,2.0,1.1,1.7*37
$GNGSA,A,3,05,07,13,15,17,19,20,28,30,,,,2.0,1.1,1.7*29
$GNGSA,A,3,65,66,72,75,76,84,85,,,,,,2.0,1.1,1.7*2C
$QZGSA,A,3,,,,,,,,,,,,,2.0,1.1,1.7*2A
$IMGSA,A,3,,,,,,,,,,,,,2.0,1.1,1.7*25
$BDGSA,A,3,,,,,,,,,,,,,2.0,1.1,1.7*27
$GPRMC,061601.00,A,3205.027071,N,03448.156144,E,002.2,000.7,170616,,,A*51
$GPGGA,061602.00,3205.027800,N,03448.155989,E,1,16,1.2,39.1,M,19.2,M,,*51
$GPGSV,3,1,10,28,68,023,25,13,56,319,38,30,42,063,26,17,40,145,33*7F
$GPGSV,3,2,10,05,28,242,37,15,22,316,34,19,20,172,21,07,20,082,22*73
$GPGSV,3,3,10,20,17,290,29,11,05,067,*78
$GLGSV,3,1,09,65,51,276,26,75,47,330,39,72,37,202,32,74,31,040,35*66
$GLGSV,3,2,09,84,26,070,20,85,24,126,36,66,14,329,32,76,13,276,16*60
$GLGSV,3,3,09,83,03,023,*55
$BDGSV,2,1,06,205,45,140,,214,38,233,,202,29,118,,212,27,155,*66
$BDGSV,2,2,06,208,26,066,,210,23,068,*6C
$GPGSA,A,3,05,07,13,15,17,19,20,28,30,,,,2.2,1.4,1.7*30
$GNGSA,A,3,05,07,13,15,17,19,20,28,30,,,,2.2,1.4,1.7*2E
$GNGSA,A,3,65,66,72,75,76,84,85,,,,,,2.2,1.4,1.7*2B
$QZGSA,A,3,,,,,,,,,,,,,2.2,1.4,1.7*2D
$IMGSA,A,3,,,,,,,,,,,,,2.2,1.4,1.7*22
$BDGSA,A,3,,,,,,,,,,,,,2.2,1.4,1.7*20
$GPRMC,061602.00,A,3205.027800,N,03448.155989,E,002.1,355.5,170616,,,A*54
$GPGGA,061603.00,3205.028564,N,03448.155903,E,1,16,0.8,38.4,M,19.2,M,,*5D
$GPGSV,3,1,10,28,68,023,24,13,56,319,38,30,42,063,26,17,40,145,32*7F
$GPGSV,3,2,10,05,28,242,37,15,22,316,34,19,20,172,21,07,20,082,21*70
$GPGSV,3,3,10,20,17,290,29,11,05,067,*78
$GLGSV,3,1,09,65,51,276,26,75,47,330,39,72,37,202,32,74,31,040,34*67
$GLGSV,3,2,09,84,26,070,20,85,24,126,36,66,14,329,31,76,13,276,15*60
$GLGSV,3,3,09,83,03,023,*55
$BDGSV,2,1,06,205,45,140,,214,38,233,,202,29,118,,212,27,155,*66
$BDGSV,2,2,06,208,26,066,,210,23,068,*6C
$GPGSA,A,3,05,07,13,15,17,19,20,28,30,,,,2.2,1.4,1.7*30
$GNGSA,A,3,05,07,13,15,17,19,20,28,30,,,,2.2,1.4,1.7*2E
$GNGSA,A,3,65,66,72,75,76,84,85,,,,,,2.2,1.4,1.7*2B
$QZGSA,A,3,,,,,,,,,,,,,2.2,1.4,1.7*2D
$IMGSA,A,3,,,,,,,,,,,,,2.2,1.4,1.7*22
$BDGSA,A,3,,,,,,,,,,,,,2.2,1.4,1.7*20
$GPRMC,061603.00,A,3205.028564,N,03448.155903,E,002.1,357.1,170616,,,A*51
$GPGGA,061604.00,3205.029641,N,03448.155865,E,1,16,0.8,38.0,M,19.2,M,,*5A
$GPGSV,3,1,10,28,68,023,24,13,56,319,37,30,42,063,26,17,40,145,32*70
$GPGSV,3,2,10,05,28,242,36,15,22,316,36,19,20,172,21,07,20,082,20*72
$GPGSV,3,3,10,20,17,290,28,11,05,067,*79
$GLGSV,3,1,09,65,51,276,26,75,47,330,40,72,36,202,32,74,31,040,33*6F
$GLGSV,3,2,09,84,26,070,20,85,24,126,34,66,14,329,30,76,13,276,15*63
$GLGSV,3,3,09,83,03,023,*55
$BDGSV,2,1,06,205,45,140,,214,38,233,,202,29,118,,212,27,155,*66
$BDGSV,2,2,06,208,26,066,,210,23,068,*6C
$GPGSA,A,3,05,07,13,15,17,19,20,28,30,,,,2.6,1.5,2.1*30
$GNGSA,A,3,05,07,13,15,17,19,20,28,30,,,,2.6,1.5,2.1*2E
$GNGSA,A,3,65,66,72,75,76,84,85,,,,,,2.6,1.5,2.1*2B
$QZGSA,A,3,,,,,,,,,,,,,2.6,1.5,2.1*2D
$IMGSA,A,3,,,,,,,,,,,,,2.6,1.5,2.1*22
$BDGSA,A,3,,,,,,,,,,,,,2.6,1.5,2.1*20
$GPRMC,061604.00,A,3205.029641,N,03448.155865,E,002.2,001.2,170616,,,A*52
$GPGGA,061605.00,3205.030701,N,03448.155855,E,1,15,0.8,37.9,M,19.2,M,,*50
$GPGSV,3,1,10,28,68,023,24,13,56,319,37,30,42,063,26,17,40,145,31*73
$GPGSV,3,2,10,05,28,242,35,15,22,316,37,19,20,172,21,07,20,082,20*70
$GPGSV,3,3,10,20,17,290,28,11,05,067,*79
$GLGSV,3,1,09,65,51,276,25,75,47,330,40,72,36,202,31,74,31,040,32*6E
$GLGSV,3,2,09,84,26,070,19,85,24,126,34,66,14,329,29,76,13,276,15*61
$GLGSV,3,3,09,83,03,023,*55
$BDGSV,2,1,06,205,45,140,,214,38,233,,202,29,118,,212,27,155,*66
$BDGSV,2,2,06,208,26,066,,210,23,068,*6C
$GPGSA,A,3,05,13,15,17,19,20,28,30,,,,,2.4,1.4,1.9*3F
$GNGSA,A,3,05,13,15,17,19,20,28,30,,,,,2.4,1.4,1.9*21
$GNGSA,A,3,65,66,72,75,76,84,85,,,,,,2.4,1.4,1.9*23
$QZGSA,A,3,,,,,,,,,,,,,2.4,1.4,1.9*25
$IMGSA,A,3,,,,,,,,,,,,,2.4,1.4,1.9*2A
$BDGSA,A,3,,,,,,,,,,,,,2.4,1.4,1.9*28
$GPRMC,061605.00,A,3205.030701,N,03448.155855,E,002.2,001.3,170616,,,A*5C
$GPGGA,061606.00,3205.031790,N,03448.155650,E,1,15,1.6,37.0,M,19.2,M,,*57
$GPGSV,3,1,10,28,68,023,24,13,56,319,36,30,42,063,26,17,40,145,31*72
$GPGSV,3,2,10,05,28,242,35,15,22,316,37,19,20,172,20,07,20,082,19*7B
$GPGSV,3,3,10,20,17,290,27,11,05,067,*76
$GLGSV,3,1,09,65,51,276,25,75,47,330,40,72,36,202,31,74,31,040,30*6C
$GLGSV,3,2,09,84,26,070,19,85,24,126,33,66,14,329,29,76,13,276,15*66
$GLGSV,3,3,09,83,03,023,*55
$BDGSV,2,1,06,205,45,140,,214,38,233,,202,29,118,,212,27,155,*66
$BDGSV,2,2,06,208,26,066,,210,23,068,*6C
$GPGSA,A,3,05,13,15,17,19,20,28,30,,,,,2.1,1.4,1.5*36
$GNGSA,A,3,05,13,15,17,19,20,28,30,,,,,2.1,1.4,1.5*28
$GNGSA,A,3,65,66,72,75,76,84,85,,,,,,2.1,1.4,1.5*2A
$QZGSA,A,3,,,,,,,,,,,,,2.1,1.4,1.5*2C
$IMGSA,A,3,,,,,,,,,,,,,2.1,1.4,1.5*23
$BDGSA,A,3,,,,,,,,,,,,,2.1,1.4,1.5*21
$GPRMC,061606.00,A,3205.031790,N,03448.155650,E,002.3,352.6,170616,,,A*5C
$GPGGA,061607.00,3205.032757,N,03448.155335,E,1,15,1.6,36.6,M,19.2,M,,*5F
$GPGSV,3,1,10,28,68,023,23,13,56,319,36,30,42,063,26,17,40,145,29*7C
$GPGSV,3,2,10,05,28,242,33,15,22,316,36,19,20,172,20,07,20,082,18*7D
$GPGSV,3,3,10,20,17,290,27,11,05,067,*76
$GLGSV,3,1,09,65,51,276,25,75,47,330,40,72,36,202,30,74,31,040,28*64
$GLGSV,3,2,09,84,26,070,18,85,24,126,32,66,14,329,28,76,13,276,14*66
$GLGSV,3,3,09,83,03,023,*55
$BDGSV,2,1,06,205,45,140,,214,38,233,,202,29,118,,212,27,155,*66
$BDGSV,2,2,06,208,26,066,,210,23,068,*6C
$GPGSA,A,3,05,13,15,17,19,20,28,30,,,,,2.3,1.7,1.6*34
$GNGSA,A,3,05,13,15,17,19,20,28,30,,,,,2.3,1.7,1.6*2A
$GNGSA,A,3,65,66,72,75,76,84,85,,,,,,2.3,1.7,1.6*28
$QZGSA,A,3,,,,,,,,,,,,,2.3,1.7,1.6*2E
$IMGSA,A,3,,,,,,,,,,,,,2.3,1.7,1.6*21
$BDGSA,A,3,,,,,,,,,,,,,2.3,1.7,1.6*23
$GPRMC,061607.00,A,3205.032757,N,03448.155335,E,002.3,346.3,170616,,,A*53
$GPGGA,061608.00,3205.033847,N,03448.154798,E,1,16,1.6,38.9,M,19.2,M,,*5F
$GPGSV,3,1,10,28,68,023,23,13,56,319,36,30,42,063,33,17,40,145,29*78
$GPGSV,3,2,10,05,28,242,32,15,22,316,36,19,20,172,19,07,20,082,17*79
$GPGSV,3,3,10,20,17,290,26,11,05,067,*77
$GLGSV,3,1,09,65,51,276,24,75,47,330,39,72,36,202,30,74,31,040,28*6B
$GLGSV,3,2,09,84,26,070,18,85,24,126,31,66,14,329,27,76,13,276,14*6A
$GLGSV,3,3,09,83,03,023,*55
$BDGSV,2,1,06,205,45,140,,214,38,233,,202,29,118,,212,27,155,*66
$BDGSV,2,2,06,208,26,066,,210,23,068,*6C
$GPGSA,A,3,05,07,13,15,17,19,20,28,30,,,,2.4,1.3,1.9*3F
$GNGSA,A,3,05,07,13,15,17,19,20,28,30,,,,2.4,1.3,1.9*21
$GNGSA,A,3,65,66,72,75,76,84,85,,,,,,2.4,1.3,1.9*24
$QZGSA,A,3,,,,,,,,,,,,,2.4,1.3,1.9*22
$IMGSA,A,3,,,,,,,,,,,,,2.4,1.3,1.9*2D
$BDGSA,A,3,,,,,,,,,,,,,2.4,1.3,1.9*2F
$GPRMC,061608.00,A,3205.033847,N,03448.154798,E,002.3,349.2,170616,,,A*5F
$GPGGA,061609.00,3205.035010,N,03448.153991,E,1,16,1.6,41.2,M,19.2,M,,*57
$GPGSV,3,1,10,28,68,023,24,13,56,319,36,30,42,063,34,17,40,145,28*79
$GPGSV,3,2,10,05,28,242,31,15,22,316,36,19,20,172,21,07,20,082,17*71
$GPGSV,3,3,10,20,17,290,26,11,05,067,*77
$GLGSV,3,1,09,65,51,276,24,75,47,330,40,72,36,202,30,74,31,040,27*6A
$GLGSV,3,2,09,84,26,070,17,85,24,126,30,66,14,329,26,76,13,276,14*65
$GLGSV,3,3,09,83,03,023,*55
$BDGSV,2,1,06,205,45,140,,214,38,233,,202,29,118,,212,27,155,*66
$BDGSV,2,2,06,208,26,066,,210,23,068,*6C
$GPGSA,A,3,05,07,13,15,17,19,20,28,30,,,,2.6,1.7,1.9*39
$GNGSA,A,3,05,07,13,15,17,19,20,28,30,,,,2.6,1.7,1.9*27
$GNGSA,A,3,65,66,72,75,76,84,85,,,,,,2.6,1.7,1.9*22
$QZGSA,A,3,,,,,,,,,,,,,2.6,1.7,1.9*24
$IMGSA,A,3,,,,,,,,,,,,,2.6,1.7,1.9*2B
$BDGSA,A,3,,,,,,,,,,,,,2.6,1.7,1.9*29
$GPRMC,061609.00,A,3205.035010,N,03448.153991,E,002.3,348.3,170616,,,A*52
$GPGGA,061610.00,3205.036281,N,03448.153074,E,1,16,2.4,43.4,M,19.2,M,,*51
$GPGSV,3,1,10,28,68,023,26,13,56,319,37,30,42,063,34,17,40,145,27*75
$GPGSV,3,2,10,05,28,242,31,15,22,316,36,19,20,172,21,07,20,082,16*70
$GPGSV,3,3,10,20,17,290,26,11,05,067,*77
$GLGSV,3,1,09,65,51,276,31,75,47,330,40,72,36,202,29,74,31,040,26*67
$GLGSV,3,2,09,84,26,070,17,85,24,126,30,66,14,329,26,76,13,276,14*65
$GLGSV,3,3,09,83,03,023,*55
$BDGSV,2,1,06,205,45,140,,214,38,233,,202,29,118,,212,27,154,*67
$BDGSV,2,2,06,208,26,066,,210,23,068,*6C
$GPGSA,A,3,05,07,13,15,17,19,20,28,30,,,,2.6,1.7,1.9*39
$GNGSA,A,3,05,07,13,15,17,19,20,28,30,,,,2.6,1.7,1.9*27
$GNGSA,A,3,65,66,72,75,76,84,85,,,,,,2.6,1.7,1.9*22
$QZGSA,A,3,,,,,,,,,,,,,2.6,1.7,1.9*24
$IMGSA,A,3,,,,,,,,,,,,,2.6,1.7,1.9*2B
$BDGSA,A,3,,,,,,,,,,,,,2.6,1.7,1.9*29
$GPRMC,061610.00,A,3205.036281,N,03448.153074,E,002.4,347.4,170616,,,A*5E
$GPGGA,061611.00,3205.036954,N,03448.152849,E,1,16,2.4,47.5,M,19.2,M,,*51
$GPGSV,3,1,10,28,68,023,28,13,56,319,38,30,42,063,33,17,40,145,27*73
$GPGSV,3,2,10,05,28,242,31,15,22,316,36,19,20,172,21,07,20,082,16*70
$GPGSV,3,3,10,20,17,290,26,11,05,067,*77
$GLGSV,3,1,09,65,51,276,31,75,47,330,39,72,36,202,29,74,31,040,26*69
$GLGSV,3,2,09,84,26,070,17,85,24,126,30,66,14,329,25,76,13,276,14*66
$GLGSV,3,3,09,83,03,023,*55
$BDGSV,2,1,06,205,45,140,,214,38,232,,202,29,118,,212,27,154,*66
$BDGSV,2,2,06,208,26,066,,210,23,068,*6C
$GPGSA,A,3,05,07,13,15,17,19,20,28,30,,,,2.2,1.4,1.8*3F
$GNGSA,A,3,05,07,13,15,17,19,20,28,30,,,,2.2,1.4,1.8*21
$GNGSA,A,3,65,66,72,75,76,84,85,,,,,,2.2,1.4,1.8*24
$QZGSA,A,3,,,,,,,,,,,,,2.2,1.4,1.8*22
$IMGSA,A,3,,,,,,,,,,,,,2.2,1.4,1.8*2D
$BDGSA,A,3,,,,,,,,,,,,,2.2,1.4,1.8*2F
$GPRMC,061611.00,A,3205.036954,N,03448.152849,E,002.2,345.5,170616,,,A*5E
$GPGGA,061612.00,3205.038905,N,03448.151950,E,1,15,1.6,45.3,M,19.2,M,,*54
$GPGSV,3,1,10,28,68,023,31,13,56,319,37,30,42,063,33,17,40,145,26*75
$GPGSV,3,2,10,05,28,242,30,15,22,316,37,19,20,172,21,07,20,082,16*70
$GPGSV,3,3,10,20,17,290,29,11,05,067,*78
$GLGSV,3,1,09,65,51,276,31,75,47,330,39,72,36,202,31,74,31,040,25*63
$GLGSV,3,2,09,84,26,070,17,85,24,126,29,66,15,329,24,76,13,276,15*6F
$GLGSV,3,3,09,83,03,023,*55
$BDGSV,2,1,06,205,45,140,,214,38,232,,202,29,118,,212,27,154,*66
$BDGSV,2,2,06,208,26,066,,210,23,068,*6C
$GPGSA,A,3,05,13,15,17,19,20,28,30,,,,,2.7,1.8,2.1*3B
$GNGSA,A,3,05,13,15,17,19,20,28,30,,,,,2.7,1.8,2.1*25
$GNGSA,A,3,65,66,72,75,76,84,85,,,,,,2.7,1.8,2.1*27
$QZGSA,A,3,,,,,,,,,,,,,2.7,1.8,2.1*21
$IMGSA,A,3,,,,,,,,,,,,,2.7,1.8,2.1*2E
$BDGSA,A,3,,,,,,,,,,,,,2.7,1.8,2.1*2C
$GPRMC,061612.00,A,3205.038905,N,03448.151950,E,002.2,341.0,170616,,,A*5C
$GPGGA,061613.00,3205.039695,N,03448.151492,E,1,16,2.4,44.4,M,19.2,M,,*55
$GPGSV,3,1,10,28,68,023,34,13,56,319,37,30,42,063,32,17,40,145,26*71
$GPGSV,3,2,10,05,28,242,30,15,22,316,37,19,20,172,21,07,20,082,15*73
$GPGSV,3,3,10,20,17,290,29,11,05,067,*78
$GLGSV,3,1,09,65,51,276,31,75,47,330,39,72,36,202,31,74,31,040,24*62
$GLGSV,3,2,09,84,26,070,17,85,24,126,29,66,15,329,24,76,13,276,19*63
$GLGSV,3,3,09,83,03,023,*55
$BDGSV,2,1,06,205,45,140,,214,38,232,,202,29,118,,212,27,154,*66
$BDGSV,2,2,06,208,26,066,,210,23,068,*6C
$GPGSA,A,3,05,07,13,15,17,19,20,28,30,,,,5.5,5.1,2.1*34
$GNGSA,A,3,05,07,13,15,17,19,20,28,30,,,,5.5,5.1,2.1*2A
$GNGSA,A,3,65,66,72,75,76,84,85,,,,,,5.5,5.1,2.1*2F
$QZGSA,A,3,,,,,,,,,,,,,5.5,5.1,2.1*29
$IMGSA,A,3,,,,,,,,,,,,,5.5,5.1,2.1*26
$BDGSA,A,3,,,,,,,,,,,,,5.5,5.1,2.1*24
$GPRMC,061613.00,A,3205.039695,N,03448.151492,E,002.1,332.4,170616,,,A*5A
$GPGGA,061614.00,3205.040682,N,03448.150974,E,1,16,1.6,44.4,M,19.2,M,,*5F
$GPGSV,3,1,10,28,68,023,37,13,56,319,37,30,42,063,32,17,40,145,25*71
$GPGSV,3,2,10,05,28,242,32,15,22,316,37,19,20,172,22,07,20,082,15*72
$GPGSV,3,3,10,20,17,290,28,11,05,067,*79
$GLGSV,3,1,09,65,51,276,31,75,47,330,39,72,36,202,31,74,31,040,24*62
$GLGSV,3,2,09,84,26,070,17,85,24,126,35,66,15,329,23,76,13,276,19*69
$GLGSV,3,3,09,83,03,023,*55
$BDGSV,2,1,06,205,45,140,,214,38,232,,202,29,118,,212,27,154,*66
$BDGSV,2,2,06,208,26,066,,210,23,068,*6C
$GPGSA,A,3,05,07,13,15,17,19,20,28,30,,,,2.6,1.5,2.1*30
$GNGSA,A,3,05,07,13,15,17,19,20,28,30,,,,2.6,1.5,2.1*2E
$GNGSA,A,3,65,66,72,75,76,84,85,,,,,,2.6,1.5,2.1*2B
$QZGSA,A,3,,,,,,,,,,,,,2.6,1.5,2.1*2D
$IMGSA,A,3,,,,,,,,,,,,,2.6,1.5,2.1*22
$BDGSA,A,3,,,,,,,,,,,,,2.6,1.5,2.1*20
$GPRMC,061614.00,A,3205.040682,N,03448.150974,E,002.0,333.2,170616,,,A*57
$GPGGA,061615.00,3205.041945,N,03448.150421,E,1,16,1.6,44.4,M,19.2,M,,*56
$GPGSV,3,1,10,28,68,023,37,13,56,319,38,30,42,063,31,17,40,145,25*7D
$GPGSV,3,2,10,05,28,242,33,15,22,316,37,19,20,172,21,07,20,082,15*70
$GPGSV,3,3,10,20,17,290,28,11,05,067,*79
$GLGSV,3,1,09,65,51,276,31,75,47,330,39,72,36,202,30,74,31,040,24*63
$GLGSV,3,2,09,84,26,070,17,85,24,126,35,66,15,329,23,76,13,276,19*69
$GLGSV,3,3,09,83,03,023,*55
$BDGSV,2,1,06,205,45,140,,214,38,232,,202,29,118,,212,27,154,*66
$BDGSV,2,2,06,208,26,066,,210,23,068,*6C
$GPGSA,A,3,05,07,13,15,17,19,20,28,30,,,,2.0,1.1,1.6*36
$GNGSA,A,3,05,07,13,15,17,19,20,28,30,,,,2.0,1.1,1.6*28
$GNGSA,A,3,65,66,72,75,76,84,85,,,,,,2.0,1.1,1.6*2D
$QZGSA,A,3,,,,,,,,,,,,,2.0,1.1,1.6*2B
$IMGSA,A,3,,,,,,,,,,,,,2.0,1.1,1.6*24
$BDGSA,A,3,,,,,,,,,,,,,2.0,1.1,1.6*26
$GPRMC,061615.00,A,3205.041945,N,03448.150421,E,002.0,337.0,170616,,,A*58
$GPGGA,061616.00,3205.044854,N,03448.149693,E,1,16,0.8,44.5,M,19.2,M,,*5C
$GPGSV,3,1,10,28,68,023,37,13,56,319,38,30,42,063,30,17,40,145,24*7D
$GPGSV,3,2,10,05,28,242,35,15,22,316,36,19,20,172,21,07,20,082,15*77
$GPGSV,3,3,10,20,17,290,27,11,05,067,*76
$GLGSV,3,1,09,65,51,276,37,75,47,330,38,72,36,202,32,74,31,040,24*66
$GLGSV,3,2,09,84,26,070,17,85,24,126,34,66,15,329,23,76,13,276,22*60
$GLGSV,3,3,09,83,03,023,*55
$BDGSV,2,1,06,205,45,140,,214,38,232,,202,29,118,,212,27,154,*66
$BDGSV,2,2,06,208,26,066,,210,23,068,*6C
$GPGSA,A,3,05,07,13,15,17,19,20,28,30,,,,2.4,1.1,2.2*35
$GNGSA,A,3,05,07,13,15,17,19,20,28,30,,,,2.4,1.1,2.2*2B
$GNGSA,A,3,65,66,72,75,76,84,85,,,,,,2.4,1.1,2.2*2E
$QZGSA,A,3,,,,,,,,,,,,,2.4,1.1,2.2*28
$IMGSA,A,3,,,,,,,,,,,,,2.4,1.1,2.2*27
$BDGSA,A,3,,,,,,,,,,,,,2.4,1.1,2.2*25
$GPRMC,061616.00,A,3205.044854,N,03448.149693,E,001.4,337.0,170616,,,A*5B
$GPGGA,061617.00,3205.047269,N,03448.149157,E,1,16,1.2,44.5,M,19.2,M,,*5E
$GPGSV,3,1,10,28,68,023,36,13,56,319,41,30,42,063,29,17,40,145,24*7A
$GPGSV,3,2,10,05,28,242,35,15,22,316,38,19,20,172,22,07,20,082,20*7C
$GPGSV,3,3,10,20,17,290,27,11,05,067,*76
$GLGSV,3,1,09,65,51,276,38,75,47,330,38,72,36,202,33,74,31,040,24*68
$GLGSV,3,2,09,84,26,070,17,85,24,126,37,66,15,329,23,76,13,276,22*63
$GLGSV,3,3,09,83,03,023,*55
$BDGSV,2,1,06,205,45,140,,214,38,232,,202,29,118,,212,27,154,*66
$BDGSV,2,2,06,208,26,066,,210,23,068,*6C
$GPGSA,A,3,05,07,13,15,17,19,20,28,30,,,,2.0,1.0,1.7*36
$GNGSA,A,3,05,07,13,15,17,19,20,28,30,,,,2.0,1.0,1.7*28
$GNGSA,A,3,65,66,72,75,76,84,85,,,,,,2.0,1.0,1.7*2D
$QZGSA,A,3,,,,,,,,,,,,,2.0,1.0,1.7*2B
$IMGSA,A,3,,,,,,,,,,,,,2.0,1.0,1.7*24
$BDGSA,A,3,,,,,,,,,,,,,2.0,1.0,1.7*26
$GPRMC,061617.00,A,3205.047269,N,03448.149157,E,000.0,337.0,170616,,,A*57
$GPGGA,061618.00,3205.048953,N,03448.150526,E,1,16,1.2,44.5,M,19.2,M,,*56
$GPGSV,3,1,10,28,68,023,36,13,56,319,40,30,42,063,29,17,40,145,24*7B
$GPGSV,3,2,10,05,28,242,35,15,22,316,39,19,20,172,23,07,20,082,22*7E
$GPGSV,3,3,10,20,17,290,27,11,05,067,*76
$GLGSV,3,1,09,65,51,276,38,75,47,330,38,72,36,202,36,74,31,040,24*6D
$GLGSV,3,2,09,84,26,070,16,85,24,126,39,66,15,329,23,76,13,276,22*6C
$GLGSV,3,3,09,83,03,023,*55
$BDGSV,2,1,06,205,45,140,,214,38,232,,202,29,118,,212,27,154,*66
$BDGSV,2,2,06,208,26,066,,210,23,068,*6C
$GPGSA,A,3,05,07,13,15,17,19,20,28,30,,,,1.9,1.0,1.6*3D
$GNGSA,A,3,05,07,13,15,17,19,20,28,30,,,,1.9,1.0,1.6*23
$GNGSA,A,3,65,66,72,75,76,84,85,,,,,,1.9,1.0,1.6*26
$QZGSA,A,3,,,,,,,,,,,,,1.9,1.0,1.6*20
$IMGSA,A,3,,,,,,,,,,,,,1.9,1.0,1.6*2F
$BDGSA,A,3,,,,,,,,,,,,,1.9,1.0,1.6*2D
$GPRMC,061618.00,A,3205.048953,N,03448.150526,E,000.0,337.0,170616,,,A*5F
$GPGGA,061619.00,3205.050683,N,03448.151757,E,1,16,1.2,44.6,M,19.2,M,,*5A
$GPGSV,3,1,10,28,68,023,36,13,56,319,40,30,42,063,28,17,40,145,24*7A
$GPGSV,3,2,10,05,28,242,34,15,22,316,39,19,20,172,26,07,20,082,24*7C
$GPGSV,3,3,10,20,17,289,26,11,05,067,*7F
$GLGSV,3,1,09,65,51,276,38,75,47,330,38,72,36,202,36,74,31,040,25*6C
$GLGSV,3,2,09,84,26,070,16,85,24,126,39,66,15,329,23,76,13,276,22*6C
$GLGSV,3,3,09,83,03,023,*55
$BDGSV,2,1,06,205,45,140,,214,38,232,,202,29,118,,212,27,154,*66
$BDGSV,2,2,06,208,26,066,,210,23,068,*6C
$GPGSA,A,3,05,07,13,15,17,19,20,28,30,,,,1.9,1.2,1.5*3C
$GNGSA,A,3,05,07,13,15,17,19,20,28,30,,,,1.9,1.2,1.5*22
$GNGSA,A,3,65,66,72,75,76,84,85,,,,,,1.9,1.2,1.5*27
$QZGSA,A,3,,,,,,,,,,,,,1.9,1.2,1.5*21
$IMGSA,A,3,,,,,,,,,,,,,1.9,1.2,1.5*2E
$BDGSA,A,3,,,,,,,,,,,,,1.9,1.2,1.5*2C
$GPRMC,061619.00,A,3205.050683,N,03448.151757,E,000.0,337.0,170616,,,A*50
$GPGGA,061620.00,3205.052494,N,03448.153020,E,1,16,1.2,44.6,M,19.2,M,,*53
$GPGSV,3,1,10,28,68,023,35,13,56,319,40,30,42,063,27,17,40,145,26*74
$GPGSV,3,2,10,05,28,242,33,15,22,316,40,19,20,172,29,07,20,082,25*7B
$GPGSV,3,3,10,20,17,289,26,11,05,067,*7F
$GLGSV,3,1,09,65,51,276,39,75,47,330,37,72,36,202,35,74,31,040,24*60
$GLGSV,3,2,09,84,26,070,17,85,24,126,39,66,15,329,22,76,13,276,22*6C
$GLGSV,3,3,09,83,03,023,*55
$BDGSV,2,1,06,205,45,140,,214,38,232,,202,29,118,,212,27,154,*66
$BDGSV,2,2,06,208,26,066,,210,23,068,*6C
$GPGSA,A,3,05,07,13,15,17,19,20,28,30,,,,1.8,1.0,1.5*3F
$GNGSA,A,3,05,07,13,15,17,19,20,28,30,,,,1.8,1.0,1.5*21
$GNGSA,A,3,65,66,72,75,76,84,85,,,,,,1.8,1.0,1.5*24
$QZGSA,A,3,,,,,,,,,,,,,1.8,1.0,1.5*22
$IMGSA,A,3,,,,,,,,,,,,,1.8,1.0,1.5*2D
$BDGSA,A,3,,,,,,,,,,,,,1.8,1.0,1.5*2F
$GPRMC,061620.00,A,3205.052494,N,03448.153020,E,000.0,337.0,170616,,,A*59
$GPGGA,061621.00,3205.052502,N,03448.153019,E,1,16,1.6,44.6,M,19.2,M,,*52
$GPGSV,3,1,10,28,68,023,35,13,56,319,39,30,42,063,27,17,40,145,27*7B
$GPGSV,3,2,10,05,28,242,32,15,22,316,41,19,20,172,35,07,20,082,26*75
$GPGSV,3,3,10,20,17,289,26,11,05,067,*7F
$GLGSV,3,1,09,65,51,276,40,75,47,330,37,72,36,202,36,74,31,040,24*6D
$GLGSV,3,2,09,84,26,070,18,85,24,126,38,66,15,329,22,76,13,276,22*62
$GLGSV,3,3,09,83,03,023,*55
$BDGSV,2,1,06,205,45,140,,214,38,232,,202,29,118,,212,27,154,*66
$BDGSV,2,2,06,208,26,066,,210,23,068,*6C
$GPGSA,A,3,05,07,13,15,17,19,20,28,30,,,,1.9,1.0,1.6*3D
$GNGSA,A,3,05,07,13,15,17,19,20,28,30,,,,1.9,1.0,1.6*23
$GNGSA,A,3,65,66,72,75,76,84,85,,,,,,1.9,1.0,1.6*26
$QZGSA,A,3,,,,,,,,,,,,,1.9,1.0,1.6*20
$IMGSA,A,3,,,,,,,,,,,,,1.9,1.0,1.6*2F
$BDGSA,A,3,,,,,,,,,,,,,1.9,1.0,1.6*2D
$GPRMC,061621.00,A,3205.052502,N,03448.153019,E,000.0,337.0,170616,,,A*5C
$GPGGA,061622.00,3205.052502,N,03448.153019,E,1,16,1.2,44.6,M,19.2,M,,*55
$GPGSV,3,1,10,28,68,023,35,13,56,319,39,30,42,063,27,17,40,145,29*75
$GPGSV,3,2,10,05,28,242,32,15,22,316,41,19,20,172,35,07,20,082,27*74
$GPGSV,3,3,10,20,17,289,26,11,05,067,*7F
$GLGSV,3,1,09,65,51,276,41,75,47,330,37,72,36,202,37,74,31,040,24*6D
$GLGSV,3,2,09,84,26,070,19,85,24,126,38,66,15,329,22,76,13,276,21*60
$GLGSV,3,3,09,83,03,023,*55
$BDGSV,2,1,06,205,45,140,,214,38,232,,202,29,118,,212,27,154,*66
$BDGSV,2,2,06,208,26,066,,210,23,068,*6C
$GPGSA,A,3,05,07,13,15,17,19,20,28,30,,,,2.1,1.2,1.7*35
$GNGSA,A,3,05,07,13,15,17,19,20,28,30,,,,2.1,1.2,1.7*2B
$GNGSA,A,3,65,66,72,75,76,84,85,,,,,,2.1,1.2,1.7*2E
$QZGSA,A,3,,,,,,,,,,,,,2.1,1.2,1.7*28
$IMGSA,A,3,,,,,,,,,,,,,2.1,1.2,1.7*27
$BDGSA,A,3,,,,,,,,,,,,,2.1,1.2,1.7*25
$GPRMC,061622.00,A,3205.052502,N,03448.153019,E,000.0,337.0,170616,,,A*5F
$GPGGA,061623.00,3205.052502,N,03448.153019,E,1,16,1.6,44.6,M,19.2,M,,*50
$GPGSV,3,1,10,28,68,023,36,13,56,319,38,30,42,063,26,17,40,145,34*7A
$GPGSV,3,2,10,05,28,242,31,15,22,316,41,19,20,172,35,07,20,082,27*77
$GPGSV,3,3,10,20,17,289,26,11,05,067,*7F
$GLGSV,3,1,09,65,51,276,42,75,47,330,37,72,36,202,42,74,31,040,25*6D
$GLGSV,3,2,09,84,26,070,21,85,24,126,38,66,15,329,22,76,13,276,21*6B
$GLGSV,3,3,09,83,03,023,*55
$BDGSV,2,1,06,205,45,140,,214,38,232,,202,29,118,,212,27,154,*66
$BDGSV,2,2,06,208,26,066,,210,23,068,*6C
$GPGSA,A,3,05,07,13,15,17,19,20,28,30,,,,1.9,1.0,1.6*3D
$GNGSA,A,3,05,07,13,15,17,19,20,28,30,,,,1.9,1.0,1.6*23
$GNGSA,A,3,65,66,72,75,76,84,85,,,,,,1.9,1.0,1.6*26
$QZGSA,A,3,,,,,,,,,,,,,1.9,1.0,1.6*20
$IMGSA,A,3,,,,,,,,,,,,,1.9,1.0,1.6*2F
$BDGSA,A,3,,,,,,,,,,,,,1.9,1.0,1.6*2D
$GPRMC,061623.00,A,3205.052502,N,03448.153019,E,000.6,337.0,170616,,,A*58
$GPGGA,061624.00,3205.052779,N,03448.152456,E,1,16,1.6,44.5,M,19.2,M,,*54
$GPGSV,3,1,10,28,68,023,36,13,56,319,38,30,42,063,26,17,40,145,40*79
$GPGSV,3,2,10,05,28,242,31,15,22,316,41,19,20,172,34,07,20,082,31*71
$GPGSV,3,3,10,20,17,289,26,11,05,067,*7F
$GLGSV,3,1,09,65,51,276,42,75,47,330,36,72,36,202,41,74,31,040,25*6F
$GLGSV,3,2,09,84,26,070,20,85,24,126,38,66,15,329,23,76,13,276,21*6B
$GLGSV,3,3,09,83,03,023,*55
$BDGSV,2,1,06,205,45,140,,214,38,232,,202,29,118,,212,27,154,*66
$BDGSV,2,2,06,208,26,066,,210,23,068,*6C
$GPGSA,A,3,05,07,13,15,17,19,20,28,30,,,,1.9,1.1,1.5*3F
$GNGSA,A,3,05,07,13,15,17,19,20,28,30,,,,1.9,1.1,1.5*21
$GNGSA,A,3,65,66,72,75,76,84,85,,,,,,1.9,1.1,1.5*24
$QZGSA,A,3,,,,,,,,,,,,,1.9,1.1,1.5*22
$IMGSA,A,3,,,,,,,,,,,,,1.9,1.1,1.5*2D
$BDGSA,A,3,,,,,,,,,,,,,1.9,1.1,1.5*2F
$GPRMC,061624.00,A,3205.052779,N,03448.152456,E,000.9,282.1,170616,,,A*5E
$GPGGA,061625.00,3205.052704,N,03448.152302,E,1,16,1.2,44.5,M,19.2,M,,*5D
$GPGSV,3,1,10,28,68,023,36,13,56,319,38,30,42,063,26,17,40,145,41*78
$GPGSV,3,2,10,05,28,242,31,15,22,316,41,19,20,172,33,07,20,082,31*76
$GPGSV,3,3,10,20,17,289,25,11,05,067,*7C
$GLGSV,3,1,09,65,51,276,41,75,47,330,36,72,36,202,40,74,31,040,25*6D
$GLGSV,3,2,09,84,26,070,20,85,24,126,37,66,15,329,23,76,13,276,21*64
$GLGSV,3,3,09,83,03,023,*55
$BDGSV,2,1,06,205,45,140,,214,38,232,,202,29,118,,212,27,154,*66
$BDGSV,2,2,06,208,26,066,,210,23,068,*6C
$GPGSA,A,3,05,07,13,15,17,19,20,28,30,,,,2.2,1.4,1.8*3F
$GNGSA,A,3,05,07,13,15,17,19,20,28,30,,,,2.2,1.4,1.8*21
$GNGSA,A,3,65,66,72,75,76,84,85,,,,,,2.2,1.4,1.8*24
$QZGSA,A,3,,,,,,,,,,,,,2.2,1.4,1.8*22
$IMGSA,A,3,,,,,,,,,,,,,2.2,1.4,1.8*2D
$BDGSA,A,3,,,,,,,,,,,,,2.2,1.4,1.8*2F
$GPRMC,061625.00,A,3205.052704,N,03448.152302,E,001.5,259.1,170616,,,A*58
$GPGGA,061626.00,3205.052244,N,03448.152631,E,1,17,1.2,44.3,M,19.2,M,,*5D
$GPGSV,3,1,10,28,68,023,36,13,56,319,38,30,42,063,26,17,40,145,40*79
$GPGSV,3,2,10,05,28,242,31,15,22,316,40,19,20,172,33,07,20,082,31*77
$GPGSV,3,3,10,20,17,289,27,11,05,067,*7E
$GLGSV,3,1,09,65,51,276,40,75,47,330,35,72,36,202,40,74,31,040,26*6C
$GLGSV,3,2,09,84,26,070,22,85,24,126,36,66,15,329,23,76,13,276,20*66
$GLGSV,3,3,09,83,03,023,*55
$BDGSV,2,1,06,205,45,140,,214,38,232,,202,29,118,,212,27,154,*66
$BDGSV,2,2,06,208,26,066,,210,23,068,*6C
$GPGSA,A,3,05,07,13,15,17,19,20,28,30,,,,2.2,1.3,1.7*37
$GNGSA,A,3,05,07,13,15,17,19,20,28,30,,,,2.2,1.3,1.7*29
$GNGSA,A,3,65,66,72,75,76,83,84,85,,,,,2.2,1.3,1.7*27
$QZGSA,A,3,,,,,,,,,,,,,2.2,1.3,1.7*2A
$IMGSA,A,3,,,,,,,,,,,,,2.2,1.3,1.7*25
$BDGSA,A,3,,,,,,,,,,,,,2.2,1.3,1.7*27
$GPRMC,061626.00,A,3205.052244,N,03448.152631,E,001.7,222.4,170616,,,A*54
$GPGGA,061627.00,3205.051319,N,03448.153316,E,1,15,1.2,44.1,M,19.2,M,,*57
$GPGSV,3,1,10,28,68,023,36,13,56,319,38,30,42,063,26,17,40,145,40*79
$GPGSV,3,2,10,05,28,242,30,15,22,316,39,19,20,172,31,07,20,082,31*7A
$GPGSV,3,3,10,20,17,289,27,11,05,067,*7E
$GLGSV,3,1,09,65,51,276,40,75,47,330,35,72,36,202,39,74,31,040,29*6D
$GLGSV,3,2,09,84,26,070,22,85,24,126,36,66,15,329,24,76,13,276,20*61
$GLGSV,3,3,09,83,03,023,*55
$BDGSV,2,1,06,205,45,140,,214,38,232,,202,29,118,,212,27,154,*66
$BDGSV,2,2,06,208,26,066,,210,23,068,*6C
$GPGSA,A,3,05,07,13,15,17,19,20,28,30,,,,2.1,1.4,1.5*31
$GNGSA,A,3,05,07,13,15,17,19,20,28,30,,,,2.1,1.4,1.5*2F
$GNGSA,A,3,65,66,72,75,84,85,,,,,,,2.1,1.4,1.5*2B
$QZGSA,A,3,,,,,,,,,,,,,2.1,1.4,1.5*2C
$IMGSA,A,3,,,,,,,,,,,,,2.1,1.4,1.5*23
$BDGSA,A,3,,,,,,,,,,,,,2.1,1.4,1.5*21
$GPRMC,061627.00,A,3205.051319,N,03448.153316,E,002.0,209.4,170616,,,A*53
$GPGGA,061628.00,3205.050203,N,03448.153974,E,1,16,0.8,43.9,M,19.2,M,,*5A
$GPGSV,3,1,10,28,68,023,36,13,56,319,38,30,42,063,37,17,40,145,40*79
$GPGSV,3,2,10,05,28,242,30,15,22,316,38,19,20,172,30,07,20,082,30*7B
$GPGSV,3,3,10,20,17,289,27,11,05,067,*7E
$GLGSV,3,1,09,65,51,276,39,75,47,330,35,72,36,202,41,74,31,040,30*64
$GLGSV,3,2,09,84,26,070,22,85,24,126,36,66,15,329,24,76,13,276,19*6B
$GLGSV,3,3,09,83,03,023,*55
$BDGSV,2,1,06,205,45,140,,214,38,232,,202,29,118,,212,27,154,*66
$BDGSV,2,2,06,208,26,066,,210,23,068,*6C
$GPGSA,A,3,05,07,13,15,17,19,20,28,30,,,,3.1,1.6,2.7*33
$GNGSA,A,3,05,07,13,15,17,19,20,28,30,,,,3.1,1.6,2.7*2D
$GNGSA,A,3,65,66,72,75,83,84,85,,,,,,3.1,1.6,2.7*22
$QZGSA,A,3,,,,,,,,,,,,,3.1,1.6,2.7*2E
$IMGSA,A,3,,,,,,,,,,,,,3.1,1.6,2.7*21
$BDGSA,A,3,,,,,,,,,,,,,3.1,1.6,2.7*23
$GPRMC,061628.00,A,3205.050203,N,03448.153974,E,002.1,187.5,170616,,,A*5C
$GPGGA,061629.00,3205.048245,N,03448.153891,E,1,16,0.8,43.8,M,19.2,M,,*5B
$GPGSV,3,1,10,28,68,023,35,13,56,319,37,30,42,063,41,17,40,145,40*74
$GPGSV,3,2,10,05,28,242,29,15,22,316,37,19,20,172,29,07,20,082,29*7C
$GPGSV,3,3,10,20,17,289,26,11,05,067,*7F
$GLGSV,3,1,09,65,51,276,37,75,47,330,35,72,36,202,42,74,31,040,30*69
$GLGSV,3,2,09,84,26,070,22,85,24,126,36,66,15,329,23,76,13,276,18*6D
$GLGSV,3,3,09,83,03,023,*55
$BDGSV,2,1,06,205,45,140,,214,38,232,,202,29,118,,212,27,154,*66
$BDGSV,2,2,06,208,26,066,,210,23,068,*6C
$GPGSA,A,3,05,07,13,15,17,19,20,28,30,,,,2.9,1.3,2.6*3E
$GNGSA,A,3,05,07,13,15,17,19,20,28,30,,,,2.9,1.3,2.6*20
$GNGSA,A,3,65,66,72,75,83,84,85,,,,,,2.9,1.3,2.6*2F
$QZGSA,A,3,,,,,,,,,,,,,2.9,1.3,2.6*23
$IMGSA,A,3,,,,,,,,,,,,,2.9,1.3,2.6*2C
$BDGSA,A,3,,,,,,,,,,,,,2.9,1.3,2.6*2E
$GPRMC,061629.00,A,3205.048245,N,03448.153891,E,002.3,176.4,170616,,,A*51
$GPGGA,061630.00,3205.044824,N,03448.153233,E,1,15,1.2,43.8,M,19.2,M,,*58
$GPGSV,3,1,10,28,68,023,35,13,56,319,37,30,42,063,41,17,40,145,40*74
$GPGSV,3,2,10,05,28,242,29,15,22,316,36,19,20,172,28,07,20,082,29*7C
$GPGSV,3,3,10,20,17,289,26,11,05,067,*7F
$GLGSV,3,1,09,65,51,276,36,75,47,330,34,72,36,202,43,74,31,040,30*68
$GLGSV,3,2,09,84,26,069,22,85,24,126,40,66,15,329,23,76,13,276,17*6B
$GLGSV,3,3,09,83,03,023,*55
$BDGSV,2,1,06,205,45,140,,214,38,232,,202,29,118,,212,27,154,*66
$BDGSV,2,2,06,208,26,066,,210,23,068,*6C
$GPGSA,A,3,05,07,13,15,17,19,20,28,30,,,,2.7,1.3,2.4*32
$GNGSA,A,3,05,07,13,15,17,19,20,28,30,,,,2.7,1.3,2.4*2C
$GNGSA,A,3,65,66,72,75,84,85,,,,,,,2.7,1.3,2.4*28
$QZGSA,A,3,,,,,,,,,,,,,2.7,1.3,2.4*2F
$IMGSA,A,3,,,,,,,,,,,,,2.7,1.3,2.4*20
$BDGSA,A,3,,,,,,,,,,,,,2.7,1.3,2.4*22
$GPRMC,061630.00,A,3205.044824,N,03448.153233,E,002.5,177.9,170616,,,A*50
$GPGGA,061631.00,3205.041899,N,03448.152643,E,1,15,1.2,43.9,M,19.2,M,,*59
$GPGSV,3,1,10,28,68,023,35,13,56,319,37,30,42,063,40,17,40,145,39*7B
$GPGSV,3,2,10,05,28,242,28,15,22,316,36,19,20,172,27,07,20,082,28*73
$GPGSV,3,3,10,20,17,289,26,11,05,067,*7F
$GLGSV,3,1,09,65,51,276,35,75,47,330,34,72,36,202,43,74,31,040,30*6B
$GLGSV,3,2,09,84,26,069,22,85,24,126,40,66,15,329,23,76,13,276,16*6A
$GLGSV,3,3,09,83,03,023,*55
$BDGSV,2,1,06,205,45,140,,214,38,232,,202,29,118,,212,27,154,*66
$BDGSV,2,2,06,208,26,066,,210,23,068,*6C
$GPGSA,A,3,05,07,13,15,17,19,20,28,30,,,,2.7,1.3,2.4*32
$GNGSA,A,3,05,07,13,15,17,19,20,28,30,,,,2.7,1.3,2.4*2C
$GNGSA,A,3,65,66,72,75,84,85,,,,,,,2.7,1.3,2.4*28
$QZGSA,A,3,,,,,,,,,,,,,2.7,1.3,2.4*2F
$IMGSA,A,3,,,,,,,,,,,,,2.7,1.3,2.4*20
$BDGSA,A,3,,,,,,,,,,,,,2.7,1.3,2.4*22
$GPRMC,061631.00,A,3205.041899,N,03448.152643,E,002.6,177.3,170616,,,A*59
$GPGGA,061632.00,3205.039473,N,03448.152300,E,1,15,1.2,44.1,M,19.2,M,,*50
$GPGSV,3,1,10,28,68,023,35,13,56,319,37,30,42,063,39,17,40,145,38*74
$GPGSV,3,2,10,05,28,242,28,15,22,316,35,19,20,172,26,07,20,082,27*7E
$GPGSV,3,3,10,20,17,289,25,11,05,067,*7C
$GLGSV,3,1,09,65,51,276,34,75,47,330,34,72,36,202,42,74,31,040,30*6B
$GLGSV,3,2,09,84,26,069,21,85,24,126,41,66,15,329,23,76,13,276,15*6B
$GLGSV,3,3,09,83,03,023,*55
$BDGSV,2,1,06,205,45,140,,214,38,232,,202,29,118,,212,27,154,*66
$BDGSV,2,2,06,208,26,066,,210,23,068,*6C
$GPGSA,A,3,05,07,13,15,17,19,20,28,30,,,,2.7,1.3,2.4*32
$GNGSA,A,3,05,07,13,15,17,19,20,28,30,,,,2.7,1.3,2.4*2C
$GNGSA,A,3,65,66,72,75,84,85,,,,,,,2.7,1.3,2.4*28
$QZGSA,A,3,,,,,,,,,,,,,2.7,1.3,2.4*2F
$IMGSA,A,3,,,,,,,,,,,,,2.7,1.3,2.4*20
$BDGSA,A,3,,,,,,,,,,,,,2.7,1.3,2.4*22
$GPRMC,061632.00,A,3205.039473,N,03448.152300,E,002.6,173.7,170616,,,A*5F
$GPGGA,061633.00,3205.038729,N,03448.151720,E,1,15,1.2,44.3,M,19.2,M,,*5B
$GPGSV,3,1,10,28,68,023,35,13,56,319,37,30,42,063,38,17,40,145,38*75
$GPGSV,3,2,10,05,28,242,27,15,22,316,35,19,20,172,26,07,20,082,27*71
$GPGSV,3,3,10,20,17,289,25,11,05,067,*7C
$GLGSV,3,1,09,65,51,276,32,75,47,330,34,72,36,202,42,74,31,040,29*65
$GLGSV,3,2,09,84,26,069,20,85,24,126,41,66,15,329,23,76,13,276,14*6B
$GLGSV,3,3,09,83,03,023,*55
$BDGSV,2,1,06,205,45,140,,214,38,232,,202,29,118,,212,27,154,*66
$BDGSV,2,2,06,208,26,066,,210,23,068,*6C
$GPGSA,A,3,05,07,13,15,17,19,20,28,30,,,,2.2,1.4,1.7*30
$GNGSA,A,3,05,07,13,15,17,19,20,28,30,,,,2.2,1.4,1.7*2E
$GNGSA,A,3,65,66,72,75,84,85,,,,,,,2.2,1.4,1.7*2A
$QZGSA,A,3,,,,,,,,,,,,,2.2,1.4,1.7*2D
$IMGSA,A,3,,,,,,,,,,,,,2.2,1.4,1.7*22
$BDGSA,A,3,,,,,,,,,,,,,2.2,1.4,1.7*20
$GPRMC,061633.00,A,3205.038729,N,03448.151720,E,002.6,182.5,170616,,,A*5A
$GPGGA,061634.00,3205.037934,N,03448.151340,E,1,15,1.2,44.5,M,19.2,M,,*55
$GPGSV,3,1,10,28,68,023,35,13,56,319,37,30,42,063,37,17,40,145,37*75
$GPGSV,3,2,10,05,28,242,27,15,22,316,34,19,20,172,25,07,20,082,27*73
$GPGSV,3,3,10,20,17,289,25,11,05,067,*7C
$GLGSV,3,1,09,65,51,276,31,75,47,330,34,72,36,202,41,74,31,040,29*65
$GLGSV,3,2,09,84,26,069,20,85,24,126,44,66,15,329,23,76,13,276,11*6B
$GLGSV,3,3,09,83,03,023,*55
$BDGSV,2,1,06,205,45,140,,214,38,232,,202,29,118,,212,27,154,*66
$BDGSV,2,2,06,208,26,066,,210,23,068,*6C
$GPGSA,A,3,05,07,13,15,17,19,20,28,30,,,,2.6,1.2,2.2*34
$GNGSA,A,3,05,07,13,15,17,19,20,28,30,,,,2.6,1.2,2.2*2A
$GNGSA,A,3,65,66,72,75,84,85,,,,,,,2.6,1.2,2.2*2E
$QZGSA,A,3,,,,,,,,,,,,,2.6,1.2,2.2*29
$IMGSA,A,3,,,,,,,,,,,,,2.6,1.2,2.2*26
$BDGSA,A,3,,,,,,,,,,,,,2.6,1.2,2.2*24
$GPRMC,061634.00,A,3205.037934,N,03448.151340,E,002.6,179.8,170616,,,A*5B
$GPGGA,061635.00,3205.037036,N,03448.151007,E,1,15,1.2,44.7,M,19.2,M,,*5D
$GPGSV,3,1,10,28,68,023,34,13,56,319,36,30,42,063,36,17,40,145,37*74
$GPGSV,3,2,10,05,28,242,29,15,22,316,34,19,20,172,25,07,20,082,26*7C
$GPGSV,3,3,10,20,17,289,25,11,05,067,*7C
$GLGSV,3,1,09,65,51,276,30,75,47,330,34,72,36,202,41,74,31,040,30*6C
$GLGSV,3,2,09,84,26,069,20,85,24,126,44,66,15,329,23,76,14,276,11*6C
$GLGSV,3,3,09,83,03,023,*55
$BDGSV,2,1,06,205,45,140,,214,38,232,,202,29,118,,212,27,154,*66
$BDGSV,2,2,06,208,26,066,,210,23,068,*6C
$GPGSA,A,3,05,07,13,15,17,19,20,28,30,,,,2.8,1.5,2.4*3B
$GNGSA,A,3,05,07,13,15,17,19,20,28,30,,,,2.8,1.5,2.4*25
$GNGSA,A,3,65,66,72,75,84,85,,,,,,,2.8,1.5,2.4*21
$QZGSA,A,3,,,,,,,,,,,,,2.8,1.5,2.4*26
$IMGSA,A,3,,,,,,,,,,,,,2.8,1.5,2.4*29
$BDGSA,A,3,,,,,,,,,,,,,2.8,1.5,2.4*2B
$GPRMC,061635.00,A,3205.037036,N,03448.151007,E,002.6,183.3,170616,,,A*5F
$GPGGA,061636.00,3205.036064,N,03448.150739,E,1,16,1.2,45.0,M,19.2,M,,*56
$GPGSV,3,1,10,28,68,023,34,13,56,319,36,30,42,063,35,17,40,145,37*77
$GPGSV,3,2,10,05,28,242,29,15,22,316,33,19,20,172,24,07,20,082,26*7A
$GPGSV,3,3,10,20,17,289,25,11,05,067,*7C
$GLGSV,3,1,09,65,51,276,29,75,47,330,35,72,36,202,40,74,31,040,30*64
$GLGSV,3,2,09,84,26,069,20,85,24,126,43,66,15,329,22,76,14,276,13*68
$GLGSV,3,3,09,83,03,023,*55
$BDGSV,2,1,06,205,45,140,,214,38,232,,202,29,118,,212,27,154,*66
$BDGSV,2,2,06,208,26,066,,210,23,068,*6C
$GPGSA,A,3,05,07,13,15,17,19,20,28,30,,,,2.6,1.2,2.2*34
$GNGSA,A,3,05,07,13,15,17,19,20,28,30,,,,2.6,1.2,2.2*2A
$GNGSA,A,3,65,66,72,75,76,84,85,,,,,,2.6,1.2,2.2*2F
$QZGSA,A,3,,,,,,,,,,,,,2.6,1.2,2.2*29
$IMGSA,A,3,,,,,,,,,,,,,2.6,1.2,2.2*26
$BDGSA,A,3,,,,,,,,,,,,,2.6,1.2,2.2*24
$GPRMC,061636.00,A,3205.036064,N,03448.150739,E,002.7,188.1,170616,,,A*59
$GPGGA,061637.00,3205.035172,N,03448.150459,E,1,16,1.2,45.3,M,19.2,M,,*54
$GPGSV,3,1,10,28,68,023,34,13,56,319,35,30,42,063,33,17,40,145,37*72
$GPGSV,3,2,10,05,28,242,29,15,22,316,33,19,20,172,24,07,20,082,26*7A
$GPGSV,3,3,10,20,17,289,25,11,05,067,*7C
$GLGSV,3,1,09,65,51,276,29,75,47,330,34,72,36,202,40,74,31,040,30*65
$GLGSV,3,2,09,84,26,069,19,85,24,126,43,66,15,329,22,76,14,276,13*62
$GLGSV,3,3,09,83,03,023,*55
$BDGSV,2,1,06,205,45,140,,214,38,232,,202,29,118,,212,27,154,*66
$BDGSV,2,2,06,208,26,066,,210,23,068,*6C
$GPGSA,A,3,05,07,13,15,17,19,20,28,30,,,,2.0,1.4,1.5*30
$GNGSA,A,3,05,07,13,15,17,19,20,28,30,,,,2.0,1.4,1.5*2E
$GNGSA,A,3,65,66,72,75,76,84,85,,,,,,2.0,1.4,1.5*2B
$QZGSA,A,3,,,,,,,,,,,,,2.0,1.4,1.5*2D
$IMGSA,A,3,,,,,,,,,,,,,2.0,1.4,1.5*22
$BDGSA,A,3,,,,,,,,,,,,,2.0,1.4,1.5*20
$GPRMC,061637.00,A,3205.035172,N,03448.150459,E,002.7,193.4,170616,,,A*57
$GPGGA,061638.00,3205.034393,N,03448.150288,E,1,16,1.6,45.7,M,19.2,M,,*5D
$GPGSV,3,1,10,28,68,023,34,13,56,319,34,30,42,063,32,17,40,145,36*73
$GPGSV,3,2,10,05,28,242,29,15,22,316,32,19,20,172,23,07,20,082,26*7C
$GPGSV,3,3,10,20,17,289,26,11,05,067,*7F
$GLGSV,3,1,09,65,51,276,28,75,47,330,34,72,36,202,40,74,31,040,32*66
$GLGSV,3,2,09,84,26,069,19,85,24,126,42,66,15,329,24,76,14,276,14*62
$GLGSV,3,3,09,83,03,023,*55
$BDGSV,2,1,06,205,45,140,,214,38,232,,202,29,118,,212,27,154,*66
$BDGSV,2,2,06,208,26,066,,210,23,068,*6C
$GPGSA,A,3,05,07,13,15,17,19,20,28,30,,,,2.1,1.4,1.6*32
$GNGSA,A,3,05,07,13,15,17,19,20,28,30,,,,2.1,1.4,1.6*2C
$GNGSA,A,3,65,66,72,75,76,84,85,,,,,,2.1,1.4,1.6*29
$QZGSA,A,3,,,,,,,,,,,,,2.1,1.4,1.6*2F
$IMGSA,A,3,,,,,,,,,,,,,2.1,1.4,1.6*20
$BDGSA,A,3,,,,,,,,,,,,,2.1,1.4,1.6*22
$GPRMC,061638.00,A,3205.034393,N,03448.150288,E,002.7,191.1,170616,,,A*59
$GPGGA,061639.00,3205.033708,N,03448.150373,E,1,16,1.6,46.0,M,19.2,M,,*5C
$GPGSV,3,1,10,28,68,023,35,13,56,319,34,30,42,063,32,17,40,145,36*72
$GPGSV,3,2,10,05,28,242,29,15,22,316,32,19,20,172,23,07,20,082,28*72
$GPGSV,3,3,10,20,17,289,26,11,05,066,*7E
$GLGSV,3,1,09,65,51,276,28,75,47,330,34,72,36,202,40,74,31,040,33*67
$GLGSV,3,2,09,84,26,069,19,85,24,126,41,66,15,329,25,76,14,276,14*60
$GLGSV,3,3,09,83,03,023,*55
$BDGSV,2,1,06,205,45,140,,214,38,232,,202,29,118,,212,27,154,*66
$BDGSV,2,2,06,208,26,066,,210,23,068,*6C
$GPGSA,A,3,05,07,13,15,17,19,20,28,30,,,,2.0,1.4,1.5*30
$GNGSA,A,3,05,07,13,15,17,19,20,28,30,,,,2.0,1.4,1.5*2E
$GNGSA,A,3,65,66,72,75,76,84,85,,,,,,2.0,1.4,1.5*2B
$QZGSA,A,3,,,,,,,,,,,,,2.0,1.4,1.5*2D
$IMGSA,A,3,,,,,,,,,,,,,2.0,1.4,1.5*22
$BDGSA,A,3,,,,,,,,,,,,,2.0,1.4,1.5*20
$GPRMC,061639.00,A,3205.033708,N,03448.150373,E,002.7,179.9,170616,,,A*52
$GPGGA,061640.00,3205.033070,N,03448.150453,E,1,16,1.6,46.3,M,19.2,M,,*5C
$GPGSV,3,1,10,28,68,023,35,13,56,319,34,30,42,063,31,17,40,145,37*70
$GPGSV,3,2,10,05,28,242,29,15,22,316,32,19,20,172,23,07,20,082,27*7D
$GPGSV,3,3,10,20,17,289,26,11,05,066,*7E
$GLGSV,3,1,09,65,51,276,28,75,47,330,34,72,36,202,39,74,31,040,33*69
$GLGSV,3,2,09,84,26,069,19,85,24,126,41,66,15,329,25,76,14,276,14*60
$GLGSV,3,3,09,83,03,023,*55
$BDGSV,2,1,06,205,45,140,,214,38,232,,202,29,118,,212,27,154,*66
$BDGSV,2,2,06,208,26,066,,210,23,068,*6C
$GPGSA,A,3,05,07,13,15,17,19,20,28,30,,,,2.2,1.3,1.7*37
$GNGSA,A,3,05,07,13,15,17,19,20,28,30,,,,2.2,1.3,1.7*29
$GNGSA,A,3,65,66,72,75,76,84,85,,,,,,2.2,1.3,1.7*2C
$QZGSA,A,3,,,,,,,,,,,,,2.2,1.3,1.7*2A
$IMGSA,A,3,,,,,,,,,,,,,2.2,1.3,1.7*25
$BDGSA,A,3,,,,,,,,,,,,,2.2,1.3,1.7*27
$GPRMC,061640.00,A,3205.033070,N,03448.150453,E,002.7,197.8,170616,,,A*50
$GPGGA,061641.00,3205.032461,N,03448.150596,E,1,16,2.4,46.8,M,19.2,M,,*5A
$GPGSV,3,1,10,28,68,023,39,13,56,319,33,30,42,063,30,17,40,145,38*75
$GPGSV,3,2,10,05,28,242,29,15,22,316,36,19,20,172,23,07,20,082,27*79
$GPGSV,3,3,10,20,17,289,30,11,05,066,*79
$GLGSV,3,1,09,65,51,276,27,75,47,330,34,72,36,202,39,74,31,040,34*61
$GLGSV,3,2,09,84,26,069,20,85,24,126,40,66,15,329,25,76,14,276,14*6B
$GLGSV,3,3,09,83,03,023,*55
$BDGSV,2,1,06,205,45,140,,214,38,232,,202,29,118,,212,27,154,*66
$BDGSV,2,2,06,208,26,066,,210,23,068,*6C
$GPGSA,A,3,05,07,13,15,17,19,20,28,30,,,,2.1,1.3,1.6*35
$GNGSA,A,3,05,07,13,15,17,19,20,28,30,,,,2.1,1.3,1.6*2B
$GNGSA,A,3,65,66,72,75,76,84,85,,,,,,2.1,1.3,1.6*2E
$QZGSA,A,3,,,,,,,,,,,,,2.1,1.3,1.6*28
$IMGSA,A,3,,,,,,,,,,,,,2.1,1.3,1.6*27
$BDGSA,A,3,,,,,,,,,,,,,2.1,1.3,1.6*25
$GPRMC,061641.00,A,3205.032461,N,03448.150596,E,002.7,207.8,170616,,,A*56
$GPGGA,061642.00,3205.031743,N,03448.150755,E,1,16,2.4,47.2,M,19.2,M,,*5F
$GPGSV,3,1,10,28,68,023,39,13,57,319,34,30,42,063,29,17,40,145,38*7B
$GPGSV,3,2,10,05,28,242,29,15,22,316,35,19,20,172,24,07,20,082,27*7D
$GPGSV,3,3,10,20,17,289,34,11,05,066,*7D
$GLGSV,3,1,09,65,51,276,27,75,47,330,33,72,36,202,38,74,31,040,34*67
$GLGSV,3,2,09,84,26,069,20,85,24,126,40,66,15,329,24,76,14,276,13*6D
$GLGSV,3,3,09,83,03,023,*55
$BDGSV,2,1,06,205,45,140,,214,38,232,,202,29,118,,212,27,154,*66
$BDGSV,2,2,06,208,26,066,,210,23,068,*6C
$GPGSA,A,3,05,07,13,15,17,19,20,28,30,,,,2.2,1.3,1.7*37
$GNGSA,A,3,05,07,13,15,17,19,20,28,30,,,,2.2,1.3,1.7*29
$GNGSA,A,3,65,66,72,75,76,84,85,,,,,,2.2,1.3,1.7*2C
$QZGSA,A,3,,,,,,,,,,,,,2.2,1.3,1.7*2A
$IMGSA,A,3,,,,,,,,,,,,,2.2,1.3,1.7*25
$BDGSA,A,3,,,,,,,,,,,,,2.2,1.3,1.7*27
$GPRMC,061642.00,A,3205.031743,N,03448.150755,E,002.7,204.1,170616,,,A*52
$GPGGA,061643.00,3205.031064,N,03448.151210,E,1,16,2.4,47.6,M,19.2,M,,*5D
$GPGSV,3,1,10,28,68,023,39,13,57,319,35,30,42,063,29,17,40,145,37*75
$GPGSV,3,2,10,05,28,242,29,15,22,316,35,19,20,172,24,07,20,082,30*7B
$GPGSV,3,3,10,20,17,289,35,11,05,066,*7C
$GLGSV,3,1,09,65,51,276,27,75,47,330,32,72,36,202,37,74,31,040,33*6E
$GLGSV,3,2,09,84,26,069,19,85,24,126,40,66,15,329,24,76,14,276,13*67
$GLGSV,3,3,09,83,03,023,*55
$BDGSV,2,1,06,205,45,140,,214,38,232,,202,29,118,,212,27,154,*66
$BDGSV,2,2,06,208,26,066,,210,23,068,*6C
$GPGSA,A,3,05,07,13,15,17,19,20,28,30,,,,2.0,1.1,1.7*37
$GNGSA,A,3,05,07,13,15,17,19,20,28,30,,,,2.0,1.1,1.7*29
$GNGSA,A,3,65,66,72,75,76,84,85,,,,,,2.0,1.1,1.7*2C
$QZGSA,A,3,,,,,,,,,,,,,2.0,1.1,1.7*2A
$IMGSA,A,3,,,,,,,,,,,,,2.0,1.1,1.7*25
$BDGSA,A,3,,,,,,,,,,,,,2.0,1.1,1.7*27
$GPRMC,061643.00,A,3205.031064,N,03448.151210,E,002.6,199.4,170616,,,A*57
$GPGGA,061644.00,3205.030609,N,03448.151837,E,1,16,2.4,48.0,M,19.2,M,,*50
$GPGSV,3,1,10,28,68,023,39,13,57,319,35,30,42,063,28,17,40,145,37*74
$GPGSV,3,2,10,05,28,242,28,15,22,316,34,19,20,172,23,07,20,082,30*7C
$GPGSV,3,3,10,20,17,289,35,11,05,066,*7C
$GLGSV,3,1,09,65,51,276,27,75,47,330,31,72,36,202,37,74,31,040,33*6D
$GLGSV,3,2,09,84,26,069,19,85,24,126,39,66,15,329,24,76,14,276,15*6F
$GLGSV,3,3,09,83,03,023,*55
$BDGSV,2,1,06,205,45,140,,214,38,232,,202,29,118,,212,27,154,*66
$BDGSV,2,2,06,208,26,066,,210,23,068,*6C
$GPGSA,A,3,05,07,13,15,17,19,20,28,30,,,,2.0,1.2,1.7*34
$GNGSA,A,3,05,07,13,15,17,19,20,28,30,,,,2.0,1.2,1.7*2A
$GNGSA,A,3,65,66,72,75,76,84,85,,,,,,2.0,1.2,1.7*2F
$QZGSA,A,3,,,,,,,,,,,,,2.0,1.2,1.7*29
$IMGSA,A,3,,,,,,,,,,,,,2.0,1.2,1.7*26
$BDGSA,A,3,,,,,,,,,,,,,2.0,1.2,1.7*24
$GPRMC,061644.00,A,3205.030609,N,03448.151837,E,001.3,199.4,170616,,,A*55
$GPGGA,061645.00,3205.030069,N,03448.152254,E,1,16,2.4,48.4,M,19.2,M,,*59
$GPGSV,3,1,10,28,68,023,39,13,57,319,35,30,42,063,29,17,40,145,37*75
$GPGSV,3,2,10,05,28,242,28,15,22,316,34,19,20,172,23,07,20,082,29*74
$GPGSV,3,3,10,20,17,289,34,11,05,066,*7D
$GLGSV,3,1,09,65,51,276,27,75,47,330,31,72,36,202,36,74,31,040,33*6C
$GLGSV,3,2,09,84,26,069,20,85,24,126,39,66,15,329,23,76,14,276,19*6E
$GLGSV,3,3,09,83,03,023,*55
$BDGSV,2,1,06,205,45,140,30,214,38,232,,202,29,118,,212,27,154,*65
$BDGSV,2,2,06,208,26,066,,210,23,068,*6C
$GPGSA,A,3,05,07,13,15,17,19,20,28,30,,,,2.0,1.1,1.7*37
$GNGSA,A,3,05,07,13,15,17,19,20,28,30,,,,2.0,1.1,1.7*29
$GNGSA,A,3,65,66,72,75,76,84,85,,,,,,2.0,1.1,1.7*2C
$QZGSA,A,3,,,,,,,,,,,,,2.0,1.1,1.7*2A
