$GPGGA,065718.19,,,,,0,00,999.9,,M,,M,,*63
$GPGSV,3,1,11,13,74,295,,17,55,124,,28,51,032,,19,38,165,*7B
$GPGSV,3,2,11,15,38,309,,30,32,083,,05,17,227,,20,14,271,*73
$GPGSV,3,3,11,24,10,297,,07,09,097,,11,03,050,*44
$GLGSV,3,1,09,75,47,002,,65,41,244,,85,40,105,,66,27,313,*60
$GLGSV,3,2,09,84,24,046,,76,23,296,,74,21,061,,86,15,160,*62
$GLGSV,3,3,09,72,15,195,*50
$BDGSV,2,1,07,205,45,140,,212,43,144,,208,29,057,,202,29,118,*68
$BDGSV,2,2,07,214,25,218,,210,22,077,,211,07,188,*63
$GPGSA,A,1,,,,,,,,,,,,,140.0,99.0,99.0*35
$GNGSA,A,1,,,,,,,,,,,,,140.0,99.0,99.0*2B
$GNGSA,A,1,,,,,,,,,,,,,140.0,99.0,99.0*2B
$QZGSA,A,1,,,,,,,,,,,,,140.0,99.0,99.0*29
$IMGSA,A,1,,,,,,,,,,,,,140.0,99.0,99.0*26
$BDGSA,A,1,,,,,,,,,,,,,140.0,99.0,99.0*24
$GPRMC,065718.19,V,,,,,,,170616,,,N*7F
$GPGGA,065718.99,,,,,0,00,999.9,,M,,M,,*6B
$GPGSV,3,1,11,15,38,309,26,13,74,295,,17,55,124,,28,51,032,*7B
$GPGSV,3,2,11,19,38,165,,30,32,083,,05,17,227,,20,14,271,*77
$GPGSV,3,3,11,24,10,297,,07,09,097,,11,03,050,*44
$GLGSV,3,1,09,75,47,002,,65,41,244,,85,40,105,,66,27,313,*60
$GLGSV,3,2,09,84,24,046,,76,23,296,,74,21,061,,86,15,160,*62
$GLGSV,3,3,09,72,15,195,*50
$BDGSV,2,1,07,205,45,140,,212,43,144,,208,29,057,,202,29,118,*68
$BDGSV,2,2,07,214,25,218,,210,22,077,,211,07,188,*63
$GPGSA,A,1,,,,,,,,,,,,,140.0,99.0,99.0*35
$GNGSA,A,1,,,,,,,,,,,,,140.0,99.0,99.0*2B
$GNGSA,A,1,,,,,,,,,,,,,140.0,99.0,99.0*2B
$QZGSA,A,1,,,,,,,,,,,,,140.0,99.0,99.0*29
$IMGSA,A,1,,,,,,,,,,,,,140.0,99.0,99.0*26
$BDGSA,A,1,,,,,,,,,,,,,140.0,99.0,99.0*24
$GPRMC,065718.99,V,,,,,,,170616,,,N*77
$GPGGA,065719.19,,,,,0,00,999.9,,M,,M,,*62
$GPGSV,3,1,11,15,38,309,26,13,74,295,,17,55,124,,28,51,032,*7B
$GPGSV,3,2,11,19,38,165,,30,32,083,,05,17,227,,20,14,271,*77
$GPGSV,3,3,11,24,10,297,,07,09,097,,11,03,050,*44
$GLGSV,3,1,09,65,41,244,32,75,47,002,,85,40,105,,66,27,313,*61
$GLGSV,3,2,09,84,24,046,,76,23,296,,74,21,061,,86,15,160,*62
$GLGSV,3,3,09,72,15,195,*50
$BDGSV,2,1,07,212,43,144,33,205,45,140,,208,29,057,,202,29,118,*68
$BDGSV,2,2,07,214,25,218,,210,22,077,,211,07,188,*63
$GPGSA,A,1,,,,,,,,,,,,,140.0,99.0,99.0*35
$GNGSA,A,1,,,,,,,,,,,,,140.0,99.0,99.0*2B
$GNGSA,A,1,,,,,,,,,,,,,140.0,99.0,99.0*2B
$QZGSA,A,1,,,,,,,,,,,,,140.0,99.0,99.0*29
$IMGSA,A,1,,,,,,,,,,,,,140.0,99.0,99.0*26
$BDGSA,A,1,,,,,,,,,,,,,140.0,99.0,99.0*24
$GPRMC,065719.19,V,,,,,,,170616,,,N*7E
$GPGGA,065720.19,,,,,0,00,999.9,,M,,M,,*68
$GPGSV,3,1,11,15,38,309,27,13,74,295,,17,55,124,,28,51,032,*7A
$GPGSV,3,2,11,19,38,165,,30,32,083,,05,17,227,,20,14,271,*77
$GPGSV,3,3,11,24,10,297,,07,09,097,,11,03,050,*44
$GLGSV,3,1,09,75,47,002,35,65,41,244,32,66,27,313,23,85,40,105,*66
$GLGSV,3,2,09,84,24,046,,76,23,296,,74,21,061,,86,15,160,*62
$GLGSV,3,3,09,72,15,195,*50
$BDGSV,2,1,07,212,43,144,33,205,45,140,,208,29,057,,202,29,118,*68
$BDGSV,2,2,07,214,25,218,,210,22,077,,211,07,188,*63
$GPGSA,A,1,,,,,,,,,,,,,140.0,99.0,99.0*35
$GNGSA,A,1,,,,,,,,,,,,,140.0,99.0,99.0*2B
$GNGSA,A,1,,,,,,,,,,,,,140.0,99.0,99.0*2B
$QZGSA,A,1,,,,,,,,,,,,,140.0,99.0,99.0*29
$IMGSA,A,1,,,,,,,,,,,,,140.0,99.0,99.0*26
$BDGSA,A,1,,,,,,,,,,,,,140.0,99.0,99.0*24
$GPRMC,065720.19,V,,,,,,,170616,,,N*74
$GPGGA,065721.18,3205.035468,N,03448.147536,E,1,09,2.4,171.3,M,19.2,M,,*62
$GPGSV,3,1,11,13,74,295,21,17,55,124,19,28,51,032,24,15,38,309,30*71
$GPGSV,3,2,11,19,38,165,27,30,32,083,23,05,17,227,16,20,14,271,21*77
$GPGSV,3,3,11,07,09,097,18,24,10,297,,11,03,050,*4D
$GLGSV,3,1,09,75,47,002,34,65,41,244,32,66,27,313,32,85,40,105,*67
$GLGSV,3,2,09,84,24,046,,76,23,296,,74,21,061,,86,15,160,*62
$GLGSV,3,3,09,72,15,195,*50
$BDGSV,2,1,07,212,43,144,33,205,45,140,,202,29,118,,208,29,057,*68
$BDGSV,2,2,07,214,25,218,,210,22,077,,211,07,188,*63
$GPGSA,A,3,13,15,19,20,28,30,,,,,,,2.1,1.0,1.9*3D
$GNGSA,A,3,13,15,19,20,28,30,,,,,,,2.1,1.0,1.9*23
$GNGSA,A,3,65,66,75,,,,,,,,,,2.1,1.0,1.9*27
$QZGSA,A,3,,,,,,,,,,,,,2.1,1.0,1.9*24
$IMGSA,A,3,,,,,,,,,,,,,2.1,1.0,1.9*2B
$BDGSA,A,3,,,,,,,,,,,,,2.1,1.0,1.9*29
$GPRMC,065721.18,A,3205.035468,N,03448.147536,E,002.9,048.0,170616,,,A*51
$GPGGA,065722.18,3205.035092,N,03448.146448,E,1,14,3.2,174.1,M,19.2,M,,*65
$GPGSV,3,1,11,13,74,295,21,17,55,124,22,28,51,032,25,15,38,309,30*78
$GPGSV,3,2,11,19,38,165,27,30,32,083,26,05,17,227,16,20,14,271,21*72
$GPGSV,3,3,11,24,10,297,20,07,09,097,27,11,03,050,*43
$GLGSV,3,1,09,75,47,002,39,65,41,244,35,85,40,105,24,66,27,313,32*6B
$GLGSV,3,2,09,84,24,046,,76,23,296,,74,21,061,,86,15,160,*62
$GLGSV,3,3,09,72,15,195,*50
$BDGSV,2,1,07,212,43,144,33,205,45,140,,208,29,057,,202,29,118,*68
$BDGSV,2,2,07,214,25,218,,210,22,077,,211,07,188,*63
$GPGSA,A,3,05,07,13,15,17,19,20,24,28,30,,,3.6,1.3,3.4*35
$GNGSA,A,3,05,07,13,15,17,19,20,24,28,30,,,3.6,1.3,3.4*2B
$GNGSA,A,3,65,66,75,85,,,,,,,,,3.6,1.3,3.4*20
$QZGSA,A,3,,,,,,,,,,,,,3.6,1.3,3.4*2E
$IMGSA,A,3,,,,,,,,,,,,,3.6,1.3,3.4*21
$BDGSA,A,3,,,,,,,,,,,,,3.6,1.3,3.4*23
$GPRMC,065722.18,A,3205.035092,N,03448.146448,E,,,170616,,,A*5D
$GPGGA,065723.15,3205.034536,N,03448.145514,E,1,14,3.2,155.9,M,19.2,M,,*63
$GPGSV,3,1,11,13,74,295,21,17,55,124,22,28,51,032,26,15,38,309,30*7B
$GPGSV,3,2,11,19,38,165,27,30,32,083,26,05,17,227,16,20,14,271,21*72
$GPGSV,3,3,11,24,10,297,20,07,09,097,27,11,03,050,*43
$GLGSV,3,1,09,75,47,002,38,65,41,244,36,85,40,105,24,66,27,313,31*6A
$GLGSV,3,2,09,84,24,046,,76,23,296,,74,21,061,,86,15,160,*62
$GLGSV,3,3,09,72,15,195,*50
$BDGSV,2,1,07,212,43,144,32,205,45,140,,208,29,057,,202,29,118,*69
$BDGSV,2,2,07,214,25,218,,210,22,077,,211,07,188,*63
$GPGSA,A,3,05,07,13,15,17,19,20,24,28,30,,,2.4,1.2,2.1*33
$GNGSA,A,3,05,07,13,15,17,19,20,24,28,30,,,2.4,1.2,2.1*2D
$GNGSA,A,3,65,66,75,85,,,,,,,,,2.4,1.2,2.1*26
$QZGSA,A,3,,,,,,,,,,,,,2.4,1.2,2.1*28
$IMGSA,A,3,,,,,,,,,,,,,2.4,1.2,2.1*27
$BDGSA,A,3,,,,,,,,,,,,,2.4,1.2,2.1*25
$GPRMC,065723.15,A,3205.034536,N,03448.145514,E,000.0,,170616,,,A*7E
$GPGGA,065724.15,3205.034693,N,03448.145393,E,1,16,3.2,137.4,M,19.2,M,,*6A
$GPGSV,3,1,11,13,74,295,22,17,55,124,22,28,51,032,28,19,38,165,27*74
$GPGSV,3,2,11,15,38,309,30,30,32,083,26,05,17,227,17,20,14,271,20*70
$GPGSV,3,3,11,24,10,297,20,07,09,097,27,11,03,050,*43
$GLGSV,3,1,09,75,47,002,38,65,41,244,36,85,40,105,23,66,27,313,33*6F
$GLGSV,3,2,09,86,15,160,19,72,15,195,26,84,24,046,,76,23,296,*65
$GLGSV,3,3,09,74,21,061,*5B
$BDGSV,2,1,07,212,43,144,32,205,45,140,,208,29,057,,202,29,118,*69
$BDGSV,2,2,07,214,25,218,,210,22,077,,211,07,188,*63
$GPGSA,A,3,05,07,13,15,17,19,20,24,28,30,,,3.2,1.6,2.8*39
$GNGSA,A,3,05,07,13,15,17,19,20,24,28,30,,,3.2,1.6,2.8*27
$GNGSA,A,3,65,66,72,75,85,86,,,,,,,3.2,1.6,2.8*27
$QZGSA,A,3,,,,,,,,,,,,,3.2,1.6,2.8*22
$IMGSA,A,3,,,,,,,,,,,,,3.2,1.6,2.8*2D
$BDGSA,A,3,,,,,,,,,,,,,3.2,1.6,2.8*2F
$GPRMC,065724.15,A,3205.034693,N,03448.145393,E,000.0,,170616,,,A*7C
$GPGGA,065725.15,3205.034694,N,03448.145394,E,1,16,3.2,122.0,M,19.2,M,,*6B
$GPGSV,3,1,11,13,74,295,22,17,55,124,22,28,51,032,28,19,38,165,27*74
$GPGSV,3,2,11,15,38,309,30,30,32,083,25,05,17,227,19,20,14,271,20*7D
$GPGSV,3,3,11,24,10,297,20,07,09,097,26,11,03,050,*42
$GLGSV,3,1,09,75,47,002,38,65,41,244,35,85,40,105,24,66,27,313,33*6B
$GLGSV,3,2,09,86,15,160,19,72,15,195,26,84,24,046,,76,23,296,*65
$GLGSV,3,3,09,74,21,061,*5B
$BDGSV,2,1,07,212,43,144,31,205,45,140,,208,29,057,,202,29,118,*6A
$BDGSV,2,2,07,214,25,218,,210,22,077,,211,07,188,*63
$GPGSA,A,3,05,07,13,15,17,19,20,24,28,30,,,3.9,2.7,2.9*31
$GNGSA,A,3,05,07,13,15,17,19,20,24,28,30,,,3.9,2.7,2.9*2F
$GNGSA,A,3,65,66,72,75,85,86,,,,,,,3.9,2.7,2.9*2F
$QZGSA,A,3,,,,,,,,,,,,,3.9,2.7,2.9*2A
$IMGSA,A,3,,,,,,,,,,,,,3.9,2.7,2.9*25
$BDGSA,A,3,,,,,,,,,,,,,3.9,2.7,2.9*27
$GPRMC,065725.15,A,3205.034694,N,03448.145394,E,000.0,,170616,,,A*7D
$GPGGA,065726.19,3205.034487,N,03448.145334,E,1,16,2.4,107.3,M,19.2,M,,*6D
$GPGSV,3,1,11,13,74,295,23,17,55,124,22,28,51,032,29,19,38,165,29*7A
$GPGSV,3,2,11,15,38,309,32,30,32,083,25,05,17,227,19,20,14,271,20*7F
$GPGSV,3,3,11,24,10,297,19,07,09,097,26,11,03,050,*48
$GLGSV,3,1,09,75,47,002,38,65,41,244,35,85,40,105,24,66,27,313,33*6B
$GLGSV,3,2,09,86,16,160,19,72,15,195,26,84,24,046,,76,23,296,*66
$GLGSV,3,3,09,74,21,061,*5B
$BDGSV,2,1,07,212,43,144,31,205,45,140,,208,29,057,,202,29,118,*6A
$BDGSV,2,2,07,214,25,218,,210,22,077,,211,07,188,*63
$GPGSA,A,3,05,07,13,15,17,19,20,24,28,30,,,3.5,2.0,2.9*3A
$GNGSA,A,3,05,07,13,15,17,19,20,24,28,30,,,3.5,2.0,2.9*24
$GNGSA,A,3,65,66,72,75,85,86,,,,,,,3.5,2.0,2.9*24
$QZGSA,A,3,,,,,,,,,,,,,3.5,2.0,2.9*21
$IMGSA,A,3,,,,,,,,,,,,,3.5,2.0,2.9*2E
$BDGSA,A,3,,,,,,,,,,,,,3.5,2.0,2.9*2C
$GPRMC,065726.19,A,3205.034487,N,03448.145334,E,000.0,,170616,,,A*78
$GPGGA,065727.19,3205.034063,N,03448.145637,E,1,15,2.4,97.4,M,19.2,M,,*58
$GPGSV,3,1,11,13,74,295,23,17,55,124,23,28,51,032,28,19,38,165,28*7B
$GPGSV,3,2,11,15,38,309,33,30,32,083,25,05,17,227,18,20,14,271,19*75
$GPGSV,3,3,11,24,10,297,18,07,09,097,27,11,03,050,*48
$GLGSV,3,1,09,75,47,002,40,65,41,244,35,85,40,105,23,66,27,313,33*63
$GLGSV,3,2,09,84,24,046,09,86,16,160,19,72,15,195,25,76,23,296,*6C
$GLGSV,3,3,09,74,21,061,*5B
$BDGSV,2,1,07,212,43,144,30,205,45,140,,208,29,057,,202,29,118,*6B
$BDGSV,2,2,07,214,25,218,,210,22,077,,211,07,188,*63
$GPGSA,A,3,05,07,13,15,17,19,20,28,30,,,,3.1,1.4,2.8*3E
$GNGSA,A,3,05,07,13,15,17,19,20,28,30,,,,3.1,1.4,2.8*20
$GNGSA,A,3,65,66,72,75,85,86,,,,,,,3.1,1.4,2.8*26
$QZGSA,A,3,,,,,,,,,,,,,3.1,1.4,2.8*23
$IMGSA,A,3,,,,,,,,,,,,,3.1,1.4,2.8*2C
$BDGSA,A,3,,,,,,,,,,,,,3.1,1.4,2.8*2E
$GPRMC,065727.19,A,3205.034063,N,03448.145637,E,000.0,,170616,,,A*71
$GPGGA,065728.00,3205.034059,N,03448.145635,E,1,17,2.4,94.8,M,19.2,M,,*59
$GPGSV,3,1,11,13,74,295,23,17,55,124,23,28,51,032,28,19,38,165,28*7B
$GPGSV,3,2,11,15,38,309,33,30,32,083,27,05,17,227,17,20,14,271,20*72
$GPGSV,3,3,11,24,10,297,18,07,09,097,27,11,03,050,*48
$GLGSV,3,1,09,75,47,002,40,65,41,244,38,85,40,105,23,66,27,313,33*6E
$GLGSV,3,2,09,84,24,046,14,74,21,061,19,86,16,160,19,72,15,195,26*61
$GLGSV,3,3,09,76,23,296,*51
$BDGSV,2,1,07,212,43,144,34,205,45,140,,202,29,118,,208,29,057,*6F
$BDGSV,2,2,07,214,25,218,,210,22,077,,211,07,188,*63
$GPGSA,A,3,05,07,13,15,17,19,20,24,28,30,,,3.7,1.5,3.4*32
$GNGSA,A,3,05,07,13,15,17,19,20,24,28,30,,,3.7,1.5,3.4*2C
$GNGSA,A,3,65,66,72,75,84,85,86,,,,,,3.7,1.5,3.4*20
$QZGSA,A,3,,,,,,,,,,,,,3.7,1.5,3.4*29
$IMGSA,A,3,,,,,,,,,,,,,3.7,1.5,3.4*26
$BDGSA,A,3,,,,,,,,,,,,,3.7,1.5,3.4*24
$GPRMC,065728.00,A,3205.034059,N,03448.145635,E,000.0,,170616,,,A*7D
$GPGGA,065729.00,3205.034324,N,03448.145164,E,1,17,2.4,85.4,M,19.2,M,,*5E
$GPGSV,3,1,11,13,74,295,24,17,55,124,22,28,51,032,27,19,38,165,27*7D
$GPGSV,3,2,11,15,38,309,32,30,32,083,28,05,17,227,17,20,14,271,21*7D
$GPGSV,3,3,11,24,10,297,18,07,09,097,28,11,03,050,*47
$GLGSV,3,1,09,75,47,002,39,65,41,244,37,85,40,105,22,66,27,313,33*6E
$GLGSV,3,2,09,84,24,046,17,74,21,061,20,86,16,160,23,72,15,195,29*6E
$GLGSV,3,3,09,76,23,296,*51
$BDGSV,2,1,07,212,43,144,36,205,45,140,,202,29,118,,208,29,057,*6D
$BDGSV,2,2,07,214,25,218,,210,22,077,,211,07,188,*63
$GPGSA,A,3,05,07,13,15,17,19,20,24,28,30,,,2.1,1.2,1.7*33
$GNGSA,A,3,05,07,13,15,17,19,20,24,28,30,,,2.1,1.2,1.7*2D
$GNGSA,A,3,65,66,72,75,84,85,86,,,,,,2.1,1.2,1.7*21
$QZGSA,A,3,,,,,,,,,,,,,2.1,1.2,1.7*28
$IMGSA,A,3,,,,,,,,,,,,,2.1,1.2,1.7*27
$BDGSA,A,3,,,,,,,,,,,,,2.1,1.2,1.7*25
$GPRMC,065729.00,A,3205.034324,N,03448.145164,E,000.0,,170616,,,A*76
$GPGGA,065730.00,3205.036288,N,03448.145020,E,1,17,2.4,81.8,M,19.2,M,,*5A
$GPGSV,3,1,11,13,74,295,27,17,55,124,22,28,50,032,27,19,38,165,27*7F
$GPGSV,3,2,11,15,38,309,32,30,32,083,32,05,17,226,17,20,14,271,21*77
$GPGSV,3,3,11,24,10,297,18,07,09,097,27,11,03,050,*48
$GLGSV,3,1,09,75,47,002,39,65,41,244,37,85,40,105,22,66,27,313,32*6F
$GLGSV,3,2,09,84,24,046,17,74,21,061,19,86,16,160,25,72,15,195,34*6E
$GLGSV,3,3,09,76,23,296,*51
$BDGSV,2,1,07,212,43,144,36,205,45,140,,202,29,118,,208,29,057,*6D
$BDGSV,2,2,07,214,25,218,,210,22,077,,211,07,188,*63
$GPGSA,A,3,05,07,13,15,17,19,20,24,28,30,,,2.1,1.2,1.7*33
$GNGSA,A,3,05,07,13,15,17,19,20,24,28,30,,,2.1,1.2,1.7*2D
$GNGSA,A,3,65,66,72,75,84,85,86,,,,,,2.1,1.2,1.7*21
$QZGSA,A,3,,,,,,,,,,,,,2.1,1.2,1.7*28
$IMGSA,A,3,,,,,,,,,,,,,2.1,1.2,1.7*27
$BDGSA,A,3,,,,,,,,,,,,,2.1,1.2,1.7*25
$GPRMC,065730.00,A,3205.036288,N,03448.145020,E,000.0,,170616,,,A*7A
$GPGGA,065731.00,3205.036299,N,03448.145010,E,1,17,2.4,81.7,M,19.2,M,,*57
$GPGSV,3,1,11,13,74,295,27,17,55,124,22,28,50,032,27,19,38,165,27*7F
$GPGSV,3,2,11,15,38,309,32,30,32,083,33,05,17,226,23,20,14,271,23*73
$GPGSV,3,3,11,24,10,297,17,07,09,097,27,11,03,050,*47
$GLGSV,3,1,09,75,47,002,38,65,41,244,39,85,40,105,22,66,27,313,32*60
$GLGSV,3,2,09,84,24,046,21,74,21,061,19,86,16,160,25,72,15,195,34*6B
$GLGSV,3,3,09,76,23,296,*51
$BDGSV,2,1,07,212,43,144,36,205,45,140,,202,29,118,,208,29,057,*6D
$BDGSV,2,2,07,214,25,218,,210,22,077,,211,07,188,*63
$GPGSA,A,3,05,07,13,15,17,19,20,24,28,30,,,2.0,1.1,1.7*31
$GNGSA,A,3,05,07,13,15,17,19,20,24,28,30,,,2.0,1.1,1.7*2F
$GNGSA,A,3,65,66,72,75,84,85,86,,,,,,2.0,1.1,1.7*23
$QZGSA,A,3,,,,,,,,,,,,,2.0,1.1,1.7*2A
$IMGSA,A,3,,,,,,,,,,,,,2.0,1.1,1.7*25
$BDGSA,A,3,,,,,,,,,,,,,2.0,1.1,1.7*27
$GPRMC,065731.00,A,3205.036299,N,03448.145010,E,000.0,,170616,,,A*78
$GPGGA,065732.00,3205.037717,N,03448.142083,E,1,17,2.4,73.4,M,19.2,M,,*55
$GPGSV,3,1,11,13,74,295,27,17,55,124,24,28,50,032,27,19,38,165,28*76
$GPGSV,3,2,11,15,38,309,31,30,32,083,33,05,17,226,25,20,14,271,25*70
$GPGSV,3,3,11,24,10,297,17,07,09,097,27,11,03,050,*47
$GLGSV,3,1,09,75,47,002,37,65,41,244,40,85,40,105,22,66,27,313,31*62
$GLGSV,3,2,09,84,24,046,21,74,21,061,19,86,16,160,25,72,15,195,33*6C
$GLGSV,3,3,09,76,23,296,*51
$BDGSV,2,1,07,212,43,144,36,205,45,140,,202,29,118,,208,29,057,*6D
$BDGSV,2,2,07,214,25,218,,210,22,077,,211,07,188,*63
$GPGSA,A,3,05,07,13,15,17,19,20,24,28,30,,,2.6,1.2,2.3*33
$GNGSA,A,3,05,07,13,15,17,19,20,24,28,30,,,2.6,1.2,2.3*2D
$GNGSA,A,3,65,66,72,75,84,85,86,,,,,,2.6,1.2,2.3*21
$QZGSA,A,3,,,,,,,,,,,,,2.6,1.2,2.3*28
$IMGSA,A,3,,,,,,,,,,,,,2.6,1.2,2.3*27
$BDGSA,A,3,,,,,,,,,,,,,2.6,1.2,2.3*25
$GPRMC,065732.00,A,3205.037717,N,03448.142083,E,000.0,,170616,,,A*74
$GPGGA,065733.00,3205.037979,N,03448.141450,E,1,17,2.4,66.7,M,19.2,M,,*5C
$GPGSV,3,1,11,13,74,294,27,17,55,124,24,28,50,032,27,19,38,165,27*78
$GPGSV,3,2,11,15,38,309,31,30,32,083,33,05,17,226,25,20,14,271,25*70
$GPGSV,3,3,11,24,10,297,17,07,09,097,26,11,03,050,*46
$GLGSV,3,1,09,75,47,002,37,65,41,244,39,85,40,105,22,66,27,313,31*6C
$GLGSV,3,2,09,84,24,046,21,74,21,061,19,86,16,160,25,72,15,195,33*6C
$GLGSV,3,3,09,76,23,296,*51
$BDGSV,2,1,07,212,43,144,35,205,45,140,,202,29,118,,208,29,057,*6E
$BDGSV,2,2,07,214,25,218,,210,22,077,,211,07,188,*63
$GPGSA,A,3,05,07,13,15,17,19,20,24,28,30,,,2.6,1.2,2.3*33
$GNGSA,A,3,05,07,13,15,17,19,20,24,28,30,,,2.6,1.2,2.3*2D
$GNGSA,A,3,65,66,72,75,84,85,86,,,,,,2.6,1.2,2.3*21
$QZGSA,A,3,,,,,,,,,,,,,2.6,1.2,2.3*28
$IMGSA,A,3,,,,,,,,,,,,,2.6,1.2,2.3*27
$BDGSA,A,3,,,,,,,,,,,,,2.6,1.2,2.3*25
$GPRMC,065733.00,A,3205.037979,N,03448.141450,E,000.0,,170616,,,A*7A
$GPGGA,065734.00,3205.037977,N,03448.141443,E,1,17,2.4,59.7,M,19.2,M,,*5B
$GPGSV,3,1,11,13,74,294,26,17,55,124,23,28,50,032,26,19,38,165,27*7F
$GPGSV,3,2,11,15,38,309,30,30,32,083,32,05,17,226,24,20,14,271,24*70
$GPGSV,3,3,11,24,10,297,17,07,09,097,26,11,03,050,*46
$GLGSV,3,1,09,75,47,002,37,65,41,244,39,85,40,105,21,66,27,313,33*6D
$GLGSV,3,2,09,84,24,046,21,74,21,061,19,86,16,160,24,72,15,195,32*6C
$GLGSV,3,3,09,76,23,296,*51
$BDGSV,2,1,07,212,43,144,35,205,45,140,,202,29,118,,208,29,057,*6E
$BDGSV,2,2,07,214,25,218,,210,22,077,,211,07,188,*63
$GPGSA,A,3,05,07,13,15,17,19,20,24,28,30,,,2.8,1.4,2.4*3C
$GNGSA,A,3,05,07,13,15,17,19,20,24,28,30,,,2.8,1.4,2.4*22
$GNGSA,A,3,65,66,72,75,84,85,86,,,,,,2.8,1.4,2.4*2E
$QZGSA,A,3,,,,,,,,,,,,,2.8,1.4,2.4*27
$IMGSA,A,3,,,,,,,,,,,,,2.8,1.4,2.4*28
$BDGSA,A,3,,,,,,,,,,,,,2.8,1.4,2.4*2A
$GPRMC,065734.00,A,3205.037977,N,03448.141443,E,000.0,,170616,,,A*71
$GPGGA,065735.00,3205.037977,N,03448.141443,E,1,18,2.4,55.0,M,19.2,M,,*5E
$GPGSV,3,1,11,13,74,294,25,17,55,124,23,28,50,032,26,19,38,165,26*7D
$GPGSV,3,2,11,15,38,309,30,30,32,083,32,05,17,226,23,20,14,271,24*77
$GPGSV,3,3,11,24,10,297,16,07,09,097,26,11,03,050,*47
$GLGSV,3,1,09,75,47,002,37,65,41,244,39,85,40,105,21,66,27,313,33*6D
$GLGSV,3,2,09,84,24,046,21,76,23,296,16,74,21,061,19,86,16,160,23*6C
$GLGSV,3,3,09,72,15,195,32*51
$BDGSV,2,1,07,212,43,144,34,205,45,140,,202,29,118,,208,29,057,*6F
$BDGSV,2,2,07,214,25,218,,210,22,077,,211,07,188,*63
$GPGSA,A,3,05,07,13,15,17,19,20,24,28,30,,,2.8,1.4,2.4*3C
$GNGSA,A,3,05,07,13,15,17,19,20,24,28,30,,,2.8,1.4,2.4*22
$GNGSA,A,3,65,66,72,75,76,84,85,86,,,,,2.8,1.4,2.4*2F
$QZGSA,A,3,,,,,,,,,,,,,2.8,1.4,2.4*27
$IMGSA,A,3,,,,,,,,,,,,,2.8,1.4,2.4*28
$BDGSA,A,3,,,,,,,,,,,,,2.8,1.4,2.4*2A
$GPRMC,065735.00,A,3205.037977,N,03448.141443,E,000.0,,170616,,,A*70
$GPGGA,065736.00,3205.037977,N,03448.141443,E,1,17,2.4,52.0,M,19.2,M,,*55
$GPGSV,3,1,11,13,74,294,24,17,55,124,22,28,50,032,25,19,38,165,26*7E
$GPGSV,3,2,11,15,38,309,29,30,32,083,31,05,17,226,23,20,14,271,24*7C
$GPGSV,3,3,11,24,10,297,16,07,09,097,25,11,03,050,*44
$GLGSV,3,1,09,75,47,002,37,65,41,244,39,85,40,105,21,66,27,313,33*6D
$GLGSV,3,2,09,84,24,046,20,76,23,296,20,74,21,061,21,86,16,160,22*62
$GLGSV,3,3,09,72,15,195,31*52
$BDGSV,2,1,07,212,43,144,34,205,45,140,,202,29,118,,208,29,057,*6F
$BDGSV,2,2,07,214,25,218,,210,22,077,,211,07,188,*63
$GPGSA,A,3,05,07,13,15,17,19,20,24,28,30,,,2.5,1.3,2.1*33
$GNGSA,A,3,05,07,13,15,17,19,20,24,28,30,,,2.5,1.3,2.1*2D
$GNGSA,A,3,65,66,72,75,76,84,85,,,,,,2.5,1.3,2.1*2E
$QZGSA,A,3,,,,,,,,,,,,,2.5,1.3,2.1*28
$IMGSA,A,3,,,,,,,,,,,,,2.5,1.3,2.1*27
$BDGSA,A,3,,,,,,,,,,,,,2.5,1.3,2.1*25
$GPRMC,065736.00,A,3205.037977,N,03448.141443,E,000.0,,170616,,,A*73
$GPGGA,065737.00,3205.037977,N,03448.141443,E,1,17,3.2,61.4,M,19.2,M,,*57
$GPGSV,3,1,11,13,74,294,24,17,55,124,22,28,50,032,24,19,38,165,26*7F
$GPGSV,3,2,11,15,38,309,29,30,32,083,31,05,17,226,22,20,14,271,24*7D
$GPGSV,3,3,11,24,10,297,16,07,09,097,25,11,03,050,*44
$GLGSV,3,1,09,75,47,002,38,65,41,244,38,85,40,105,21,66,27,313,32*62
$GLGSV,3,2,09,84,24,046,20,76,23,296,21,74,21,061,22,86,16,160,21*63
$GLGSV,3,3,09,72,15,195,31*52
$BDGSV,2,1,07,212,43,144,33,205,45,140,,202,29,118,,208,29,057,*68
$BDGSV,2,2,07,214,25,218,,210,22,077,,211,07,188,*63
$GPGSA,A,3,05,07,13,15,17,19,20,24,28,30,,,2.2,1.3,1.8*3E
$GNGSA,A,3,05,07,13,15,17,19,20,24,28,30,,,2.2,1.3,1.8*20
$GNGSA,A,3,65,66,72,75,76,84,85,,,,,,2.2,1.3,1.8*23
$QZGSA,A,3,,,,,,,,,,,,,2.2,1.3,1.8*25
$IMGSA,A,3,,,,,,,,,,,,,2.2,1.3,1.8*2A
$BDGSA,A,3,,,,,,,,,,,,,2.2,1.3,1.8*28
$GPRMC,065737.00,A,3205.037977,N,03448.141443,E,000.0,,170616,,,A*72
$GPGGA,065738.00,3205.037977,N,03448.141443,E,1,17,3.2,66.6,M,19.2,M,,*5D
$GPGSV,3,1,11,13,74,294,24,17,55,124,22,28,50,032,23,19,38,165,25*7B
$GPGSV,3,2,11,15,38,309,29,30,32,083,30,05,17,226,22,20,14,271,23*7B
$GPGSV,3,3,11,24,10,297,16,07,09,097,25,11,03,050,*44
$GLGSV,3,1,09,75,47,002,38,65,41,244,38,85,40,105,24,66,27,313,32*67
$GLGSV,3,2,09,84,24,046,20,76,23,296,22,74,21,061,24,86,16,160,20*67
$GLGSV,3,3,09,72,15,195,30*53
$BDGSV,2,1,07,212,43,144,33,205,45,140,,202,29,118,,208,29,057,*68
$BDGSV,2,2,07,214,25,218,,210,22,077,,211,07,188,*63
$GPGSA,A,3,05,07,13,15,17,19,20,24,28,30,,,2.3,1.1,2.1*37
$GNGSA,A,3,05,07,13,15,17,19,20,24,28,30,,,2.3,1.1,2.1*29
$GNGSA,A,3,65,66,72,75,76,84,85,,,,,,2.3,1.1,2.1*2A
$QZGSA,A,3,,,,,,,,,,,,,2.3,1.1,2.1*2C
$IMGSA,A,3,,,,,,,,,,,,,2.3,1.1,2.1*23
$BDGSA,A,3,,,,,,,,,,,,,2.3,1.1,2.1*21
$GPRMC,065738.00,A,3205.037977,N,03448.141443,E,000.0,,170616,,,A*7D
$GPGGA,065739.00,3205.037977,N,03448.141443,E,1,17,3.2,85.8,M,19.2,M,,*5F
$GPGSV,3,1,11,13,74,294,24,17,55,124,22,28,50,032,23,19,38,165,25*7B
$GPGSV,3,2,11,15,38,309,29,30,32,083,30,05,17,226,22,20,14,271,23*7B
$GPGSV,3,3,11,24,10,297,15,07,09,097,25,11,03,050,*47
$GLGSV,3,1,09,75,47,002,38,65,41,244,38,85,40,105,26,66,27,313,31*66
$GLGSV,3,2,09,84,24,046,19,76,23,296,22,74,21,061,25,86,16,160,19*66
$GLGSV,3,3,09,72,15,195,30*53
$BDGSV,2,1,07,212,43,144,33,205,45,140,,202,29,118,,208,29,057,*68
$BDGSV,2,2,07,214,25,218,,210,22,077,,211,07,188,*63
$GPGSA,A,3,05,07,13,15,17,19,20,24,28,30,,,2.2,1.2,1.9*3E
$GNGSA,A,3,05,07,13,15,17,19,20,24,28,30,,,2.2,1.2,1.9*20
$GNGSA,A,3,65,66,72,75,76,84,85,,,,,,2.2,1.2,1.9*23
$QZGSA,A,3,,,,,,,,,,,,,2.2,1.2,1.9*25
$IMGSA,A,3,,,,,,,,,,,,,2.2,1.2,1.9*2A
$BDGSA,A,3,,,,,,,,,,,,,2.2,1.2,1.9*28
$GPRMC,065739.00,A,3205.037977,N,03448.141443,E,000.0,,170616,,,A*7C
$GPGGA,065740.00,3205.037977,N,03448.141443,E,1,17,3.2,83.8,M,19.2,M,,*57
$GPGSV,3,1,11,13,74,294,24,17,55,124,22,28,50,032,22,19,38,165,25*7A
$GPGSV,3,2,11,15,38,309,30,30,32,083,29,05,17,226,23,20,14,271,23*7A
$GPGSV,3,3,11,24,10,297,15,07,09,097,25,11,03,050,*47
$GLGSV,3,1,09,75,47,002,38,65,41,244,37,85,40,105,27,66,27,313,31*68
$GLGSV,3,2,09,84,24,046,19,76,23,296,21,74,21,061,25,86,16,160,18*64
$GLGSV,3,3,09,72,15,195,29*5B
$BDGSV,2,1,07,212,43,144,33,205,45,140,,202,29,118,,208,29,057,*68
$BDGSV,2,2,07,214,25,218,,210,22,077,,211,07,188,*63
$GPGSA,A,3,05,07,13,15,17,19,20,24,28,30,,,2.1,1.0,1.8*3E
$GNGSA,A,3,05,07,13,15,17,19,20,24,28,30,,,2.1,1.0,1.8*20
$GNGSA,A,3,65,66,72,75,76,84,85,,,,,,2.1,1.0,1.8*23
$QZGSA,A,3,,,,,,,,,,,,,2.1,1.0,1.8*25
$IMGSA,A,3,,,,,,,,,,,,,2.1,1.0,1.8*2A
$BDGSA,A,3,,,,,,,,,,,,,2.1,1.0,1.8*28
$GPRMC,065740.00,A,3205.037977,N,03448.141443,E,000.0,,170616,,,A*72
$GPGGA,065741.00,3205.037977,N,03448.141443,E,1,17,3.2,87.7,M,19.2,M,,*5D
$GPGSV,3,1,11,13,74,294,24,17,55,124,22,28,50,032,22,19,38,165,24*7B
$GPGSV,3,2,11,15,38,309,31,30,32,083,29,05,17,226,24,20,14,271,23*7C
$GPGSV,3,3,11,24,10,297,15,07,09,097,24,11,03,050,*46
$GLGSV,3,1,09,75,47,002,38,65,41,244,37,85,40,105,27,66,27,313,31*68
$GLGSV,3,2,09,84,24,046,18,76,23,296,21,74,21,061,25,86,16,160,17*6A
$GLGSV,3,3,09,72,15,195,29*5B
$BDGSV,2,1,07,212,43,144,32,205,45,140,,202,29,118,,208,29,057,*69
$BDGSV,2,2,07,214,25,218,,210,22,077,,211,07,188,*63
$GPGSA,A,3,05,07,13,15,17,19,20,24,28,30,,,2.3,1.0,2.0*37
$GNGSA,A,3,05,07,13,15,17,19,20,24,28,30,,,2.3,1.0,2.0*29
$GNGSA,A,3,65,66,72,75,76,84,85,,,,,,2.3,1.0,2.0*2A
$QZGSA,A,3,,,,,,,,,,,,,2.3,1.0,2.0*2C
$IMGSA,A,3,,,,,,,,,,,,,2.3,1.0,2.0*23
$BDGSA,A,3,,,,,,,,,,,,,2.3,1.0,2.0*21
$GPRMC,065741.00,A,3205.037977,N,03448.141443,E,000.0,,170616,,,A*73
$GPGGA,065742.00,3205.037977,N,03448.141443,E,1,16,2.4,87.5,M,19.2,M,,*5A
$GPGSV,3,1,11,13,74,294,24,17,55,124,22,28,50,032,22,19,38,165,23*7C
$GPGSV,3,2,11,15,38,309,32,30,32,083,29,05,17,226,25,20,14,271,22*7F
$GPGSV,3,3,11,24,10,297,17,07,09,097,24,11,03,050,*44
$GLGSV,3,1,09,75,47,002,38,65,41,244,37,85,40,105,27,66,27,313,31*68
$GLGSV,3,2,09,84,24,046,18,76,23,296,21,74,21,061,25,86,16,160,16*6B
$GLGSV,3,3,09,72,15,195,29*5B
$BDGSV,2,1,07,212,43,144,32,205,45,140,,202,29,118,,208,29,057,*69
$BDGSV,2,2,07,214,25,218,,210,22,077,,211,07,188,*63
$GPGSA,A,3,05,07,13,15,17,20,24,28,30,,,,2.3,1.0,2.0*3F
$GNGSA,A,3,05,07,13,15,17,20,24,28,30,,,,2.3,1.0,2.0*21
$GNGSA,A,3,65,66,72,75,76,84,85,,,,,,2.3,1.0,2.0*2A
$QZGSA,A,3,,,,,,,,,,,,,2.3,1.0,2.0*2C
$IMGSA,A,3,,,,,,,,,,,,,2.3,1.0,2.0*23
$BDGSA,A,3,,,,,,,,,,,,,2.3,1.0,2.0*21
$GPRMC,065742.00,A,3205.037977,N,03448.141443,E,000.0,,170616,,,A*70
$GPGGA,065743.00,3205.037977,N,03448.141443,E,1,15,2.4,85.2,M,19.2,M,,*5D
$GPGSV,3,1,11,13,74,294,24,17,55,124,22,28,50,032,22,19,38,165,21*7E
$GPGSV,3,2,11,15,38,309,32,30,32,083,28,05,16,226,25,20,14,271,24*79
$GPGSV,3,3,11,24,10,297,17,07,09,097,24,11,03,050,*44
$GLGSV,3,1,09,75,47,002,38,65,41,244,37,85,40,105,27,66,27,313,30*69
$GLGSV,3,2,09,84,24,046,17,76,23,296,21,74,21,061,25,86,16,160,15*67
$GLGSV,3,3,09,72,15,195,29*5B
$BDGSV,2,1,07,205,45,140,28,212,43,144,32,202,29,118,,208,29,057,*63
$BDGSV,2,2,07,214,25,218,,210,22,077,,211,07,188,*63
$GPGSA,A,3,05,07,13,15,17,20,24,28,30,,,,2.2,1.2,1.9*36
$GNGSA,A,3,05,07,13,15,17,20,24,28,30,,,,2.2,1.2,1.9*28
$GNGSA,A,3,65,66,72,75,76,85,,,,,,,2.2,1.2,1.9*2F
$QZGSA,A,3,,,,,,,,,,,,,2.2,1.2,1.9*25
$IMGSA,A,3,,,,,,,,,,,,,2.2,1.2,1.9*2A
$BDGSA,A,3,,,,,,,,,,,,,2.2,1.2,1.9*28
$GPRMC,065743.00,A,3205.037977,N,03448.141443,E,000.0,,170616,,,A*71
$GPGGA,065744.00,3205.037977,N,03448.141443,E,1,15,2.4,81.7,M,19.2,M,,*5B
$GPGSV,3,1,11,13,74,294,24,17,55,124,23,28,50,032,22,19,38,164,20*7F
$GPGSV,3,2,11,15,38,309,32,30,32,083,28,05,16,226,26,20,14,271,26*78
$GPGSV,3,3,11,24,10,297,17,07,09,097,24,11,03,050,*44
$GLGSV,3,1,09,75,47,002,37,65,41,244,37,85,40,105,27,66,27,313,30*66
$GLGSV,3,2,09,84,24,046,16,76,23,296,21,74,21,061,25,86,16,160,15*66
$GLGSV,3,3,09,72,15,195,29*5B
$BDGSV,2,1,07,205,45,140,28,212,43,144,32,202,29,118,,208,29,057,*63
$BDGSV,2,2,07,214,25,218,,210,22,077,,211,07,188,*63
$GPGSA,A,3,05,07,13,15,17,20,24,28,30,,,,2.6,1.4,2.2*3C
$GNGSA,A,3,05,07,13,15,17,20,24,28,30,,,,2.6,1.4,2.2*22
$GNGSA,A,3,65,66,72,75,76,85,,,,,,,2.6,1.4,2.2*25
$QZGSA,A,3,,,,,,,,,,,,,2.6,1.4,2.2*2F
$IMGSA,A,3,,,,,,,,,,,,,2.6,1.4,2.2*20
$BDGSA,A,3,,,,,,,,,,,,,2.6,1.4,2.2*22
$GPRMC,065744.00,A,3205.037977,N,03448.141443,E,000.0,,170616,,,A*76
$GPGGA,065745.00,3205.037977,N,03448.141443,E,1,18,2.4,77.3,M,19.2,M,,*5A
$GPGSV,3,1,11,13,74,294,24,17,55,124,24,28,50,032,23,19,38,164,20*79
$GPGSV,3,2,11,15,38,309,32,30,32,083,28,05,16,226,26,20,14,271,26*78
$GPGSV,3,3,11,24,10,297,17,07,09,097,24,11,03,050,*44
$GLGSV,3,1,09,75,47,002,38,65,41,244,37,85,40,105,26,66,27,313,29*60
$GLGSV,3,2,09,84,24,046,16,76,23,296,21,74,21,061,24,86,16,160,15*67
$GLGSV,3,3,09,72,15,195,29*5B
$BDGSV,2,1,07,205,45,140,28,212,43,144,32,202,29,118,,208,29,057,*63
$BDGSV,2,2,07,214,25,218,,210,22,077,,211,07,188,*63
$GPGSA,A,3,05,07,13,15,17,19,20,24,28,30,,,2.2,1.2,1.9*3E
$GNGSA,A,3,05,07,13,15,17,19,20,24,28,30,,,2.2,1.2,1.9*20
$GNGSA,A,3,65,66,72,75,76,84,85,86,,,,,2.2,1.2,1.9*2D
$QZGSA,A,3,,,,,,,,,,,,,2.2,1.2,1.9*25
$IMGSA,A,3,,,,,,,,,,,,,2.2,1.2,1.9*2A
$BDGSA,A,3,,,,,,,,,,,,,2.2,1.2,1.9*28
$GPRMC,065745.00,A,3205.037977,N,03448.141443,E,000.0,,170616,,,A*77
$GPGGA,065746.00,3205.037977,N,03448.141443,E,1,18,1.6,69.2,M,19.2,M,,*56
$GPGSV,3,1,11,13,74,294,24,17,55,124,25,28,50,032,24,19,38,164,19*75
$GPGSV,3,2,11,15,38,309,32,30,32,083,28,05,16,226,26,20,14,271,26*78
$GPGSV,3,3,11,24,10,297,18,07,09,097,24,11,03,050,*4B
$GLGSV,3,1,09,75,47,002,38,65,41,244,37,85,40,105,26,66,27,313,29*60
$GLGSV,3,2,09,84,24,046,16,76,23,296,21,74,21,061,24,86,16,160,14*66
$GLGSV,3,3,09,72,15,195,28*5A
$BDGSV,2,1,07,205,45,140,27,212,43,144,32,202,29,118,,208,29,057,*6C
$BDGSV,2,2,07,214,25,218,,210,22,077,,211,07,188,*63
$GPGSA,A,3,05,07,13,15,17,19,20,24,28,30,,,2.6,1.4,2.2*34
$GNGSA,A,3,05,07,13,15,17,19,20,24,28,30,,,2.6,1.4,2.2*2A
$GNGSA,A,3,65,66,72,75,76,84,85,86,,,,,2.6,1.4,2.2*27
$QZGSA,A,3,,,,,,,,,,,,,2.6,1.4,2.2*2F
$IMGSA,A,3,,,,,,,,,,,,,2.6,1.4,2.2*20
$BDGSA,A,3,,,,,,,,,,,,,2.6,1.4,2.2*22
$GPRMC,065746.00,A,3205.037977,N,03448.141443,E,000.0,,170616,,,A*74
$GPGGA,065747.00,3205.037977,N,03448.141443,E,1,18,1.6,61.2,M,19.2,M,,*5F
$GPGSV,3,1,11,13,74,294,24,17,55,124,25,28,50,032,24,19,38,164,22*7D
$GPGSV,3,2,11,15,38,309,32,30,32,083,28,05,16,226,26,20,14,271,26*78
$GPGSV,3,3,11,24,10,297,18,07,09,097,24,11,03,050,*4B
$GLGSV,3,1,09,75,47,002,38,65,41,244,37,85,40,105,26,66,27,313,28*61
$GLGSV,3,2,09,84,24,046,15,76,23,296,21,74,21,061,23,86,16,160,14*62
$GLGSV,3,3,09,72,15,195,28*5A
$BDGSV,2,1,07,205,45,140,27,212,43,144,31,202,29,118,,208,29,057,*6F
$BDGSV,2,2,07,214,25,218,,210,22,077,,211,07,188,*63
$GPGSA,A,3,05,07,13,15,17,19,20,24,28,30,,,2.1,1.0,1.8*3E
$GNGSA,A,3,05,07,13,15,17,19,20,24,28,30,,,2.1,1.0,1.8*20
$GNGSA,A,3,65,66,72,75,76,84,85,86,,,,,2.1,1.0,1.8*2D
$QZGSA,A,3,,,,,,,,,,,,,2.1,1.0,1.8*25
$IMGSA,A,3,,,,,,,,,,,,,2.1,1.0,1.8*2A
$BDGSA,A,3,,,,,,,,,,,,,2.1,1.0,1.8*28
$GPRMC,065747.00,A,3205.037977,N,03448.141443,E,000.0,,170616,,,A*75
$GPGGA,065748.00,3205.037977,N,03448.141443,E,1,17,3.2,61.1,M,19.2,M,,*5A
$GPGSV,3,1,11,13,74,294,24,17,55,124,26,28,50,032,25,19,38,164,25*78
$GPGSV,3,2,11,15,38,309,32,30,32,083,29,05,16,226,26,20,14,271,26*79
$GPGSV,3,3,11,24,10,297,17,07,09,097,23,11,03,050,*43
$GLGSV,3,1,09,75,47,003,38,65,41,244,37,85,40,105,26,66,27,313,28*60
$GLGSV,3,2,09,84,24,046,15,76,23,296,21,74,21,061,23,86,16,160,15*63
$GLGSV,3,3,09,72,15,195,28*5A
$BDGSV,2,1,07,205,45,140,27,212,43,144,31,202,29,118,,208,29,057,*6F
$BDGSV,2,2,07,214,25,218,,210,22,077,,211,07,188,*63
$GPGSA,A,3,05,07,13,15,17,19,20,24,28,30,,,2.2,1.2,1.9*3E
$GNGSA,A,3,05,07,13,15,17,19,20,24,28,30,,,2.2,1.2,1.9*20
$GNGSA,A,3,65,66,72,75,76,85,86,,,,,,2.2,1.2,1.9*21
$QZGSA,A,3,,,,,,,,,,,,,2.2,1.2,1.9*25
$IMGSA,A,3,,,,,,,,,,,,,2.2,1.2,1.9*2A
$BDGSA,A,3,,,,,,,,,,,,,2.2,1.2,1.9*28
$GPRMC,065748.00,A,3205.037977,N,03448.141443,E,000.0,,170616,,,A*7A
$GPGGA,065749.00,3205.037977,N,03448.141443,E,1,17,3.2,62.7,M,19.2,M,,*5E
$GPGSV,3,1,11,13,74,294,24,17,55,124,27,28,50,032,25,19,38,164,27*7B
$GPGSV,3,2,11,15,38,309,32,30,32,083,29,05,16,226,25,20,14,271,26*7A
$GPGSV,3,3,11,24,10,297,17,07,09,097,23,11,03,050,*43
$GLGSV,3,1,09,75,47,003,38,65,41,244,37,85,40,105,27,66,27,313,27*6E
$GLGSV,3,2,09,84,24,046,15,76,23,296,21,74,21,061,23,86,16,160,19*6F
$GLGSV,3,3,09,72,15,195,27*55
$BDGSV,2,1,07,205,45,140,27,212,43,144,31,202,29,118,,208,29,057,*6F
$BDGSV,2,2,07,214,25,218,,210,22,077,,211,07,188,*63
$GPGSA,A,3,05,07,13,15,17,19,20,24,28,30,,,2.2,1.2,1.9*3E
$GNGSA,A,3,05,07,13,15,17,19,20,24,28,30,,,2.2,1.2,1.9*20
$GNGSA,A,3,65,66,72,75,76,85,86,,,,,,2.2,1.2,1.9*21
$QZGSA,A,3,,,,,,,,,,,,,2.2,1.2,1.9*25
$IMGSA,A,3,,,,,,,,,,,,,2.2,1.2,1.9*2A
$BDGSA,A,3,,,,,,,,,,,,,2.2,1.2,1.9*28
$GPRMC,065749.00,A,3205.037977,N,03448.141443,E,000.0,,170616,,,A*7B
$GPGGA,065750.00,3205.037977,N,03448.141443,E,1,17,2.4,64.3,M,19.2,M,,*53
$GPGSV,3,1,11,13,74,294,24,17,55,124,27,28,50,032,25,19,38,164,29*75
$GPGSV,3,2,11,15,38,309,33,30,32,083,29,05,16,226,25,20,14,271,25*78
$GPGSV,3,3,11,24,10,297,17,07,09,097,23,11,03,050,*43
$GLGSV,3,1,09,75,47,003,38,65,41,244,38,85,40,105,26,66,27,313,27*60
$GLGSV,3,2,09,84,24,046,14,76,23,297,21,74,21,061,26,86,16,160,19*6A
$GLGSV,3,3,09,72,15,195,27*55
$BDGSV,2,1,07,205,45,140,27,212,43,144,31,202,29,118,,208,29,057,*6F
$BDGSV,2,2,07,214,25,218,,210,22,077,,211,07,188,*63
$GPGSA,A,3,05,07,13,15,17,19,20,24,28,30,,,2.2,1.2,1.9*3E
$GNGSA,A,3,05,07,13,15,17,19,20,24,28,30,,,2.2,1.2,1.9*20
$GNGSA,A,3,65,66,72,75,76,85,86,,,,,,2.2,1.2,1.9*21
$QZGSA,A,3,,,,,,,,,,,,,2.2,1.2,1.9*25
$IMGSA,A,3,,,,,,,,,,,,,2.2,1.2,1.9*2A
$BDGSA,A,3,,,,,,,,,,,,,2.2,1.2,1.9*28
$GPRMC,065750.00,A,3205.037977,N,03448.141443,E,000.0,,170616,,,A*73
$GPGGA,065751.00,3205.037977,N,03448.141443,E,1,16,2.4,65.7,M,19.2,M,,*56
$GPGSV,3,1,11,13,74,294,23,17,55,124,27,28,50,032,25,19,38,164,30*7A
$GPGSV,3,2,11,15,38,309,34,30,32,083,29,05,16,226,25,20,14,271,25*7F
$GPGSV,3,3,11,24,10,297,16,07,09,097,23,11,03,050,*42
$GLGSV,3,1,09,75,47,003,38,65,41,244,38,85,40,105,26,66,27,313,28*6F
$GLGSV,3,2,09,84,24,046,14,76,23,297,21,74,21,061,27,86,16,160,19*6B
$GLGSV,3,3,09,72,15,195,26*54
$BDGSV,2,1,07,205,45,140,27,212,43,144,32,202,29,118,,208,29,057,*6C
$BDGSV,2,2,07,214,25,218,,210,22,077,,211,07,188,*63
$GPGSA,A,3,05,07,13,15,17,19,20,28,30,,,,2.4,1.2,2.1*35
$GNGSA,A,3,05,07,13,15,17,19,20,28,30,,,,2.4,1.2,2.1*2B
$GNGSA,A,3,65,66,72,75,76,85,86,,,,,,2.4,1.2,2.1*2C
$QZGSA,A,3,,,,,,,,,,,,,2.4,1.2,2.1*28
$IMGSA,A,3,,,,,,,,,,,,,2.4,1.2,2.1*27
$BDGSA,A,3,,,,,,,,,,,,,2.4,1.2,2.1*25
$GPRMC,065751.00,A,3205.037977,N,03448.141443,E,000.0,,170616,,,A*72
$GPGGA,065752.00,3205.037977,N,03448.141443,E,1,17,2.4,65.7,M,19.2,M,,*54
$GPGSV,3,1,11,13,74,294,23,17,55,124,27,28,50,032,25,19,38,164,31*7B
$GPGSV,3,2,11,15,38,309,35,30,32,083,29,05,16,226,25,20,14,271,24*7F
$GPGSV,3,3,11,24,10,297,16,07,09,097,23,11,03,050,*42
$GLGSV,3,1,09,75,47,003,38,65,41,244,39,85,40,105,25,66,27,313,29*6C
$GLGSV,3,2,09,84,24,046,14,76,23,297,20,74,21,061,28,86,16,160,19*65
$GLGSV,3,3,09,72,15,195,25*57
$BDGSV,2,1,07,205,45,140,27,212,43,144,32,202,29,118,,208,29,057,*6C
$BDGSV,2,2,07,214,25,218,,210,22,077,,211,07,188,*63
$GPGSA,A,3,05,07,13,15,17,19,20,28,30,,,,2.3,1.0,2.0*31
$GNGSA,A,3,05,07,13,15,17,19,20,28,30,,,,2.3,1.0,2.0*2F
$GNGSA,A,3,65,66,72,75,76,84,85,86,,,,,2.3,1.0,2.0*24
$QZGSA,A,3,,,,,,,,,,,,,2.3,1.0,2.0*2C
$IMGSA,A,3,,,,,,,,,,,,,2.3,1.0,2.0*23
$BDGSA,A,3,,,,,,,,,,,,,2.3,1.0,2.0*21
$GPRMC,065752.00,A,3205.037977,N,03448.141443,E,000.0,,170616,,,A*71
$GPGGA,065753.00,3205.037977,N,03448.141443,E,1,17,2.4,65.7,M,19.2,M,,*55
$GPGSV,3,1,11,13,74,294,23,17,55,124,27,28,50,032,25,19,38,164,31*7B
$GPGSV,3,2,11,15,38,309,35,30,32,083,29,05,16,226,25,20,14,271,24*7F
$GPGSV,3,3,11,24,10,297,15,07,09,097,23,11,03,050,*41
$GLGSV,3,1,09,75,47,003,38,65,41,244,39,85,40,105,24,66,27,313,29*6D
$GLGSV,3,2,09,84,24,046,14,76,23,297,20,74,21,061,28,86,16,160,19*65
$GLGSV,3,3,09,72,15,195,25*57
$BDGSV,2,1,07,205,45,140,27,212,43,144,32,202,29,118,,208,29,057,*6C
$BDGSV,2,2,07,214,25,218,,210,22,077,,211,07,188,*63
$GPGSA,A,3,05,07,13,15,17,19,20,28,30,,,,2.3,1.0,2.0*31
$GNGSA,A,3,05,07,13,15,17,19,20,28,30,,,,2.3,1.0,2.0*2F
$GNGSA,A,3,65,66,72,75,76,84,85,86,,,,,2.3,1.0,2.0*24
$QZGSA,A,3,,,,,,,,,,,,,2.3,1.0,2.0*2C
$IMGSA,A,3,,,,,,,,,,,,,2.3,1.0,2.0*23
$BDGSA,A,3,,,,,,,,,,,,,2.3,1.0,2.0*21
$GPRMC,065753.00,A,3205.037977,N,03448.141443,E,000.0,,170616,,,A*70
$GPGGA,065754.00,3205.037977,N,03448.141443,E,1,16,3.2,65.7,M,19.2,M,,*54
$GPGSV,3,1,11,13,74,294,23,17,55,124,26,28,50,032,25,19,39,164,31*7B
$GPGSV,3,2,11,15,38,309,35,30,32,083,29,05,16,226,24,20,14,271,24*7E
$GPGSV,3,3,11,24,10,297,14,07,09,097,23,11,03,050,*40
$GLGSV,3,1,09,75,47,003,37,65,41,244,39,85,40,105,24,66,27,313,29*62
$GLGSV,3,2,09,84,24,046,14,76,23,297,19,74,21,061,28,86,16,160,19*6F
$GLGSV,3,3,09,72,15,195,24*56
$BDGSV,2,1,07,205,45,140,27,212,43,144,32,202,29,118,,208,29,057,*6C
$BDGSV,2,2,07,214,25,218,,210,22,077,,211,07,188,*63
$GPGSA,A,3,05,07,13,15,17,19,20,28,30,,,,2.3,1.0,2.0*31
$GNGSA,A,3,05,07,13,15,17,19,20,28,30,,,,2.3,1.0,2.0*2F
$GNGSA,A,3,65,66,72,75,84,85,86,,,,,,2.3,1.0,2.0*25
$QZGSA,A,3,,,,,,,,,,,,,2.3,1.0,2.0*2C
$IMGSA,A,3,,,,,,,,,,,,,2.3,1.0,2.0*23
$BDGSA,A,3,,,,,,,,,,,,,2.3,1.0,2.0*21
$GPRMC,065754.00,A,3205.037977,N,03448.141443,E,000.0,,170616,,,A*77
$GPGGA,065755.00,3205.037977,N,03448.141443,E,1,16,3.2,65.8,M,19.2,M,,*5A
$GPGSV,3,1,11,13,74,294,22,17,55,124,26,28,50,032,25,19,39,164,30*7B
$GPGSV,3,2,11,15,38,309,34,30,32,083,28,05,16,226,23,20,14,271,23*7E
$GPGSV,3,3,11,24,10,297,14,07,09,097,23,11,03,050,*40
$GLGSV,3,1,09,75,47,003,37,65,41,244,38,85,40,105,23,66,27,313,28*65
$GLGSV,3,2,09,84,24,046,14,76,23,297,18,74,21,061,27,86,16,160,18*60
$GLGSV,3,3,09,72,15,195,24*56
$BDGSV,2,1,07,205,45,140,27,212,43,144,31,202,29,118,,208,29,057,*6F
$BDGSV,2,2,07,214,25,218,,210,22,077,,211,07,188,*63
$GPGSA,A,3,05,07,13,15,17,19,20,28,30,,,,1.9,0.9,1.7*34
$GNGSA,A,3,05,07,13,15,17,19,20,28,30,,,,1.9,0.9,1.7*2A
$GNGSA,A,3,65,66,72,75,84,85,86,,,,,,1.9,0.9,1.7*20
$QZGSA,A,3,,,,,,,,,,,,,1.9,0.9,1.7*29
$IMGSA,A,3,,,,,,,,,,,,,1.9,0.9,1.7*26
$BDGSA,A,3,,,,,,,,,,,,,1.9,0.9,1.7*24
$GPRMC,065755.00,A,3205.037977,N,03448.141443,E,000.0,,170616,,,A*76
$GPGGA,065756.00,3205.037977,N,03448.141443,E,1,17,3.2,65.9,M,19.2,M,,*59
$GPGSV,3,1,11,13,74,294,22,17,55,124,26,28,50,032,26,19,39,164,31*79
$GPGSV,3,2,11,15,38,309,34,30,32,083,28,05,16,226,23,20,14,271,25*78
$GPGSV,3,3,11,24,10,297,14,07,09,097,22,11,03,050,*41
$GLGSV,3,1,09,75,47,003,37,65,41,244,40,85,40,105,24,66,27,313,28*6D
$GLGSV,3,2,09,84,24,046,13,76,23,297,18,74,21,061,27,86,16,160,18*67
$GLGSV,3,3,09,72,15,195,25*57
$BDGSV,2,1,07,205,45,140,27,212,43,144,31,202,29,118,,208,29,057,*6F
$BDGSV,2,2,07,214,25,218,,210,22,077,,211,07,188,*63
$GPGSA,A,3,05,07,13,15,17,19,20,24,28,30,,,2.4,1.0,2.2*32
$GNGSA,A,3,05,07,13,15,17,19,20,24,28,30,,,2.4,1.0,2.2*2C
$GNGSA,A,3,65,66,72,75,76,84,85,,,,,,2.4,1.0,2.2*2F
$QZGSA,A,3,,,,,,,,,,,,,2.4,1.0,2.2*29
$IMGSA,A,3,,,,,,,,,,,,,2.4,1.0,2.2*26
$BDGSA,A,3,,,,,,,,,,,,,2.4,1.0,2.2*24
$GPRMC,065756.00,A,3205.037977,N,03448.141443,E,000.0,,170616,,,A*75
$GPGGA,065757.00,3205.037977,N,03448.141443,E,1,18,3.2,65.9,M,19.2,M,,*57
$GPGSV,3,1,11,13,74,294,22,17,55,124,26,28,50,032,26,19,39,164,32*7A
$GPGSV,3,2,11,15,38,309,34,30,32,083,28,05,16,226,22,20,14,271,25*79
$GPGSV,3,3,11,24,10,298,18,07,09,097,22,11,03,050,*42
$GLGSV,3,1,09,75,47,003,37,65,41,244,40,85,40,105,25,66,27,313,28*6C
$GLGSV,3,2,09,84,24,046,13,76,23,297,18,74,21,061,27,86,16,160,17*68
$GLGSV,3,3,09,72,15,195,27*55
$BDGSV,2,1,07,205,45,140,27,212,43,144,32,202,29,118,,208,29,057,*6C
$BDGSV,2,2,07,214,25,218,,210,22,077,,211,07,188,*63
$GPGSA,A,3,05,07,13,15,17,19,20,24,28,30,,,2.4,1.0,2.2*32
$GNGSA,A,3,05,07,13,15,17,19,20,24,28,30,,,2.4,1.0,2.2*2C
$GNGSA,A,3,65,66,72,75,76,84,85,86,,,,,2.4,1.0,2.2*21
$QZGSA,A,3,,,,,,,,,,,,,2.4,1.0,2.2*29
$IMGSA,A,3,,,,,,,,,,,,,2.4,1.0,2.2*26
$BDGSA,A,3,,,,,,,,,,,,,2.4,1.0,2.2*24
$GPRMC,065757.00,A,3205.037977,N,03448.141443,E,000.0,,170616,,,A*74
$GPGGA,065758.00,3205.037977,N,03448.141443,E,1,18,2.4,66.0,M,19.2,M,,*55
$GPGSV,3,1,11,13,74,294,22,17,55,124,26,28,50,032,27,19,39,164,32*7B
$GPGSV,3,2,11,15,38,309,34,30,32,083,28,05,16,226,21,20,14,271,25*7A
$GPGSV,3,3,11,24,10,298,18,07,09,097,22,11,03,050,*42
$GLGSV,3,1,09,75,47,003,37,65,41,244,40,85,40,105,24,66,27,313,29*6C
$GLGSV,3,2,09,84,24,046,13,76,23,297,18,74,21,061,27,86,16,160,17*68
$GLGSV,3,3,09,72,15,195,28*5A
$BDGSV,2,1,07,205,45,140,27,212,43,144,32,202,29,118,,208,29,057,*6C
$BDGSV,2,2,07,214,25,218,,210,22,077,,211,07,188,*63
$GPGSA,A,3,05,07,13,15,17,19,20,24,28,30,,,2.4,1.0,2.2*32
$GNGSA,A,3,05,07,13,15,17,19,20,24,28,30,,,2.4,1.0,2.2*2C
$GNGSA,A,3,65,66,72,75,76,84,85,86,,,,,2.4,1.0,2.2*21
$QZGSA,A,3,,,,,,,,,,,,,2.4,1.0,2.2*29
$IMGSA,A,3,,,,,,,,,,,,,2.4,1.0,2.2*26
$BDGSA,A,3,,,,,,,,,,,,,2.4,1.0,2.2*24
$GPRMC,065758.00,A,3205.037977,N,03448.141443,E,000.0,,170616,,,A*7B
$GPGGA,065759.00,3205.037977,N,03448.141443,E,1,18,3.2,66.1,M,19.2,M,,*52
$GPGSV,3,1,11,13,74,294,22,17,55,124,26,28,50,032,27,19,39,164,32*7B
$GPGSV,3,2,11,15,38,309,35,30,32,083,27,05,16,226,20,20,14,271,25*75
$GPGSV,3,3,11,24,10,298,18,07,09,097,22,11,03,050,*42
$GLGSV,3,1,09,75,47,003,37,65,41,244,40,85,40,105,24,66,27,313,30*64
$GLGSV,3,2,09,84,24,046,13,76,23,297,18,74,21,061,26,86,16,160,16*68
$GLGSV,3,3,09,72,15,195,28*5A
$BDGSV,2,1,07,205,45,140,27,212,43,144,32,202,29,118,,208,29,057,*6C
$BDGSV,2,2,07,214,25,218,,210,22,077,,211,07,188,*63
$GPGSA,A,3,05,07,13,15,17,19,20,24,28,30,,,2.3,1.0,2.1*36
$GNGSA,A,3,05,07,13,15,17,19,20,24,28,30,,,2.3,1.0,2.1*28
$GNGSA,A,3,65,66,72,75,76,84,85,86,,,,,2.3,1.0,2.1*25
$QZGSA,A,3,,,,,,,,,,,,,2.3,1.0,2.1*2D
$IMGSA,A,3,,,,,,,,,,,,,2.3,1.0,2.1*22
$BDGSA,A,3,,,,,,,,,,,,,2.3,1.0,2.1*20
$GPRMC,065759.00,A,3205.037977,N,03448.141443,E,000.0,,170616,,,A*7A
$GPGGA,065800.00,3205.037977,N,03448.141443,E,1,17,3.2,66.2,M,19.2,M,,*5D
$GPGSV,3,1,11,13,74,294,21,17,55,124,25,28,50,032,27,19,39,164,32*7B
$GPGSV,3,2,11,15,38,309,36,30,32,083,27,05,16,226,19,20,14,271,25*7C
$GPGSV,3,3,11,24,10,298,18,07,09,097,22,11,03,050,*42
$GLGSV,3,1,09,75,47,003,37,65,41,244,40,85,40,105,23,66,27,312,31*63
$GLGSV,3,2,09,84,24,046,13,76,23,297,19,74,21,061,26,86,16,160,16*69
$GLGSV,3,3,09,72,15,195,28*5A
$BDGSV,2,1,07,205,45,140,27,212,43,144,32,202,29,118,,208,29,057,*6C
$BDGSV,2,2,07,214,25,218,,210,22,077,,211,07,188,*63
$GPGSA,A,3,05,07,13,15,17,19,20,24,28,30,,,2.3,1.0,2.0*37
$GNGSA,A,3,05,07,13,15,17,19,20,24,28,30,,,2.3,1.0,2.0*29
$GNGSA,A,3,65,66,72,75,76,85,86,,,,,,2.3,1.0,2.0*28
$QZGSA,A,3,,,,,,,,,,,,,2.3,1.0,2.0*2C
$IMGSA,A,3,,,,,,,,,,,,,2.3,1.0,2.0*23
$BDGSA,A,3,,,,,,,,,,,,,2.3,1.0,2.0*21
$GPRMC,065800.00,A,3205.037977,N,03448.141443,E,000.0,,170616,,,A*79
$GPGGA,065801.00,3205.037977,N,03448.141443,E,1,16,3.2,66.4,M,19.2,M,,*5B
$GPGSV,3,1,11,13,74,294,20,17,55,124,25,28,50,032,28,19,39,164,32*75
$GPGSV,3,2,11,15,38,309,36,30,32,083,27,05,16,226,19,20,14,271,25*7C
$GPGSV,3,3,11,24,10,298,17,07,09,097,21,11,03,050,*4E
$GLGSV,3,1,09,75,47,003,37,65,41,244,40,85,40,105,22,66,27,312,31*62
$GLGSV,3,2,09,84,24,046,13,76,23,297,19,74,21,061,25,86,16,160,16*6A
$GLGSV,3,3,09,72,15,195,28*5A
$BDGSV,2,1,07,205,45,140,27,212,43,144,32,202,29,118,,208,29,057,*6C
$BDGSV,2,2,07,214,25,218,,210,22,077,,211,07,188,*63
$GPGSA,A,3,05,07,13,15,17,19,20,28,30,,,,2.1,1.0,1.8*38
$GNGSA,A,3,05,07,13,15,17,19,20,28,30,,,,2.1,1.0,1.8*26
$GNGSA,A,3,65,66,72,75,76,85,86,,,,,,2.1,1.0,1.8*21
$QZGSA,A,3,,,,,,,,,,,,,2.1,1.0,1.8*25
$IMGSA,A,3,,,,,,,,,,,,,2.1,1.0,1.8*2A
$BDGSA,A,3,,,,,,,,,,,,,2.1,1.0,1.8*28
$GPRMC,065801.00,A,3205.037977,N,03448.141443,E,000.0,,170616,,,A*78
$GPGGA,065802.00,3205.037977,N,03448.141443,E,1,14,3.2,66.6,M,19.2,M,,*58
$GPGSV,3,1,11,13,74,294,19,17,55,124,25,28,50,032,28,19,39,164,32*7F
$GPGSV,3,2,11,15,38,309,36,30,32,083,27,05,16,226,18,20,14,271,24*7C
$GPGSV,3,3,11,24,10,298,17,07,09,097,21,11,03,050,*4E
$GLGSV,3,1,09,75,47,003,37,65,41,244,40,85,40,105,22,66,27,312,30*63
$GLGSV,3,2,09,84,24,046,13,76,23,297,19,74,21,061,24,86,16,160,15*68
$GLGSV,3,3,09,72,15,195,28*5A
$BDGSV,2,1,07,205,45,140,27,212,43,144,32,202,29,118,,208,29,057,*6C
$BDGSV,2,2,07,214,25,218,,210,22,077,,211,07,188,*63
$GPGSA,A,3,07,15,17,19,20,28,30,,,,,,2.4,1.0,2.2*33
$GNGSA,A,3,07,15,17,19,20,28,30,,,,,,2.4,1.0,2.2*2D
$GNGSA,A,3,65,66,72,75,76,85,86,,,,,,2.4,1.0,2.2*2D
$QZGSA,A,3,,,,,,,,,,,,,2.4,1.0,2.2*29
$IMGSA,A,3,,,,,,,,,,,,,2.4,1.0,2.2*26
$BDGSA,A,3,,,,,,,,,,,,,2.4,1.0,2.2*24
$GPRMC,065802.00,A,3205.037977,N,03448.141443,E,000.0,,170616,,,A*7B
$GPGGA,065803.00,3205.037977,N,03448.141443,E,1,14,4.8,66.7,M,19.2,M,,*55
$GPGSV,3,1,11,13,74,294,18,17,55,124,24,28,50,032,28,19,39,164,32*7F
$GPGSV,3,2,11,15,38,309,36,30,32,083,27,05,16,226,17,20,14,271,24*73
$GPGSV,3,3,11,24,10,298,16,07,09,097,21,11,03,050,*4F
$GLGSV,3,1,09,75,47,003,37,65,41,244,40,85,40,105,21,66,27,312,30*60
$GLGSV,3,2,09,84,24,046,12,76,23,297,19,74,21,061,22,86,16,160,15*6F
$GLGSV,3,3,09,72,15,195,28*5A
$BDGSV,2,1,07,205,45,140,27,212,43,144,32,202,29,118,,208,29,057,*6C
$BDGSV,2,2,07,214,25,218,,210,22,077,,211,07,188,*63
$GPGSA,A,3,07,15,17,19,20,28,30,,,,,,2.2,0.9,2.0*3F
$GNGSA,A,3,07,15,17,19,20,28,30,,,,,,2.2,0.9,2.0*21
$GNGSA,A,3,65,66,72,75,76,85,86,,,,,,2.2,0.9,2.0*21
$QZGSA,A,3,,,,,,,,,,,,,2.2,0.9,2.0*25
$IMGSA,A,3,,,,,,,,,,,,,2.2,0.9,2.0*2A
$BDGSA,A,3,,,,,,,,,,,,,2.2,0.9,2.0*28
$GPRMC,065803.00,A,3205.037977,N,03448.141443,E,000.0,,170616,,,A*7A
$GPGGA,065804.00,3205.037977,N,03448.141443,E,1,15,2.4,66.9,M,19.2,M,,*57
$GPGSV,3,1,11,13,74,294,18,17,55,124,24,28,50,032,28,19,39,164,31*7C
$GPGSV,3,2,11,15,38,309,36,30,32,083,27,05,16,226,17,20,14,271,25*72
$GPGSV,3,3,11,24,10,298,16,07,09,097,22,11,03,050,*4C
$GLGSV,3,1,09,75,47,003,37,65,41,244,40,85,40,105,21,66,27,312,29*68
$GLGSV,3,2,09,84,24,046,12,76,23,297,19,74,21,061,21,86,16,160,15*6C
$GLGSV,3,3,09,72,15,195,28*5A
$BDGSV,2,1,07,205,45,140,28,212,43,144,32,202,29,118,,208,29,057,*63
$BDGSV,2,2,07,214,25,218,,210,22,077,,211,07,188,*63
$GPGSA,A,3,07,15,17,19,20,24,28,30,,,,,2.2,0.9,2.0*39
$GNGSA,A,3,07,15,17,19,20,24,28,30,,,,,2.2,0.9,2.0*27
$GNGSA,A,3,65,66,72,75,76,85,86,,,,,,2.2,0.9,2.0*21
$QZGSA,A,3,,,,,,,,,,,,,2.2,0.9,2.0*25
$IMGSA,A,3,,,,,,,,,,,,,2.2,0.9,2.0*2A
$BDGSA,A,3,,,,,,,,,,,,,2.2,0.9,2.0*28
$GPRMC,065804.00,A,3205.037977,N,03448.141443,E,000.0,,170616,,,A*7D
$GPGGA,065805.00,3205.037977,N,03448.141443,E,1,14,2.4,67.0,M,19.2,M,,*5F
$GPGSV,3,1,11,13,74,294,17,17,55,124,23,28,50,032,28,19,39,164,31*74
$GPGSV,3,2,11,15,38,309,36,30,32,083,27,05,16,226,16,20,14,271,25*73
$GPGSV,3,3,11,24,10,298,18,07,09,097,23,11,03,050,*43
$GLGSV,3,1,09,75,47,003,37,65,41,244,40,85,40,105,21,66,27,312,29*68
$GLGSV,3,2,09,76,23,297,19,74,21,061,19,86,16,160,15,72,15,195,28*6A
$GLGSV,3,3,09,84,24,046,12*57
$BDGSV,2,1,07,205,45,140,28,212,43,144,32,202,29,118,,208,29,057,*63
$BDGSV,2,2,07,214,25,218,,210,22,077,,211,07,188,*63
$GPGSA,A,3,07,15,17,19,20,24,28,30,,,,,2.4,1.0,2.2*35
$GNGSA,A,3,07,15,17,19,20,24,28,30,,,,,2.4,1.0,2.2*2B
$GNGSA,A,3,65,66,72,75,76,85,,,,,,,2.4,1.0,2.2*23
$QZGSA,A,3,,,,,,,,,,,,,2.4,1.0,2.2*29
$IMGSA,A,3,,,,,,,,,,,,,2.4,1.0,2.2*26
$BDGSA,A,3,,,,,,,,,,,,,2.4,1.0,2.2*24
$GPRMC,065805.00,A,3205.037977,N,03448.141443,E,000.0,,170616,,,A*7C
$GPGGA,065806.00,3205.037977,N,03448.141443,E,1,16,3.2,67.2,M,19.2,M,,*5B
$GPGSV,3,1,11,13,74,294,17,17,55,124,22,28,50,032,28,19,39,164,30*74
$GPGSV,3,2,11,15,38,309,36,30,32,083,26,05,16,226,16,20,14,271,25*72
$GPGSV,3,3,11,24,10,298,20,07,09,097,23,11,03,050,*48
$GLGSV,3,1,09,75,47,003,37,65,41,244,40,85,40,105,21,66,27,312,28*69
$GLGSV,3,2,09,76,23,297,21,74,21,061,18,86,16,160,14,72,15,195,27*6E
$GLGSV,3,3,09,84,24,046,12*57
$BDGSV,2,1,07,205,45,140,27,212,43,144,32,202,29,118,,208,29,057,*6C
$BDGSV,2,2,07,214,25,218,,210,22,077,,211,07,188,*63
$GPGSA,A,3,05,07,13,15,17,19,20,24,28,30,,,2.4,1.0,2.2*32
$GNGSA,A,3,05,07,13,15,17,19,20,24,28,30,,,2.4,1.0,2.2*2C
$GNGSA,A,3,65,66,72,75,76,85,,,,,,,2.4,1.0,2.2*23
$QZGSA,A,3,,,,,,,,,,,,,2.4,1.0,2.2*29
$IMGSA,A,3,,,,,,,,,,,,,2.4,1.0,2.2*26
$BDGSA,A,3,,,,,,,,,,,,,2.4,1.0,2.2*24
$GPRMC,065806.00,A,3205.037977,N,03448.141443,E,000.0,,170616,,,A*7F
$GPGGA,065807.00,3205.037977,N,03448.141443,E,1,15,3.2,67.4,M,19.2,M,,*5F
$GPGSV,3,1,11,13,74,294,20,17,55,124,21,28,50,032,28,19,39,164,30*73
$GPGSV,3,2,11,15,38,309,36,30,32,083,26,05,16,226,16,20,14,271,25*72
$GPGSV,3,3,11,24,10,298,20,07,09,097,23,11,03,050,*48
$GLGSV,3,1,09,75,47,003,37,65,41,244,39,85,40,105,21,66,27,312,28*67
$GLGSV,3,2,09,76,23,297,21,74,21,061,18,86,16,160,14,72,15,195,27*6E
$GLGSV,3,3,09,84,24,046,13*56
$BDGSV,2,1,07,205,45,140,27,212,43,144,32,202,29,118,,208,29,057,*6C
$BDGSV,2,2,07,214,25,218,,210,22,077,,211,07,188,*63
$GPGSA,A,3,05,07,13,15,19,20,24,28,30,,,,2.6,1.1,2.4*31
$GNGSA,A,3,05,07,13,15,19,20,24,28,30,,,,2.6,1.1,2.4*2F
$GNGSA,A,3,65,66,72,75,76,85,,,,,,,2.6,1.1,2.4*26
$QZGSA,A,3,,,,,,,,,,,,,2.6,1.1,2.4*2C
$IMGSA,A,3,,,,,,,,,,,,,2.6,1.1,2.4*23
$BDGSA,A,3,,,,,,,,,,,,,2.6,1.1,2.4*21
$GPRMC,065807.00,A,3205.037977,N,03448.141443,E,000.0,,170616,,,A*7E
$GPGGA,065808.00,,,,,0,15,6.4,67.5,M,19.2,M,,*6D
$GPGSV,3,1,11,13,74,294,21,17,55,124,20,28,50,032,28,19,39,164,30*73
$GPGSV,3,2,11,15,38,309,36,30,32,083,26,05,16,226,18,20,14,271,24*7D
$GPGSV,3,3,11,24,10,298,20,07,09,097,23,11,03,050,*48
$GLGSV,3,1,09,75,47,003,37,65,41,244,39,85,40,105,21,66,27,312,28*67
$GLGSV,3,2,09,76,23,297,21,74,21,061,20,86,16,160,14,72,15,195,27*65
$GLGSV,3,3,09,84,24,046,14*51
$BDGSV,2,1,07,205,45,140,28,212,43,144,32,202,29,118,,208,29,057,*63
$BDGSV,2,2,07,214,25,218,,210,22,077,,211,07,188,*63
$GPGSA,A,1,,,,,,,,,,,,,2.0,0.9,1.7*3D
$GNGSA,A,1,,,,,,,,,,,,,2.0,0.9,1.7*23
$GNGSA,A,1,,,,,,,,,,,,,2.0,0.9,1.7*23
$QZGSA,A,1,,,,,,,,,,,,,2.0,0.9,1.7*21
$IMGSA,A,1,,,,,,,,,,,,,2.0,0.9,1.7*2E
$BDGSA,A,1,,,,,,,,,,,,,2.0,0.9,1.7*2C
$GPRMC,065808.00,V,,,,,,,170616,,,N*79
$GPGGA,065809.00,,,,,0,15,6.4,67.6,M,19.2,M,,*6F
$GPGSV,3,1,11,13,74,294,24,17,55,124,19,28,50,032,28,19,39,164,29*74
$GPGSV,3,2,11,15,38,309,36,30,32,083,26,05,16,226,18,20,14,271,24*7D
$GPGSV,3,3,11,24,10,298,20,07,09,097,23,11,03,050,*48
$GLGSV,3,1,09,75,47,003,37,65,41,244,39,85,40,105,20,66,27,312,27*69
$GLGSV,3,2,09,76,23,297,20,74,21,061,20,86,16,160,13,72,15,195,27*63
$GLGSV,3,3,09,84,24,046,14*51
$BDGSV,2,1,07,205,45,140,28,212,43,144,32,202,29,118,,208,29,057,*63
$BDGSV,2,2,07,214,25,218,,210,22,077,,211,07,188,*63
$GPGSA,A,1,,,,,,,,,,,,,2.0,0.9,1.7*3D
$GNGSA,A,1,,,,,,,,,,,,,2.0,0.9,1.7*23
$GNGSA,A,1,,,,,,,,,,,,,2.0,0.9,1.7*23
$QZGSA,A,1,,,,,,,,,,,,,2.0,0.9,1.7*21
$IMGSA,A,1,,,,,,,,,,,,,2.0,0.9,1.7*2E
$BDGSA,A,1,,,,,,,,,,,,,2.0,0.9,1.7*2C
$GPRMC,065809.00,V,,,,,,,170616,,,N*78
$GPGGA,065810.00,3205.037977,N,03448.141443,E,1,15,2.4,67.7,M,19.2,M,,*5D
$GPGSV,3,1,11,13,74,294,25,17,55,124,19,28,50,032,28,19,39,164,29*75
$GPGSV,3,2,11,15,38,309,35,30,32,083,25,05,16,226,21,20,14,271,24*77
$GPGSV,3,3,11,24,10,298,19,07,09,097,22,11,03,050,*43
$GLGSV,3,1,09,75,47,003,37,65,41,244,39,85,40,105,23,66,27,312,27*6A
$GLGSV,3,2,09,76,23,297,20,74,21,061,21,86,16,160,13,72,15,195,27*62
$GLGSV,3,3,09,84,24,046,15*50
$BDGSV,2,1,07,205,45,140,28,212,43,144,32,202,29,118,,208,29,057,*63
$BDGSV,2,2,07,214,25,218,,210,22,077,,211,07,188,*63
$GPGSA,A,3,05,07,13,15,19,20,28,30,,,,,2.9,1.3,2.6*38
$GNGSA,A,3,05,07,13,15,19,20,28,30,,,,,2.9,1.3,2.6*26
$GNGSA,A,3,65,66,72,75,76,85,86,,,,,,2.9,1.3,2.6*27
$QZGSA,A,3,,,,,,,,,,,,,2.9,1.3,2.6*23
$IMGSA,A,3,,,,,,,,,,,,,2.9,1.3,2.6*2C
$BDGSA,A,3,,,,,,,,,,,,,2.9,1.3,2.6*2E
$GPRMC,065810.00,A,3205.037977,N,03448.141443,E,000.0,,170616,,,A*78
$GPGGA,065811.00,3205.037977,N,03448.141443,E,1,16,3.2,67.9,M,19.2,M,,*56
$GPGSV,3,1,11,13,74,294,26,17,55,124,18,28,50,032,28,19,39,164,28*76
$GPGSV,3,2,11,15,38,309,35,30,32,083,24,05,16,226,22,20,14,271,25*74
$GPGSV,3,3,11,24,10,298,18,07,09,097,22,11,03,050,*42
$GLGSV,3,1,09,75,47,003,37,65,41,244,39,85,40,105,25,66,27,312,27*6C
$GLGSV,3,2,09,76,23,297,19,74,21,061,21,86,16,160,13,72,15,195,27*68
$GLGSV,3,3,09,84,24,046,15*50
$BDGSV,2,1,07,205,45,140,28,212,43,144,32,202,29,118,,208,29,057,*63
$BDGSV,2,2,07,214,25,218,,210,22,077,,211,07,188,*63
$GPGSA,A,3,05,07,13,15,17,19,20,28,30,,,,2.7,1.1,2.4*30
$GNGSA,A,3,05,07,13,15,17,19,20,28,30,,,,2.7,1.1,2.4*2E
$GNGSA,A,3,65,66,72,75,76,85,86,,,,,,2.7,1.1,2.4*29
$QZGSA,A,3,,,,,,,,,,,,,2.7,1.1,2.4*2D
$IMGSA,A,3,,,,,,,,,,,,,2.7,1.1,2.4*22
$BDGSA,A,3,,,,,,,,,,,,,2.7,1.1,2.4*20
$GPRMC,065811.00,A,3205.037977,N,03448.141443,E,000.0,,170616,,,A*79
$GPGGA,065812.00,3205.037977,N,03448.141443,E,1,15,4.8,68.1,M,19.2,M,,*5C
$GPGSV,3,1,11,13,74,294,27,17,55,123,18,28,50,032,28,19,39,164,28*70
$GPGSV,3,2,11,15,38,309,35,30,32,083,24,05,16,226,23,20,14,271,26*76
$GPGSV,3,3,11,24,10,298,17,07,09,097,22,11,03,050,*4D
$GLGSV,3,1,09,75,47,003,37,65,41,244,39,85,40,105,27,66,27,312,28*61
$GLGSV,3,2,09,76,23,297,19,74,21,061,21,86,16,160,14,72,15,195,27*6F
$GLGSV,3,3,09,84,24,046,15*50
$BDGSV,2,1,07,212,43,143,32,205,45,140,28,202,29,118,,208,29,057,*64
$BDGSV,2,2,07,214,25,218,,210,22,077,,211,07,188,*63
$GPGSA,A,3,05,07,13,15,17,19,20,28,30,,,,2.2,1.0,2.0*30
$GNGSA,A,3,05,07,13,15,17,19,20,28,30,,,,2.2,1.0,2.0*2E
$GNGSA,A,3,65,66,72,75,85,86,,,,,,,2.2,1.0,2.0*28
$QZGSA,A,3,,,,,,,,,,,,,2.2,1.0,2.0*2D
$IMGSA,A,3,,,,,,,,,,,,,2.2,1.0,2.0*22
$BDGSA,A,3,,,,,,,,,,,,,2.2,1.0,2.0*20
$GPRMC,065812.00,A,3205.037977,N,03448.141443,E,000.0,,170616,,,A*7A
$GPGGA,065813.00,3205.037977,N,03448.141443,E,1,16,4.8,68.3,M,19.2,M,,*5C
$GPGSV,3,1,11,13,74,294,28,17,55,123,20,28,50,032,28,19,39,164,28*74
$GPGSV,3,2,11,15,38,309,35,30,32,083,23,05,16,226,23,20,14,271,27*70
$GPGSV,3,3,11,24,10,298,17,07,09,097,22,11,03,050,*4D
$GLGSV,3,1,09,75,47,003,37,65,41,244,39,85,40,105,28,66,27,312,28*6E
$GLGSV,3,2,09,76,23,297,18,74,21,061,21,86,16,160,14,72,15,195,28*61
$GLGSV,3,3,09,84,24,046,15*50
$BDGSV,2,1,07,212,43,143,31,205,45,140,28,202,29,118,,208,29,057,*67
$BDGSV,2,2,07,214,25,218,,210,22,077,,211,07,188,*63
$GPGSA,A,3,05,07,13,15,17,19,20,24,28,30,,,2.1,1.0,1.8*3E
$GNGSA,A,3,05,07,13,15,17,19,20,24,28,30,,,2.1,1.0,1.8*20
$GNGSA,A,3,65,66,72,75,85,86,,,,,,,2.1,1.0,1.8*20
$QZGSA,A,3,,,,,,,,,,,,,2.1,1.0,1.8*25
$IMGSA,A,3,,,,,,,,,,,,,2.1,1.0,1.8*2A
$BDGSA,A,3,,,,,,,,,,,,,2.1,1.0,1.8*28
$GPRMC,065813.00,A,3205.037977,N,03448.141443,E,000.0,,170616,,,A*7B
$GPGGA,065814.00,3205.037977,N,03448.141443,E,1,16,4.8,68.5,M,19.2,M,,*5D
$GPGSV,3,1,11,13,74,294,28,17,55,123,20,28,50,032,27,19,39,164,27*74
$GPGSV,3,2,11,15,38,309,34,30,32,083,23,05,16,226,24,20,14,271,27*76
$GPGSV,3,3,11,24,10,298,16,07,09,097,22,11,03,050,*4C
$GLGSV,3,1,09,75,47,003,37,65,41,244,39,85,40,105,28,66,27,312,28*6E
$GLGSV,3,2,09,76,23,297,17,74,21,061,21,86,16,160,15,72,15,195,29*6E
$GLGSV,3,3,09,84,24,046,14*51
$BDGSV,2,1,07,212,43,143,31,205,45,140,28,202,29,118,,208,29,057,*67
$BDGSV,2,2,07,214,25,218,,210,22,077,,211,07,188,*63
$GPGSA,A,3,05,07,13,15,17,19,20,24,28,30,,,1.8,0.8,1.6*33
$GNGSA,A,3,05,07,13,15,17,19,20,24,28,30,,,1.8,0.8,1.6*2D
$GNGSA,A,3,65,66,72,75,85,86,,,,,,,1.8,0.8,1.6*2D
$QZGSA,A,3,,,,,,,,,,,,,1.8,0.8,1.6*28
$IMGSA,A,3,,,,,,,,,,,,,1.8,0.8,1.6*27
$BDGSA,A,3,,,,,,,,,,,,,1.8,0.8,1.6*25
$GPRMC,065814.00,A,3205.037977,N,03448.141443,E,000.0,,170616,,,A*7C
$GPGGA,065815.00,3205.037977,N,03448.141443,E,1,16,3.2,68.6,M,19.2,M,,*52
$GPGSV,3,1,11,13,74,293,28,17,55,123,22,28,50,032,27,19,39,164,27*71
$GPGSV,3,2,11,15,38,309,33,30,32,083,24,05,16,226,25,20,14,271,27*77
$GPGSV,3,3,11,24,10,298,16,07,09,097,21,11,03,050,*4F
$GLGSV,3,1,09,75,47,003,38,65,41,244,39,85,40,105,27,66,27,312,28*6E
$GLGSV,3,2,09,76,23,297,16,74,21,061,21,86,16,160,18,72,15,195,30*6A
$GLGSV,3,3,09,84,24,046,14*51
$BDGSV,2,1,07,212,43,143,31,205,45,140,28,202,29,118,,208,29,057,*67
$BDGSV,2,2,07,214,25,218,,210,22,077,,211,07,188,*63
$GPGSA,A,3,05,07,13,15,17,19,20,24,28,30,,,2.1,1.1,1.8*3F
$GNGSA,A,3,05,07,13,15,17,19,20,24,28,30,,,2.1,1.1,1.8*21
$GNGSA,A,3,65,66,72,75,85,86,,,,,,,2.1,1.1,1.8*21
$QZGSA,A,3,,,,,,,,,,,,,2.1,1.1,1.8*24
$IMGSA,A,3,,,,,,,,,,,,,2.1,1.1,1.8*2B
$BDGSA,A,3,,,,,,,,,,,,,2.1,1.1,1.8*29
$GPRMC,065815.00,A,3205.037977,N,03448.141443,E,000.0,,170616,,,A*7D
$GPGGA,065816.00,3205.037977,N,03448.141443,E,1,16,3.2,68.6,M,19.2,M,,*51
$GPGSV,3,1,11,13,74,293,28,17,55,123,22,28,50,032,27,19,39,164,26*70
$GPGSV,3,2,11,15,38,309,32,30,32,083,26,05,16,226,25,20,14,271,27*74
$GPGSV,3,3,11,24,10,298,16,07,09,097,21,11,03,050,*4F
$GLGSV,3,1,09,75,47,003,38,65,41,244,39,85,40,105,27,66,27,312,27*61
$GLGSV,3,2,09,76,23,297,16,74,21,061,20,86,16,160,20,72,15,195,31*61
$GLGSV,3,3,09,84,24,046,14*51
$BDGSV,2,1,07,212,43,143,31,205,45,140,28,202,29,118,,208,29,057,*67
$BDGSV,2,2,07,214,25,218,,210,22,077,,211,07,188,*63
$GPGSA,A,3,05,07,13,15,17,19,20,24,28,30,,,1.7,0.8,1.5*3F
$GNGSA,A,3,05,07,13,15,17,19,20,24,28,30,,,1.7,0.8,1.5*21
$GNGSA,A,3,65,66,72,75,85,86,,,,,,,1.7,0.8,1.5*21
$QZGSA,A,3,,,,,,,,,,,,,1.7,0.8,1.5*24
$IMGSA,A,3,,,,,,,,,,,,,1.7,0.8,1.5*2B
$BDGSA,A,3,,,,,,,,,,,,,1.7,0.8,1.5*29
$GPRMC,065816.00,A,3205.037977,N,03448.141443,E,000.0,,170616,,,A*7E
$GPGGA,065817.00,3205.037977,N,03448.141443,E,1,16,4.8,68.5,M,19.2,M,,*5E
$GPGSV,3,1,11,13,74,293,28,17,55,123,22,28,50,032,26,19,39,164,25*72
$GPGSV,3,2,11,15,38,309,31,30,32,083,27,05,16,226,25,20,14,271,26*77
$GPGSV,3,3,11,24,10,298,16,07,09,097,21,11,03,050,*4F
$GLGSV,3,1,09,75,47,003,38,65,41,244,39,85,40,105,26,66,27,312,28*6F
$GLGSV,3,2,09,76,23,297,15,74,21,061,20,86,16,160,20,72,15,195,31*62
$GLGSV,3,3,09,84,24,046,15*50
$BDGSV,2,1,07,212,43,143,31,205,45,140,28,202,29,118,,208,29,057,*67
$BDGSV,2,2,07,214,25,218,,210,22,077,,211,07,188,*63
$GPGSA,A,3,05,07,13,15,17,19,20,24,28,30,,,2.1,1.2,1.8*3C
$GNGSA,A,3,05,07,13,15,17,19,20,24,28,30,,,2.1,1.2,1.8*22
$GNGSA,A,3,65,66,72,75,85,86,,,,,,,2.1,1.2,1.8*22
$QZGSA,A,3,,,,,,,,,,,,,2.1,1.2,1.8*27
$IMGSA,A,3,,,,,,,,,,,,,2.1,1.2,1.8*28
$BDGSA,A,3,,,,,,,,,,,,,2.1,1.2,1.8*2A
$GPRMC,065817.00,A,3205.037977,N,03448.141443,E,000.0,,170616,,,A*7F
$GPGGA,065818.00,3205.037977,N,03448.141443,E,1,16,3.2,68.4,M,19.2,M,,*5D
$GPGSV,3,1,11,13,74,293,28,17,55,123,21,28,50,032,26,19,39,164,24*70
$GPGSV,3,2,11,15,38,309,30,30,32,083,27,05,16,226,24,20,14,271,25*74
$GPGSV,3,3,11,24,10,298,16,07,09,097,21,11,03,050,*4F
$GLGSV,3,1,09,75,47,003,38,65,41,244,38,85,40,105,25,66,27,312,30*64
$GLGSV,3,2,09,76,23,297,15,74,21,061,19,86,16,160,20,72,15,195,31*68
$GLGSV,3,3,09,84,24,046,18*5D
$BDGSV,2,1,07,212,43,143,31,205,45,140,28,202,29,118,,208,29,057,*67
$BDGSV,2,2,07,214,25,218,,210,22,077,,211,07,188,*63
$GPGSA,A,3,05,07,13,15,17,19,20,24,28,30,,,2.5,1.3,2.2*30
$GNGSA,A,3,05,07,13,15,17,19,20,24,28,30,,,2.5,1.3,2.2*2E
$GNGSA,A,3,65,66,72,75,85,86,,,,,,,2.5,1.3,2.2*2E
$QZGSA,A,3,,,,,,,,,,,,,2.5,1.3,2.2*2B
$IMGSA,A,3,,,,,,,,,,,,,2.5,1.3,2.2*24
$BDGSA,A,3,,,,,,,,,,,,,2.5,1.3,2.2*26
$GPRMC,065818.00,A,3205.037977,N,03448.141443,E,000.0,,170616,,,A*70
$GPGGA,065819.00,3205.037977,N,03448.141443,E,1,16,2.4,68.2,M,19.2,M,,*5D
$GPGSV,3,1,11,13,74,293,28,17,56,123,21,28,50,032,25,19,39,164,23*77
$GPGSV,3,2,11,15,38,309,29,30,32,083,28,05,16,226,24,20,14,271,25*73
$GPGSV,3,3,11,24,10,298,16,07,09,097,20,11,03,050,*4E
$GLGSV,3,1,09,75,47,003,38,65,41,244,38,85,40,105,25,66,27,312,31*65
$GLGSV,3,2,09,76,23,297,15,74,21,061,19,86,16,160,21,72,15,195,31*69
$GLGSV,3,3,09,84,24,046,20*56
$BDGSV,2,1,07,212,43,143,30,205,45,140,28,202,29,118,,208,29,057,*66
$BDGSV,2,2,07,214,25,218,,210,22,077,,211,07,188,*63
$GPGSA,A,3,05,07,13,15,17,19,20,24,28,30,,,2.1,1.1,1.9*3E
$GNGSA,A,3,05,07,13,15,17,19,20,24,28,30,,,2.1,1.1,1.9*20
$GNGSA,A,3,65,66,72,75,85,86,,,,,,,2.1,1.1,1.9*20
$QZGSA,A,3,,,,,,,,,,,,,2.1,1.1,1.9*25
$IMGSA,A,3,,,,,,,,,,,,,2.1,1.1,1.9*2A
$BDGSA,A,3,,,,,,,,,,,,,2.1,1.1,1.9*28
$GPRMC,065819.00,A,3205.037977,N,03448.141443,E,000.0,,170616,,,A*71
$GPGGA,065820.00,3205.037977,N,03448.141443,E,1,17,2.4,68.1,M,19.2,M,,*55
$GPGSV,3,1,11,13,74,293,28,17,56,123,21,28,50,032,25,19,39,164,23*77
$GPGSV,3,2,11,15,38,309,27,30,32,083,29,05,16,226,24,20,14,271,25*7C
$GPGSV,3,3,11,24,10,298,15,07,09,098,20,11,03,050,*42
$GLGSV,3,1,09,75,47,003,38,65,41,244,38,85,40,105,25,66,27,312,31*65
$GLGSV,3,2,09,76,23,297,14,74,21,061,19,86,16,160,21,72,15,195,31*68
$GLGSV,3,3,09,84,24,046,23*55
$BDGSV,2,1,07,212,43,143,30,205,45,140,28,202,29,118,,208,29,057,*66
$BDGSV,2,2,07,214,24,218,,210,22,077,,211,07,188,*62
$GPGSA,A,3,05,07,13,15,17,19,20,24,28,30,,,2.1,1.2,1.7*33
$GNGSA,A,3,05,07,13,15,17,19,20,24,28,30,,,2.1,1.2,1.7*2D
$GNGSA,A,3,65,66,72,75,76,85,86,,,,,,2.1,1.2,1.7*2C
$QZGSA,A,3,,,,,,,,,,,,,2.1,1.2,1.7*28
$IMGSA,A,3,,,,,,,,,,,,,2.1,1.2,1.7*27
$BDGSA,A,3,,,,,,,,,,,,,2.1,1.2,1.7*25
$GPRMC,065820.00,A,3205.037977,N,03448.141443,E,000.0,,170616,,,A*7B
$GPGGA,065821.00,3205.037977,N,03448.141443,E,1,17,1.2,67.9,M,19.2,M,,*56
$GPGSV,3,1,11,13,74,293,28,17,56,123,21,28,50,032,25,19,39,164,22*76
$GPGSV,3,2,11,15,38,309,26,30,32,083,29,05,16,226,23,20,14,271,26*79
$GPGSV,3,3,11,24,10,298,15,07,09,098,20,11,03,050,*42
$GLGSV,3,1,09,75,47,003,38,65,41,244,38,85,40,105,26,66,27,312,31*66
$GLGSV,3,2,09,76,23,297,14,74,21,061,22,86,16,160,21,72,15,195,31*60
$GLGSV,3,3,09,84,24,046,23*55
$BDGSV,2,1,07,212,43,143,30,205,45,140,28,202,29,118,,208,29,057,*66
$BDGSV,2,2,07,214,24,218,,210,22,077,,211,07,188,*62
$GPGSA,A,3,05,07,13,15,17,19,20,24,28,30,,,2.1,1.2,1.7*33
$GNGSA,A,3,05,07,13,15,17,19,20,24,28,30,,,2.1,1.2,1.7*2D
$GNGSA,A,3,65,66,72,75,76,85,86,,,,,,2.1,1.2,1.7*2C
$QZGSA,A,3,,,,,,,,,,,,,2.1,1.2,1.7*28
$IMGSA,A,3,,,,,,,,,,,,,2.1,1.2,1.7*27
$BDGSA,A,3,,,,,,,,,,,,,2.1,1.2,1.7*25
$GPRMC,065821.00,A,3205.037977,N,03448.141443,E,000.0,,170616,,,A*7A
$GPGGA,065822.00,3205.037977,N,03448.141443,E,1,17,1.2,67.8,M,19.2,M,,*54
$GPGSV,3,1,11,13,74,293,28,17,56,123,21,28,50,032,24,19,39,164,22*77
$GPGSV,3,2,11,15,38,309,25,30,32,083,30,05,16,226,23,20,14,271,28*7C
$GPGSV,3,3,11,24,10,298,15,07,09,098,20,11,03,050,*42
$GLGSV,3,1,09,75,47,003,38,65,41,244,39,85,40,105,26,66,27,312,31*67
$GLGSV,3,2,09,76,23,297,14,74,21,061,23,86,16,160,21,72,15,195,30*60
$GLGSV,3,3,09,84,24,046,23*55
$BDGSV,2,1,07,212,43,143,31,205,45,140,28,202,29,118,,208,29,057,*67
$BDGSV,2,2,07,214,24,218,,210,22,077,,211,07,188,*62
$GPGSA,A,3,05,07,13,15,17,19,20,24,28,30,,,2.3,1.2,1.9*3F
$GNGSA,A,3,05,07,13,15,17,19,20,24,28,30,,,2.3,1.2,1.9*21
$GNGSA,A,3,65,66,72,75,76,85,86,,,,,,2.3,1.2,1.9*20
$QZGSA,A,3,,,,,,,,,,,,,2.3,1.2,1.9*24
$IMGSA,A,3,,,,,,,,,,,,,2.3,1.2,1.9*2B
$BDGSA,A,3,,,,,,,,,,,,,2.3,1.2,1.9*29
$GPRMC,065822.00,A,3205.037977,N,03448.141443,E,000.0,,170616,,,A*79
$GPGGA,065823.00,3205.037977,N,03448.141443,E,1,17,2.4,67.6,M,19.2,M,,*5E
$GPGSV,3,1,11,13,74,293,28,17,56,123,21,28,50,032,24,19,39,164,23*76
$GPGSV,3,2,11,15,38,309,27,30,32,083,30,05,16,226,23,20,14,271,28*7E
$GPGSV,3,3,11,24,10,298,16,07,09,098,20,11,03,050,*41
$GLGSV,3,1,09,75,47,003,38,65,41,244,39,85,40,105,26,66,27,312,31*67
$GLGSV,3,2,09,76,23,297,15,74,21,061,22,86,16,160,21,72,15,195,30*60
$GLGSV,3,3,09,84,24,045,23*56
$BDGSV,2,1,07,212,43,143,31,205,45,140,28,202,29,118,,208,29,057,*67
$BDGSV,2,2,07,214,24,218,,210,22,077,,211,07,188,*62
$GPGSA,A,3,05,07,13,15,17,19,20,24,28,30,,,2.3,1.3,1.9*3E
$GNGSA,A,3,05,07,13,15,17,19,20,24,28,30,,,2.3,1.3,1.9*20
$GNGSA,A,3,65,66,72,75,76,85,86,,,,,,2.3,1.3,1.9*21
$QZGSA,A,3,,,,,,,,,,,,,2.3,1.3,1.9*25
$IMGSA,A,3,,,,,,,,,,,,,2.3,1.3,1.9*2A
$BDGSA,A,3,,,,,,,,,,,,,2.3,1.3,1.9*28
$GPRMC,065823.00,A,3205.037977,N,03448.141443,E,000.0,,170616,,,A*78
$GPGGA,065824.00,3205.037977,N,03448.141443,E,1,17,2.4,67.4,M,19.2,M,,*5B
$GPGSV,3,1,11,13,74,293,28,17,56,123,21,28,50,032,23,19,39,164,24*76
$GPGSV,3,2,11,15,38,309,27,30,32,083,30,05,16,226,22,20,14,271,27*70
