$GPGGA,062218.97,,,,,0,00,999.9,,M,,M,,*67
$GPGSV,3,1,11,28,65,024,,13,59,318,,17,42,143,,30,41,066,*70
$GPGSV,3,2,11,05,27,240,,15,24,315,,19,23,171,,07,18,084,*77
$GPGSV,3,3,11,20,17,287,,11,05,064,,24,00,287,*4C
$GLGSV,3,1,10,65,50,271,,75,47,335,,72,33,201,,74,29,043,*69
$GLGSV,3,2,10,85,27,123,,84,27,066,,66,17,328,,76,15,279,*62
$GLGSV,3,3,10,83,01,021,,86,00,167,*63
$BDGSV,2,1,06,205,45,140,,214,36,230,,212,29,153,,202,29,118,*63
$BDGSV,2,2,06,208,26,064,,210,23,069,*6F
$GPGSA,A,1,,,,,,,,,,,,,140.0,99.0,99.0*35
$GNGSA,A,1,,,,,,,,,,,,,140.0,99.0,99.0*2B
$GNGSA,A,1,,,,,,,,,,,,,140.0,99.0,99.0*2B
$QZGSA,A,1,,,,,,,,,,,,,140.0,99.0,99.0*29
$IMGSA,A,1,,,,,,,,,,,,,140.0,99.0,99.0*26
$BDGSA,A,1,,,,,,,,,,,,,140.0,99.0,99.0*24
$GPRMC,062218.97,V,,,,,,,170616,,,N*7B
$GPGGA,062219.75,,,,,0,00,999.9,,M,,M,,*6A
$GPGSV,3,1,11,15,24,315,35,28,65,024,,13,59,318,,17,42,143,*75
$GPGSV,3,2,11,30,41,066,,05,27,240,,19,23,171,,07,18,084,*74
$GPGSV,3,3,11,20,17,287,,11,05,064,,24,00,287,*4C
$GLGSV,3,1,10,65,50,271,,75,47,335,,72,33,201,,74,29,043,*69
$GLGSV,3,2,10,85,27,123,,84,27,066,,66,17,328,,76,15,279,*62
$GLGSV,3,3,10,83,01,021,,86,00,167,*63
$BDGSV,2,1,06,205,45,140,,214,36,230,,212,29,153,,202,29,118,*63
$BDGSV,2,2,06,208,26,064,,210,23,069,*6F
$GPGSA,A,1,,,,,,,,,,,,,140.0,99.0,99.0*35
$GNGSA,A,1,,,,,,,,,,,,,140.0,99.0,99.0*2B
$GNGSA,A,1,,,,,,,,,,,,,140.0,99.0,99.0*2B
$QZGSA,A,1,,,,,,,,,,,,,140.0,99.0,99.0*29
$IMGSA,A,1,,,,,,,,,,,,,140.0,99.0,99.0*26
$BDGSA,A,1,,,,,,,,,,,,,140.0,99.0,99.0*24
$GPRMC,062219.75,V,,,,,,,170616,,,N*76
$GPGGA,062219.97,,,,,0,00,999.9,,M,,M,,*66
$GPGSV,3,1,11,28,65,024,37,17,42,143,28,15,24,315,35,07,18,084,31*7F
$GPGSV,3,2,11,13,59,318,,30,41,066,,05,27,240,,19,23,171,*72
$GPGSV,3,3,11,20,17,287,,11,05,064,,24,00,287,*4C
$GLGSV,3,1,10,85,27,123,40,65,50,270,,75,47,335,,72,33,201,*6B
$GLGSV,3,2,10,74,29,043,,84,27,066,,66,17,328,,76,15,279,*65
$GLGSV,3,3,10,83,01,021,,86,00,167,*63
$BDGSV,2,1,06,205,45,140,,214,36,230,,202,29,118,,212,29,153,*63
$BDGSV,2,2,06,208,26,064,,210,23,069,*6F
$GPGSA,A,1,,,,,,,,,,,,,140.0,99.0,99.0*35
$GNGSA,A,1,,,,,,,,,,,,,140.0,99.0,99.0*2B
$GNGSA,A,1,,,,,,,,,,,,,140.0,99.0,99.0*2B
$QZGSA,A,1,,,,,,,,,,,,,140.0,99.0,99.0*29
$IMGSA,A,1,,,,,,,,,,,,,140.0,99.0,99.0*26
$BDGSA,A,1,,,,,,,,,,,,,140.0,99.0,99.0*24
$GPRMC,062219.97,V,,,,,,,170616,,,N*7A
$GPGGA,062220.91,3205.024800,N,03448.168659,E,1,07,3.2,62.1,M,19.2,M,,*5D
$GPGSV,3,1,11,28,65,024,38,17,42,143,28,05,27,240,30,15,24,315,36*76
$GPGSV,3,2,11,07,18,084,31,13,59,318,,30,41,066,,19,23,171,*74
$GPGSV,3,3,11,20,17,287,,11,05,064,,24,00,287,*4C
$GLGSV,3,1,10,72,33,201,33,85,27,123,40,65,50,270,,75,47,335,*6B
$GLGSV,3,2,10,74,29,043,,84,27,066,,66,17,328,,76,15,279,*65
$GLGSV,3,3,10,83,01,021,,86,00,167,*63
$BDGSV,2,1,06,205,45,140,,214,36,230,,202,29,118,,212,29,153,*63
$BDGSV,2,2,06,208,26,064,,210,23,069,*6F
$GPGSA,A,3,05,07,15,17,28,,,,,,,,2.3,1.0,2.1*3B
$GNGSA,A,3,05,07,15,17,28,,,,,,,,2.3,1.0,2.1*25
$GNGSA,A,3,72,85,,,,,,,,,,,2.3,1.0,2.1*27
$QZGSA,A,3,,,,,,,,,,,,,2.3,1.0,2.1*2D
$IMGSA,A,3,,,,,,,,,,,,,2.3,1.0,2.1*22
$BDGSA,A,3,,,,,,,,,,,,,2.3,1.0,2.1*20
$GPRMC,062220.91,A,3205.024800,N,03448.168659,E,001.1,186.2,170616,,,A*5C
$GPGGA,062221.91,3205.025224,N,03448.168966,E,1,09,3.2,85.6,M,19.2,M,,*52
$GPGSV,3,1,11,28,65,024,39,17,42,143,28,05,27,240,30,15,24,315,37*76
$GPGSV,3,2,11,19,23,171,24,07,18,084,31,13,59,318,,30,41,066,*72
$GPGSV,3,3,11,20,17,287,,11,05,064,,24,00,287,*4C
$GLGSV,3,1,10,72,33,201,32,85,27,123,40,84,27,066,26,65,50,270,*63
$GLGSV,3,2,10,75,47,335,,74,29,043,,66,17,328,,76,15,279,*68
$GLGSV,3,3,10,83,01,021,,86,00,167,*63
$BDGSV,2,1,06,205,45,140,,214,36,230,,212,29,153,,202,29,118,*63
$BDGSV,2,2,06,208,26,064,,210,23,069,*6F
$GPGSA,A,3,05,07,15,17,19,28,,,,,,,2.2,0.8,2.0*3A
$GNGSA,A,3,05,07,15,17,19,28,,,,,,,2.2,0.8,2.0*24
$GNGSA,A,3,72,84,85,,,,,,,,,,2.2,0.8,2.0*22
$QZGSA,A,3,,,,,,,,,,,,,2.2,0.8,2.0*24
$IMGSA,A,3,,,,,,,,,,,,,2.2,0.8,2.0*2B
$BDGSA,A,3,,,,,,,,,,,,,2.2,0.8,2.0*29
$GPRMC,062221.91,A,3205.025224,N,03448.168966,E,000.7,219.7,170616,,,A*54
$GPGGA,062222.91,3205.033773,N,03448.164578,E,1,11,1.6,85.7,M,19.2,M,,*50
$GPGSV,3,1,11,28,65,024,39,17,42,143,28,05,27,240,32,15,24,315,38*7B
$GPGSV,3,2,11,19,23,171,24,07,18,084,32,20,17,287,19,13,59,318,*76
$GPGSV,3,3,11,30,41,066,,11,05,064,,24,00,287,*43
$GLGSV,3,1,10,65,50,270,30,72,33,201,32,84,27,066,26,85,27,123,39*6E
$GLGSV,3,2,10,66,17,328,26,75,47,335,,74,29,043,,76,15,279,*6C
$GLGSV,3,3,10,83,01,021,,86,00,167,*63
$BDGSV,2,1,06,205,45,140,,214,36,230,,212,29,153,,202,29,118,*63
$BDGSV,2,2,06,208,26,064,,210,23,069,*6F
$GPGSA,A,3,05,07,15,17,19,28,,,,,,,1.9,0.7,1.7*39
$GNGSA,A,3,05,07,15,17,19,28,,,,,,,1.9,0.7,1.7*27
$GNGSA,A,3,65,66,72,84,85,,,,,,,,1.9,0.7,1.7*22
$QZGSA,A,3,,,,,,,,,,,,,1.9,0.7,1.7*27
$IMGSA,A,3,,,,,,,,,,,,,1.9,0.7,1.7*28
$BDGSA,A,3,,,,,,,,,,,,,1.9,0.7,1.7*2A
$GPRMC,062222.91,A,3205.033773,N,03448.164578,E,000.2,025.3,170616,,,A*54
$GPGGA,062223.97,3205.033978,N,03448.164808,E,1,12,3.2,63.6,M,19.2,M,,*54
$GPGSV,3,1,11,28,65,024,39,13,59,318,19,17,42,143,27,05,27,240,32*76
$GPGSV,3,2,11,15,24,315,38,19,23,171,25,07,18,084,33,20,17,287,17*72
$GPGSV,3,3,11,30,41,066,,11,05,064,,24,00,287,*43
$GLGSV,3,1,10,65,50,270,31,72,33,201,32,85,27,123,40,84,27,066,26*61
$GLGSV,3,2,10,66,17,328,25,75,47,335,,74,29,043,,76,15,279,*6F
$GLGSV,3,3,10,83,01,021,,86,00,167,*63
$BDGSV,2,1,06,202,29,118,25,205,45,140,,214,36,230,,212,29,153,*64
$BDGSV,2,2,06,208,26,064,,210,23,069,*6F
$GPGSA,A,3,05,07,13,15,17,19,28,,,,,,1.9,0.9,1.7*35
$GNGSA,A,3,05,07,13,15,17,19,28,,,,,,1.9,0.9,1.7*2B
$GNGSA,A,3,65,66,72,84,85,,,,,,,,1.9,0.9,1.7*2C
$QZGSA,A,3,,,,,,,,,,,,,1.9,0.9,1.7*29
$IMGSA,A,3,,,,,,,,,,,,,1.9,0.9,1.7*26
$BDGSA,A,3,,,,,,,,,,,,,1.9,0.9,1.7*24
$GPRMC,062223.97,A,3205.033978,N,03448.164808,E,,,170616,,,A*5A
$GPGGA,062224.97,3205.035329,N,03448.165138,E,1,13,2.4,47.5,M,19.2,M,,*53
$GPGSV,3,1,11,28,65,024,39,13,59,318,20,17,42,143,28,05,27,240,32*73
$GPGSV,3,2,11,15,24,315,38,19,23,171,25,07,18,084,33,20,17,287,16*73
$GPGSV,3,3,11,30,41,066,,11,05,064,,24,00,287,*43
$GLGSV,3,1,10,65,50,270,31,75,47,335,27,72,33,201,32,84,27,066,25*6F
$GLGSV,3,2,10,85,27,123,41,66,17,328,25,74,29,043,,76,15,279,*66
$GLGSV,3,3,10,83,01,021,,86,00,167,*63
$BDGSV,2,1,06,202,29,118,24,205,45,140,,214,36,230,,212,29,153,*65
$BDGSV,2,2,06,208,26,064,,210,23,069,*6F
$GPGSA,A,3,05,07,13,15,17,19,28,,,,,,2.0,1.0,1.8*38
$GNGSA,A,3,05,07,13,15,17,19,28,,,,,,2.0,1.0,1.8*26
$GNGSA,A,3,65,66,72,75,84,85,,,,,,,2.0,1.0,1.8*23
$QZGSA,A,3,,,,,,,,,,,,,2.0,1.0,1.8*24
$IMGSA,A,3,,,,,,,,,,,,,2.0,1.0,1.8*2B
$BDGSA,A,3,,,,,,,,,,,,,2.0,1.0,1.8*29
$GPRMC,062224.97,A,3205.035329,N,03448.165138,E,000.0,,170616,,,A*70
$GPGGA,062226.00,3205.036794,N,03448.165179,E,1,16,2.4,39.5,M,19.2,M,,*57
$GPGSV,3,1,11,28,65,024,38,13,59,318,20,17,42,143,28,30,41,066,16*74
$GPGSV,3,2,11,05,27,240,32,15,24,315,38,19,23,171,25,07,18,084,33*7A
$GPGSV,3,3,11,20,17,287,16,11,05,064,,24,00,287,*4B
$GLGSV,3,1,10,65,50,270,31,75,47,335,27,72,33,201,32,74,29,043,27*6B
$GLGSV,3,2,10,85,27,123,41,84,27,066,24,66,17,328,25,76,15,279,20*64
$GLGSV,3,3,10,83,01,021,,86,00,167,*63
$BDGSV,2,1,06,202,29,118,25,205,45,140,,214,36,230,,212,29,153,*64
$BDGSV,2,2,06,208,26,064,,210,23,069,*6F
$GPGSA,A,3,05,07,13,15,17,19,20,28,30,,,,2.1,1.0,1.8*38
$GNGSA,A,3,05,07,13,15,17,19,20,28,30,,,,2.1,1.0,1.8*26
$GNGSA,A,3,65,66,72,75,76,84,85,,,,,,2.1,1.0,1.8*23
$QZGSA,A,3,,,,,,,,,,,,,2.1,1.0,1.8*25
$IMGSA,A,3,,,,,,,,,,,,,2.1,1.0,1.8*2A
$BDGSA,A,3,,,,,,,,,,,,,2.1,1.0,1.8*28
$GPRMC,062226.00,A,3205.036794,N,03448.165179,E,000.0,,170616,,,A*78
$GPGGA,062227.00,3205.036812,N,03448.165176,E,1,16,2.4,33.7,M,19.2,M,,*50
$GPGSV,3,1,11,28,65,024,38,13,59,318,20,17,42,143,28,30,41,066,21*70
$GPGSV,3,2,11,05,27,240,32,15,24,315,38,19,23,171,24,07,18,084,33*7B
$GPGSV,3,3,11,20,17,287,15,11,05,064,,24,00,287,*48
$GLGSV,3,1,10,65,50,270,31,75,47,335,28,72,33,201,32,74,29,043,27*64
$GLGSV,3,2,10,85,27,123,42,84,27,066,23,66,17,328,25,76,15,279,20*60
$GLGSV,3,3,10,83,01,021,,86,00,167,*63
$BDGSV,2,1,06,202,29,118,26,205,45,140,,214,36,230,,212,29,153,*67
$BDGSV,2,2,06,208,26,064,,210,23,069,*6F
$GPGSA,A,3,05,07,13,15,17,19,20,28,30,,,,2.1,1.0,1.8*38
$GNGSA,A,3,05,07,13,15,17,19,20,28,30,,,,2.1,1.0,1.8*26
$GNGSA,A,3,65,66,72,75,76,84,85,,,,,,2.1,1.0,1.8*23
$QZGSA,A,3,,,,,,,,,,,,,2.1,1.0,1.8*25
$IMGSA,A,3,,,,,,,,,,,,,2.1,1.0,1.8*2A
$BDGSA,A,3,,,,,,,,,,,,,2.1,1.0,1.8*28
$GPRMC,062227.00,A,3205.036812,N,03448.165176,E,000.0,,170616,,,A*77
$GPGGA,062228.00,3205.036812,N,03448.165176,E,1,16,2.4,29.7,M,19.2,M,,*54
$GPGSV,3,1,11,28,65,024,38,13,59,318,20,17,42,143,28,30,41,066,21*70
$GPGSV,3,2,11,05,27,240,32,15,24,315,38,19,23,171,23,07,18,084,33*7C
$GPGSV,3,3,11,20,17,287,15,11,05,064,,24,00,287,*48
$GLGSV,3,1,10,65,50,270,31,75,47,335,28,72,33,201,32,74,29,043,27*64
$GLGSV,3,2,10,85,27,123,41,84,27,066,22,66,17,328,25,76,15,279,20*62
$GLGSV,3,3,10,83,01,021,,86,00,167,*63
$BDGSV,2,1,06,214,36,230,32,202,29,118,26,205,45,140,,212,29,153,*66
$BDGSV,2,2,06,208,26,064,,210,23,069,*6F
$GPGSA,A,3,05,07,13,15,17,19,20,28,30,,,,2.2,1.2,1.8*39
$GNGSA,A,3,05,07,13,15,17,19,20,28,30,,,,2.2,1.2,1.8*27
$GNGSA,A,3,65,66,72,75,76,84,85,,,,,,2.2,1.2,1.8*22
$QZGSA,A,3,,,,,,,,,,,,,2.2,1.2,1.8*24
$IMGSA,A,3,,,,,,,,,,,,,2.2,1.2,1.8*2B
$BDGSA,A,3,,,,,,,,,,,,,2.2,1.2,1.8*29
$GPRMC,062228.00,A,3205.036812,N,03448.165176,E,000.0,,170616,,,A*78
$GPGGA,062229.00,3205.036812,N,03448.165176,E,1,16,2.4,25.6,M,19.2,M,,*58
$GPGSV,3,1,11,28,65,024,39,13,59,318,24,17,42,143,28,30,41,066,22*76
$GPGSV,3,2,11,05,27,240,32,15,24,315,38,19,23,171,23,07,18,084,33*7C
$GPGSV,3,3,11,20,17,287,15,11,05,064,,24,00,287,*48
$GLGSV,3,1,10,65,50,270,31,75,47,335,27,72,33,201,31,74,29,043,28*67
$GLGSV,3,2,10,85,27,123,41,84,27,066,21,66,17,328,25,76,15,279,20*61
$GLGSV,3,3,10,83,01,021,,86,00,167,*63
$BDGSV,2,1,06,205,45,140,28,214,36,230,32,202,29,118,28,212,29,153,*62
$BDGSV,2,2,06,208,26,064,,210,23,069,*6F
$GPGSA,A,3,05,07,13,15,17,19,20,28,30,,,,2.2,1.2,1.8*39
$GNGSA,A,3,05,07,13,15,17,19,20,28,30,,,,2.2,1.2,1.8*27
$GNGSA,A,3,65,66,72,75,76,84,85,,,,,,2.2,1.2,1.8*22
$QZGSA,A,3,,,,,,,,,,,,,2.2,1.2,1.8*24
$IMGSA,A,3,,,,,,,,,,,,,2.2,1.2,1.8*2B
$BDGSA,A,3,,,,,,,,,,,,,2.2,1.2,1.8*29
$GPRMC,062229.00,A,3205.036812,N,03448.165176,E,000.0,,170616,,,A*79
$GPGGA,062230.00,3205.036812,N,03448.165176,E,1,16,1.6,19.2,M,19.2,M,,*5A
$GPGSV,3,1,11,28,65,024,39,13,59,318,27,17,42,143,28,30,41,066,22*75
$GPGSV,3,2,11,05,27,240,32,15,24,315,38,19,23,171,23,07,18,084,33*7C
$GPGSV,3,3,11,20,17,287,15,11,05,064,,24,00,287,*48
$GLGSV,3,1,10,65,50,270,33,75,47,335,27,72,33,201,31,74,29,043,28*65
$GLGSV,3,2,10,85,27,123,41,84,27,066,21,66,17,328,25,76,15,279,20*61
$GLGSV,3,3,10,83,01,021,,86,00,167,*63
$BDGSV,2,1,06,205,45,140,27,214,36,230,32,202,29,118,28,212,29,153,*6D
$BDGSV,2,2,06,208,26,064,,210,23,069,*6F
$GPGSA,A,3,05,07,13,15,17,19,20,28,30,,,,2.3,1.4,1.9*3F
$GNGSA,A,3,05,07,13,15,17,19,20,28,30,,,,2.3,1.4,1.9*21
$GNGSA,A,3,65,66,72,75,76,84,85,,,,,,2.3,1.4,1.9*24
$QZGSA,A,3,,,,,,,,,,,,,2.3,1.4,1.9*22
$IMGSA,A,3,,,,,,,,,,,,,2.3,1.4,1.9*2D
$BDGSA,A,3,,,,,,,,,,,,,2.3,1.4,1.9*2F
$GPRMC,062230.00,A,3205.036812,N,03448.165176,E,000.0,,170616,,,A*71
$GPGGA,062231.00,3205.036812,N,03448.165176,E,1,16,1.6,14.3,M,19.2,M,,*57
$GPGSV,3,1,11,28,65,024,38,13,59,318,27,17,42,143,27,30,41,066,21*78
$GPGSV,3,2,11,05,27,240,32,15,24,315,38,19,23,171,23,07,18,084,33*7C
$GPGSV,3,3,11,20,17,287,15,11,05,064,,24,00,287,*48
$GLGSV,3,1,10,65,50,270,37,75,47,335,27,72,33,201,30,74,29,043,28*60
$GLGSV,3,2,10,85,27,123,41,84,27,066,21,66,17,328,25,76,15,279,20*61
$GLGSV,3,3,10,83,01,021,,86,00,167,*63
$BDGSV,2,1,06,205,45,140,27,214,36,230,31,202,29,118,28,212,29,153,*6E
$BDGSV,2,2,06,208,26,064,,210,23,069,*6F
$GPGSA,A,3,05,07,13,15,17,19,20,28,30,,,,2.9,1.8,2.2*31
$GNGSA,A,3,05,07,13,15,17,19,20,28,30,,,,2.9,1.8,2.2*2F
$GNGSA,A,3,65,66,72,75,76,84,85,,,,,,2.9,1.8,2.2*2A
$QZGSA,A,3,,,,,,,,,,,,,2.9,1.8,2.2*2C
$IMGSA,A,3,,,,,,,,,,,,,2.9,1.8,2.2*23
$BDGSA,A,3,,,,,,,,,,,,,2.9,1.8,2.2*21
$GPRMC,062231.00,A,3205.036812,N,03448.165176,E,000.0,,170616,,,A*70
$GPGGA,062232.00,3205.036812,N,03448.165176,E,1,16,1.2,8.5,M,19.2,M,,*6B
$GPGSV,3,1,11,28,65,024,38,13,59,318,26,17,42,143,26,30,41,066,22*7B
$GPGSV,3,2,11,05,27,240,32,15,24,315,37,19,23,171,23,07,18,084,32*72
$GPGSV,3,3,11,20,17,287,15,11,05,064,,24,00,287,*48
$GLGSV,3,1,10,65,50,270,37,75,47,335,26,72,33,201,30,74,29,043,27*6E
$GLGSV,3,2,10,85,27,123,41,84,27,066,21,66,17,328,25,76,15,279,20*61
$GLGSV,3,3,10,83,01,021,,86,00,167,*63
$BDGSV,2,1,06,205,45,140,27,214,36,230,32,202,29,118,28,212,29,153,*6D
$BDGSV,2,2,06,208,26,064,,210,23,069,*6F
$GPGSA,A,3,05,07,13,15,17,19,20,28,30,,,,3.2,2.1,2.4*37
$GNGSA,A,3,05,07,13,15,17,19,20,28,30,,,,3.2,2.1,2.4*29
$GNGSA,A,3,65,66,72,75,76,84,85,,,,,,3.2,2.1,2.4*2C
$QZGSA,A,3,,,,,,,,,,,,,3.2,2.1,2.4*2A
$IMGSA,A,3,,,,,,,,,,,,,3.2,2.1,2.4*25
$BDGSA,A,3,,,,,,,,,,,,,3.2,2.1,2.4*27
$GPRMC,062232.00,A,3205.036812,N,03448.165176,E,000.0,,170616,,,A*73
$GPGGA,062233.00,3205.036812,N,03448.165176,E,1,16,1.2,4.1,M,19.2,M,,*62
$GPGSV,3,1,11,28,65,024,37,13,59,318,26,17,42,143,26,30,41,066,22*74
$GPGSV,3,2,11,05,27,240,32,15,24,315,37,19,23,171,26,07,18,084,32*77
$GPGSV,3,3,11,20,17,287,14,11,05,064,,24,00,287,*49
$GLGSV,3,1,10,65,50,270,37,75,47,335,26,72,33,201,29,74,29,043,27*66
$GLGSV,3,2,10,85,27,123,41,84,27,066,21,66,17,327,25,76,15,279,20*6E
$GLGSV,3,3,10,83,01,020,,86,00,167,*62
$BDGSV,2,1,06,205,45,140,27,214,36,230,32,202,29,118,28,212,29,153,*6D
$BDGSV,2,2,06,208,26,064,,210,23,069,*6F
$GPGSA,A,3,05,07,13,15,17,19,20,28,30,,,,3.2,2.1,2.4*37
$GNGSA,A,3,05,07,13,15,17,19,20,28,30,,,,3.2,2.1,2.4*29
$GNGSA,A,3,65,66,72,75,76,84,85,,,,,,3.2,2.1,2.4*2C
$QZGSA,A,3,,,,,,,,,,,,,3.2,2.1,2.4*2A
$IMGSA,A,3,,,,,,,,,,,,,3.2,2.1,2.4*25
$BDGSA,A,3,,,,,,,,,,,,,3.2,2.1,2.4*27
$GPRMC,062233.00,A,3205.036812,N,03448.165176,E,000.0,,170616,,,A*72
$GPGGA,062234.00,3205.036812,N,03448.165176,E,1,16,1.2,7.5,M,19.2,M,,*62
$GPGSV,3,1,11,28,65,024,36,13,59,318,26,17,42,143,25,30,41,066,23*77
$GPGSV,3,2,11,05,27,240,31,15,24,315,36,19,23,171,25,07,18,084,36*72
$GPGSV,3,3,11,20,17,287,21,11,05,064,,24,00,287,*4F
$GLGSV,3,1,10,65,50,270,37,75,47,335,28,72,33,201,32,74,29,043,27*62
$GLGSV,3,2,10,85,27,123,40,84,27,066,21,66,17,327,25,76,15,279,19*65
$GLGSV,3,3,10,83,01,020,,86,00,167,*62
$BDGSV,2,1,06,205,45,140,26,214,36,230,32,202,29,118,28,212,29,153,*6C
$BDGSV,2,2,06,208,26,064,,210,23,069,*6F
$GPGSA,A,3,05,07,13,15,17,19,20,28,30,,,,2.9,1.8,2.2*31
$GNGSA,A,3,05,07,13,15,17,19,20,28,30,,,,2.9,1.8,2.2*2F
$GNGSA,A,3,65,66,72,75,76,84,85,,,,,,2.9,1.8,2.2*2A
$QZGSA,A,3,,,,,,,,,,,,,2.9,1.8,2.2*2C
$IMGSA,A,3,,,,,,,,,,,,,2.9,1.8,2.2*23
$BDGSA,A,3,,,,,,,,,,,,,2.9,1.8,2.2*21
$GPRMC,062234.00,A,3205.036812,N,03448.165176,E,000.0,,170616,,,A*75
$GPGGA,062235.00,3205.043733,N,03448.156878,E,1,16,4.8,9.0,M,19.2,M,,*6E
$GPGSV,3,1,11,28,65,024,38,13,59,318,26,17,42,143,25,30,41,066,28*72
$GPGSV,3,2,11,05,27,239,32,15,24,315,36,19,23,171,25,07,18,084,35*7C
$GPGSV,3,3,11,20,17,287,24,11,05,064,,24,00,287,*4A
$GLGSV,3,1,10,65,50,270,37,75,47,335,27,72,33,201,31,74,29,043,28*61
$GLGSV,3,2,10,85,27,123,40,84,27,066,21,66,17,327,27,76,15,279,19*67
$GLGSV,3,3,10,83,01,020,,86,00,167,*62
$BDGSV,2,1,06,205,45,140,26,214,36,230,32,202,29,118,27,212,29,153,*63
$BDGSV,2,2,06,208,26,064,,210,23,069,*6F
$GPGSA,A,3,05,07,13,15,17,19,20,28,30,,,,2.2,1.2,1.8*39
$GNGSA,A,3,05,07,13,15,17,19,20,28,30,,,,2.2,1.2,1.8*27
$GNGSA,A,3,65,66,72,75,76,84,85,,,,,,2.2,1.2,1.8*22
$QZGSA,A,3,,,,,,,,,,,,,2.2,1.2,1.8*24
$IMGSA,A,3,,,,,,,,,,,,,2.2,1.2,1.8*2B
$BDGSA,A,3,,,,,,,,,,,,,2.2,1.2,1.8*29
$GPRMC,062235.00,A,3205.043733,N,03448.156878,E,000.0,,170616,,,A*7D
$GPGGA,062236.00,3205.043985,N,03448.157063,E,1,16,4.8,15.9,M,19.2,M,,*59
$GPGSV,3,1,11,28,65,024,38,13,59,318,26,17,42,143,25,30,41,066,27*7D
$GPGSV,3,2,11,05,27,239,32,15,24,315,35,19,23,171,25,07,18,084,34*7E
$GPGSV,3,3,11,20,17,287,24,11,05,064,,24,00,287,*4A
$GLGSV,3,1,10,65,50,270,36,75,47,335,27,72,33,201,31,74,29,043,28*60
$GLGSV,3,2,10,85,27,123,39,84,27,066,20,66,17,327,26,76,15,279,19*69
$GLGSV,3,3,10,83,01,020,,86,00,167,*62
$BDGSV,2,1,06,205,45,140,25,214,36,230,31,202,29,118,26,212,30,153,*6A
$BDGSV,2,2,06,208,26,064,,210,23,069,*6F
$GPGSA,A,3,05,07,13,15,17,19,20,28,30,,,,2.6,1.2,2.3*35
$GNGSA,A,3,05,07,13,15,17,19,20,28,30,,,,2.6,1.2,2.3*2B
$GNGSA,A,3,65,66,72,75,76,84,85,,,,,,2.6,1.2,2.3*2E
$QZGSA,A,3,,,,,,,,,,,,,2.6,1.2,2.3*28
$IMGSA,A,3,,,,,,,,,,,,,2.6,1.2,2.3*27
$BDGSA,A,3,,,,,,,,,,,,,2.6,1.2,2.3*25
$GPRMC,062236.00,A,3205.043985,N,03448.157063,E,000.0,,170616,,,A*7E
$GPGGA,062237.00,3205.044680,N,03448.158319,E,1,16,4.8,20.6,M,19.2,M,,*5D
$GPGSV,3,1,11,28,65,024,38,13,59,318,25,17,42,143,24,30,41,066,27*7F
$GPGSV,3,2,11,05,27,239,31,15,24,315,34,19,23,171,24,07,18,084,33*7A
$GPGSV,3,3,11,20,17,287,23,11,05,064,,24,00,287,*4D
$GLGSV,3,1,10,65,50,270,35,75,47,335,27,72,33,201,30,74,29,043,27*6D
$GLGSV,3,2,10,85,27,123,38,84,27,066,20,66,17,327,26,76,15,279,18*69
$GLGSV,3,3,10,83,01,020,,86,00,167,*62
$BDGSV,2,1,06,205,45,140,25,214,36,230,31,202,29,118,25,212,30,153,*69
$BDGSV,2,2,06,208,26,064,,210,23,069,*6F
$GPGSA,A,3,05,07,13,15,17,19,20,28,30,,,,2.6,1.2,2.3*35
$GNGSA,A,3,05,07,13,15,17,19,20,28,30,,,,2.6,1.2,2.3*2B
$GNGSA,A,3,65,66,72,75,76,84,85,,,,,,2.6,1.2,2.3*2E
$QZGSA,A,3,,,,,,,,,,,,,2.6,1.2,2.3*28
$IMGSA,A,3,,,,,,,,,,,,,2.6,1.2,2.3*27
$BDGSA,A,3,,,,,,,,,,,,,2.6,1.2,2.3*25
$GPRMC,062237.00,A,3205.044680,N,03448.158319,E,000.0,,170616,,,A*73
$GPGGA,062238.00,3205.044594,N,03448.158389,E,1,16,3.2,24.2,M,19.2,M,,*50
$GPGSV,3,1,11,28,65,024,38,13,59,318,25,17,42,143,30,30,41,066,27*7A
$GPGSV,3,2,11,05,27,239,31,15,24,315,34,19,23,171,24,07,18,084,32*7B
$GPGSV,3,3,11,20,17,287,23,11,05,064,,24,00,287,*4D
$GLGSV,3,1,10,65,50,270,35,75,47,335,35,72,33,201,29,74,29,043,29*68
$GLGSV,3,2,10,85,27,123,37,84,27,066,19,66,17,327,25,76,15,279,18*6F
$GLGSV,3,3,10,83,01,020,,86,00,167,*62
$BDGSV,2,1,06,205,45,140,30,214,36,230,31,202,29,118,24,212,30,153,*6C
$BDGSV,2,2,06,208,26,064,,210,23,069,*6F
$GPGSA,A,3,05,07,13,15,17,19,20,28,30,,,,2.5,1.2,2.2*37
$GNGSA,A,3,05,07,13,15,17,19,20,28,30,,,,2.5,1.2,2.2*29
$GNGSA,A,3,65,66,72,75,76,84,85,,,,,,2.5,1.2,2.2*2C
$QZGSA,A,3,,,,,,,,,,,,,2.5,1.2,2.2*2A
$IMGSA,A,3,,,,,,,,,,,,,2.5,1.2,2.2*25
$BDGSA,A,3,,,,,,,,,,,,,2.5,1.2,2.2*27
$GPRMC,062238.00,A,3205.044594,N,03448.158389,E,000.0,,170616,,,A*73
$GPGGA,062239.00,3205.033139,N,03448.164030,E,1,16,2.4,26.9,M,19.2,M,,*52
$GPGSV,3,1,11,28,65,024,37,13,59,318,29,17,42,143,37,30,41,066,33*7B
$GPGSV,3,2,11,05,27,239,33,15,24,315,34,19,23,171,23,07,18,084,31*7D
$GPGSV,3,3,11,20,17,287,26,11,05,064,,24,00,287,*48
$GLGSV,3,1,10,65,50,270,35,75,47,335,40,72,33,201,29,74,29,043,30*62
$GLGSV,3,2,10,85,27,123,37,84,27,066,19,66,17,327,25,76,15,279,17*60
$GLGSV,3,3,10,83,01,020,,86,00,167,*62
$BDGSV,2,1,06,205,45,140,32,214,36,230,31,202,29,118,23,212,30,153,*69
$BDGSV,2,2,06,208,26,064,,210,23,069,*6F
$GPGSA,A,3,05,07,13,15,17,19,20,28,30,,,,2.7,1.4,2.3*32
$GNGSA,A,3,05,07,13,15,17,19,20,28,30,,,,2.7,1.4,2.3*2C
$GNGSA,A,3,65,66,72,75,76,84,85,,,,,,2.7,1.4,2.3*29
$QZGSA,A,3,,,,,,,,,,,,,2.7,1.4,2.3*2F
$IMGSA,A,3,,,,,,,,,,,,,2.7,1.4,2.3*20
$BDGSA,A,3,,,,,,,,,,,,,2.7,1.4,2.3*22
$GPRMC,062239.00,A,3205.033139,N,03448.164030,E,000.0,,170616,,,A*7F
$GPGGA,062240.00,3205.030766,N,03448.164015,E,1,16,1.6,28.6,M,19.2,M,,*54
$GPGSV,3,1,11,28,65,024,37,13,59,318,28,17,42,143,36,30,41,066,32*7A
$GPGSV,3,2,11,05,27,239,33,15,24,315,33,19,23,171,23,07,18,084,30*7B
$GPGSV,3,3,11,20,17,287,26,11,05,064,,24,00,287,*48
$GLGSV,3,1,10,65,50,270,34,75,47,335,40,72,33,201,29,74,29,043,32*61
$GLGSV,3,2,10,85,27,123,36,84,27,066,19,66,17,327,24,76,15,279,17*60
$GLGSV,3,3,10,83,01,020,,86,00,167,*62
$BDGSV,2,1,06,205,45,140,32,214,36,230,30,202,29,118,23,212,30,153,*68
$BDGSV,2,2,06,208,26,064,,210,23,069,*6F
$GPGSA,A,3,05,07,13,15,17,19,20,28,30,,,,2.7,1.4,2.3*32
$GNGSA,A,3,05,07,13,15,17,19,20,28,30,,,,2.7,1.4,2.3*2C
$GNGSA,A,3,65,66,72,75,76,84,85,,,,,,2.7,1.4,2.3*29
$QZGSA,A,3,,,,,,,,,,,,,2.7,1.4,2.3*2F
$IMGSA,A,3,,,,,,,,,,,,,2.7,1.4,2.3*20
$BDGSA,A,3,,,,,,,,,,,,,2.7,1.4,2.3*22
$GPRMC,062240.00,A,3205.030766,N,03448.164015,E,000.0,,170616,,,A*79
$GPGGA,062241.00,3205.028853,N,03448.162544,E,1,16,0.8,28.7,M,19.2,M,,*5C
$GPGSV,3,1,11,28,65,024,37,13,59,318,30,17,42,143,37,30,41,066,32*72
$GPGSV,3,2,11,05,27,239,33,15,24,315,33,19,23,171,23,07,18,084,29*73
$GPGSV,3,3,11,20,17,287,26,11,05,064,,24,00,287,*48
$GLGSV,3,1,10,65,50,270,34,75,47,335,39,72,33,201,28,74,29,043,35*69
$GLGSV,3,2,10,85,27,123,37,84,27,066,19,66,17,327,24,76,15,279,16*60
$GLGSV,3,3,10,83,01,020,,86,00,167,*62
$BDGSV,2,1,06,205,45,140,31,214,36,230,30,202,29,118,22,212,30,153,*6A
$BDGSV,2,2,06,208,26,064,,210,23,069,*6F
$GPGSA,A,3,05,07,13,15,17,19,20,28,30,,,,2.7,1.4,2.3*32
$GNGSA,A,3,05,07,13,15,17,19,20,28,30,,,,2.7,1.4,2.3*2C
$GNGSA,A,3,65,66,72,75,76,84,85,,,,,,2.7,1.4,2.3*29
$QZGSA,A,3,,,,,,,,,,,,,2.7,1.4,2.3*2F
$IMGSA,A,3,,,,,,,,,,,,,2.7,1.4,2.3*20
$BDGSA,A,3,,,,,,,,,,,,,2.7,1.4,2.3*22
$GPRMC,062241.00,A,3205.028853,N,03448.162544,E,000.0,,170616,,,A*7F
$GPGGA,062242.00,3205.027138,N,03448.162294,E,1,16,1.2,28.7,M,19.2,M,,*55
$GPGSV,3,1,11,28,65,024,36,13,59,318,30,17,42,142,38,30,41,066,32*7D
$GPGSV,3,2,11,05,27,239,33,15,24,315,33,19,23,171,22,07,18,084,29*72
$GPGSV,3,3,11,20,17,287,25,11,05,064,,24,00,287,*4B
$GLGSV,3,1,10,65,50,270,34,75,47,335,39,72,33,201,28,74,29,043,37*6B
$GLGSV,3,2,10,85,27,123,37,84,27,066,19,66,17,327,28,76,15,279,16*6C
$GLGSV,3,3,10,83,01,020,,86,00,167,*62
$BDGSV,2,1,06,205,45,140,31,214,36,230,30,202,29,118,21,212,30,153,*69
$BDGSV,2,2,06,208,26,064,,210,23,069,*6F
$GPGSA,A,3,05,07,13,15,17,19,20,28,30,,,,1.9,1.1,1.6*3C
$GNGSA,A,3,05,07,13,15,17,19,20,28,30,,,,1.9,1.1,1.6*22
$GNGSA,A,3,65,66,72,75,76,84,85,,,,,,1.9,1.1,1.6*27
$QZGSA,A,3,,,,,,,,,,,,,1.9,1.1,1.6*21
$IMGSA,A,3,,,,,,,,,,,,,1.9,1.1,1.6*2E
$BDGSA,A,3,,,,,,,,,,,,,1.9,1.1,1.6*2C
$GPRMC,062242.00,A,3205.027138,N,03448.162294,E,000.0,,170616,,,A*7D
$GPGGA,062243.00,3205.024875,N,03448.164144,E,1,16,1.2,26.9,M,19.2,M,,*5F
$GPGSV,3,1,11,28,65,024,35,13,59,318,34,17,42,142,37,30,41,066,31*76
$GPGSV,3,2,11,05,27,239,33,15,24,315,33,19,23,171,22,07,18,084,28*73
$GPGSV,3,3,11,20,17,287,25,11,05,064,,24,00,287,*4B
$GLGSV,3,1,10,65,50,270,34,75,47,335,39,72,33,201,28,74,29,043,37*6B
$GLGSV,3,2,10,85,27,123,36,84,27,066,18,66,17,327,30,76,15,279,16*65
$GLGSV,3,3,10,83,01,020,,86,00,167,*62
$BDGSV,2,1,06,205,45,140,31,214,36,230,29,202,29,118,20,212,30,153,*60
$BDGSV,2,2,06,208,26,064,,210,23,069,*6F
$GPGSA,A,3,05,07,13,15,17,19,20,28,30,,,,1.8,1.1,1.4*3F
$GNGSA,A,3,05,07,13,15,17,19,20,28,30,,,,1.8,1.1,1.4*21
$GNGSA,A,3,65,66,72,75,76,84,85,,,,,,1.8,1.1,1.4*24
$QZGSA,A,3,,,,,,,,,,,,,1.8,1.1,1.4*22
$IMGSA,A,3,,,,,,,,,,,,,1.8,1.1,1.4*2D
$BDGSA,A,3,,,,,,,,,,,,,1.8,1.1,1.4*2F
$GPRMC,062243.00,A,3205.024875,N,03448.164144,E,000.0,,170616,,,A*77
$GPGGA,062244.00,3205.024487,N,03448.164850,E,1,16,1.2,24.5,M,19.2,M,,*5B
$GPGSV,3,1,11,28,65,024,35,13,59,318,37,17,42,142,37,30,41,066,31*75
$GPGSV,3,2,11,05,27,239,33,15,24,315,33,19,23,171,22,07,18,084,27*7C
$GPGSV,3,3,11,20,17,287,25,11,05,064,,24,00,287,*4B
$GLGSV,3,1,10,65,50,270,35,75,47,335,39,72,33,201,28,74,29,043,36*6B
$GLGSV,3,2,10,85,27,123,36,84,27,066,18,66,17,327,32,76,15,279,15*64
$GLGSV,3,3,10,83,01,020,,86,00,167,*62
$BDGSV,2,1,06,205,45,140,31,214,36,230,29,212,30,153,31,202,29,118,18*69
$BDGSV,2,2,06,208,26,064,,210,23,069,*6F
$GPGSA,A,3,05,07,13,15,17,19,20,28,30,,,,2.2,1.6,1.6*33
$GNGSA,A,3,05,07,13,15,17,19,20,28,30,,,,2.2,1.6,1.6*2D
$GNGSA,A,3,65,66,72,75,76,84,85,,,,,,2.2,1.6,1.6*28
$QZGSA,A,3,,,,,,,,,,,,,2.2,1.6,1.6*2E
$IMGSA,A,3,,,,,,,,,,,,,2.2,1.6,1.6*21
$BDGSA,A,3,,,,,,,,,,,,,2.2,1.6,1.6*23
$GPRMC,062244.00,A,3205.024487,N,03448.164850,E,000.0,,170616,,,A*7D
$GPGGA,062245.00,3205.024614,N,03448.164854,E,1,16,0.8,23.4,M,19.2,M,,*5B
$GPGSV,3,1,11,28,65,024,34,13,59,318,36,17,42,142,37,30,41,066,30*74
$GPGSV,3,2,11,05,27,239,35,15,24,315,32,19,23,171,22,07,18,084,27*7B
$GPGSV,3,3,11,20,17,287,25,11,05,064,,24,00,287,*4B
$GLGSV,3,1,10,65,50,270,37,75,47,335,39,72,33,201,28,74,29,043,36*69
$GLGSV,3,2,10,85,27,123,37,84,27,066,18,66,17,327,32,76,15,279,15*65
$GLGSV,3,3,10,83,01,020,,86,00,167,*62
$BDGSV,2,1,06,205,45,140,30,214,36,230,28,212,30,153,30,202,29,118,14*64
$BDGSV,2,2,06,208,26,064,,210,23,069,*6F
$GPGSA,A,3,05,07,13,15,17,19,20,28,30,,,,1.9,1.1,1.5*3F
$GNGSA,A,3,05,07,13,15,17,19,20,28,30,,,,1.9,1.1,1.5*21
$GNGSA,A,3,65,66,72,75,76,84,85,,,,,,1.9,1.1,1.5*24
$QZGSA,A,3,,,,,,,,,,,,,1.9,1.1,1.5*22
$IMGSA,A,3,,,,,,,,,,,,,1.9,1.1,1.5*2D
$BDGSA,A,3,,,,,,,,,,,,,1.9,1.1,1.5*2F
$GPRMC,062245.00,A,3205.024614,N,03448.164854,E,000.0,,170616,,,A*70
$GPGGA,062246.00,3205.025480,N,03448.164459,E,1,16,1.2,23.2,M,19.2,M,,*5A
$GPGSV,3,1,11,28,65,024,33,13,59,318,36,17,42,142,36,30,41,066,30*72
$GPGSV,3,2,11,05,27,239,36,15,25,315,33,19,23,171,22,07,18,084,30*7E
$GPGSV,3,3,11,20,17,287,24,11,05,064,,24,00,287,*4A
$GLGSV,3,1,10,65,50,270,38,75,47,335,39,72,33,201,28,74,29,043,36*66
$GLGSV,3,2,10,85,27,123,37,84,27,066,18,66,17,327,32,76,15,279,15*65
$GLGSV,3,3,10,83,01,020,,86,00,167,*62
$BDGSV,2,1,06,205,45,140,29,214,36,230,30,212,30,153,30,202,29,118,10*61
$BDGSV,2,2,06,208,26,064,,210,23,069,*6F
$GPGSA,A,3,05,07,13,15,17,19,20,28,30,,,,1.6,0.9,1.3*3F
$GNGSA,A,3,05,07,13,15,17,19,20,28,30,,,,1.6,0.9,1.3*21
$GNGSA,A,3,65,66,72,75,76,84,85,,,,,,1.6,0.9,1.3*24
$QZGSA,A,3,,,,,,,,,,,,,1.6,0.9,1.3*22
$IMGSA,A,3,,,,,,,,,,,,,1.6,0.9,1.3*2D
$BDGSA,A,3,,,,,,,,,,,,,1.6,0.9,1.3*2F
$GPRMC,062246.00,A,3205.025480,N,03448.164459,E,000.0,,170616,,,A*7C
$GPGGA,062247.00,3205.025896,N,03448.164597,E,1,16,1.2,25.4,M,19.2,M,,*53
$GPGSV,3,1,11,28,65,024,32,13,59,318,35,17,42,142,36,30,41,066,29*78
$GPGSV,3,2,11,05,27,239,36,15,25,315,34,19,23,171,22,07,18,084,30*79
$GPGSV,3,3,11,20,17,287,24,11,05,064,,24,00,287,*4A
$GLGSV,3,1,10,65,50,270,37,75,47,335,38,72,33,201,28,74,29,043,35*6B
$GLGSV,3,2,10,85,27,123,37,84,27,066,18,66,17,327,32,76,15,279,15*65
$GLGSV,3,3,10,83,01,020,,86,00,167,*62
$BDGSV,2,1,06,205,45,140,29,214,36,230,30,212,30,153,29,202,29,118,*68
$BDGSV,2,2,06,208,26,064,,210,23,069,*6F
$GPGSA,A,3,05,07,13,15,17,19,20,28,30,,,,1.8,1.1,1.4*3F
$GNGSA,A,3,05,07,13,15,17,19,20,28,30,,,,1.8,1.1,1.4*21
$GNGSA,A,3,65,66,72,75,76,84,85,,,,,,1.8,1.1,1.4*24
$QZGSA,A,3,,,,,,,,,,,,,1.8,1.1,1.4*22
$IMGSA,A,3,,,,,,,,,,,,,1.8,1.1,1.4*2D
$BDGSA,A,3,,,,,,,,,,,,,1.8,1.1,1.4*2F
$GPRMC,062247.00,A,3205.025896,N,03448.164597,E,000.0,,170616,,,A*75
$GPGGA,062248.00,3205.026205,N,03448.164333,E,1,16,1.2,26.2,M,19.2,M,,*52
$GPGSV,3,1,11,28,65,024,31,13,59,318,35,17,42,142,36,30,41,066,28*7A
$GPGSV,3,2,11,05,27,239,36,15,25,315,34,19,23,171,21,07,18,084,29*72
$GPGSV,3,3,11,20,17,287,24,11,05,064,,24,00,287,*4A
$GLGSV,3,1,10,65,50,270,37,75,47,335,38,72,33,201,29,74,29,043,35*6A
$GLGSV,3,2,10,85,27,123,36,84,27,066,17,66,17,327,31,76,15,279,15*68
$GLGSV,3,3,10,83,01,020,,86,00,167,*62
$BDGSV,2,1,06,205,45,140,28,214,36,230,35,212,30,153,29,202,29,118,*6C
$BDGSV,2,2,06,208,26,064,,210,23,069,*6F
$GPGSA,A,3,05,07,13,15,17,19,20,28,30,,,,2.1,1.2,1.7*35
$GNGSA,A,3,05,07,13,15,17,19,20,28,30,,,,2.1,1.2,1.7*2B
$GNGSA,A,3,65,66,72,75,76,84,85,,,,,,2.1,1.2,1.7*2E
$QZGSA,A,3,,,,,,,,,,,,,2.1,1.2,1.7*28
$IMGSA,A,3,,,,,,,,,,,,,2.1,1.2,1.7*27
$BDGSA,A,3,,,,,,,,,,,,,2.1,1.2,1.7*25
$GPRMC,062248.00,A,3205.026205,N,03448.164333,E,000.0,,170616,,,A*71
$GPGGA,062249.00,3205.026205,N,03448.164333,E,1,16,1.2,24.4,M,19.2,M,,*57
$GPGSV,3,1,11,28,65,024,30,13,59,318,34,17,42,142,36,30,41,066,27*75
$GPGSV,3,2,11,05,27,239,36,15,25,315,34,19,23,171,21,07,18,084,28*73
$GPGSV,3,3,11,20,17,287,24,11,05,064,,24,00,287,*4A
$GLGSV,3,1,10,65,50,270,37,75,47,335,37,72,33,201,28,74,29,043,35*64
$GLGSV,3,2,10,85,27,123,36,84,27,066,17,66,17,327,30,76,15,279,16*6A
$GLGSV,3,3,10,83,01,020,,86,00,167,*62
$BDGSV,2,1,06,205,45,140,28,214,36,230,35,212,30,153,29,202,29,118,*6C
$BDGSV,2,2,06,208,26,064,,210,23,069,*6F
$GPGSA,A,3,05,07,13,15,17,19,20,28,30,,,,2.1,1.2,1.7*35
$GNGSA,A,3,05,07,13,15,17,19,20,28,30,,,,2.1,1.2,1.7*2B
$GNGSA,A,3,65,66,72,75,76,84,85,,,,,,2.1,1.2,1.7*2E
$QZGSA,A,3,,,,,,,,,,,,,2.1,1.2,1.7*28
$IMGSA,A,3,,,,,,,,,,,,,2.1,1.2,1.7*27
$BDGSA,A,3,,,,,,,,,,,,,2.1,1.2,1.7*25
$GPRMC,062249.00,A,3205.026205,N,03448.164333,E,000.0,,170616,,,A*70
$GPGGA,062250.00,3205.026205,N,03448.164333,E,1,16,0.8,21.8,M,19.2,M,,*5D
$GPGSV,3,1,11,28,65,024,30,13,59,318,35,17,42,142,35,30,41,066,27*77
$GPGSV,3,2,11,05,27,239,36,15,25,315,34,19,23,171,21,07,18,084,27*7C
$GPGSV,3,3,11,20,17,287,24,11,05,064,,24,00,287,*4A
$GLGSV,3,1,10,65,50,270,36,75,47,335,37,72,33,201,29,74,29,043,36*67
$GLGSV,3,2,10,85,27,123,35,84,27,066,17,66,17,327,29,76,15,279,16*61
$GLGSV,3,3,10,83,01,020,,86,00,167,*62
$BDGSV,2,1,06,205,45,140,28,214,36,230,36,212,30,153,29,202,29,118,*6F
$BDGSV,2,2,06,208,26,064,,210,23,069,*6F
$GPGSA,A,3,05,07,13,15,17,19,20,28,30,,,,2.6,1.3,2.3*34
$GNGSA,A,3,05,07,13,15,17,19,20,28,30,,,,2.6,1.3,2.3*2A
$GNGSA,A,3,65,66,72,75,76,84,85,,,,,,2.6,1.3,2.3*2F
$QZGSA,A,3,,,,,,,,,,,,,2.6,1.3,2.3*29
$IMGSA,A,3,,,,,,,,,,,,,2.6,1.3,2.3*26
$BDGSA,A,3,,,,,,,,,,,,,2.6,1.3,2.3*24
$GPRMC,062250.00,A,3205.026205,N,03448.164333,E,000.0,,170616,,,A*78
$GPGGA,062251.00,3205.026205,N,03448.164333,E,1,16,0.8,21.1,M,19.2,M,,*55
$GPGSV,3,1,11,28,65,024,29,13,59,318,34,17,42,142,35,30,41,066,26*7F
$GPGSV,3,2,11,05,27,239,36,15,25,315,33,19,23,171,20,07,18,084,25*78
$GPGSV,3,3,11,20,17,287,24,11,05,064,,24,00,287,*4A
$GLGSV,3,1,10,65,50,270,35,75,47,335,37,72,33,201,29,74,29,043,36*64
$GLGSV,3,2,10,85,27,123,34,84,27,066,17,66,17,327,29,76,15,279,16*60
$GLGSV,3,3,10,83,01,020,,86,00,167,*62
$BDGSV,2,1,06,205,45,140,27,214,36,230,36,212,30,153,29,202,29,118,*60
$BDGSV,2,2,06,208,26,064,,210,23,069,*6F
$GPGSA,A,3,05,07,13,15,17,19,20,28,30,,,,2.4,1.4,2.0*32
$GNGSA,A,3,05,07,13,15,17,19,20,28,30,,,,2.4,1.4,2.0*2C
$GNGSA,A,3,65,66,72,75,76,84,85,,,,,,2.4,1.4,2.0*29
$QZGSA,A,3,,,,,,,,,,,,,2.4,1.4,2.0*2F
$IMGSA,A,3,,,,,,,,,,,,,2.4,1.4,2.0*20
$BDGSA,A,3,,,,,,,,,,,,,2.4,1.4,2.0*22
$GPRMC,062251.00,A,3205.026205,N,03448.164333,E,000.0,,170616,,,A*79
$GPGGA,062252.00,3205.026205,N,03448.164333,E,1,15,0.8,20.7,M,19.2,M,,*52
$GPGSV,3,1,11,28,65,024,28,13,59,318,34,17,42,142,35,30,41,066,26*7E
$GPGSV,3,2,11,05,27,239,36,15,25,315,33,19,23,171,20,07,18,084,24*79
$GPGSV,3,3,11,20,17,287,25,11,05,064,,24,00,287,*4B
$GLGSV,3,1,10,65,50,270,34,75,47,335,36,72,33,201,29,74,29,043,36*64
$GLGSV,3,2,10,85,27,123,33,84,27,066,17,66,17,327,28,76,15,279,16*66
$GLGSV,3,3,10,83,01,020,,86,00,167,*62
$BDGSV,2,1,06,205,45,140,26,214,36,230,36,212,30,153,28,202,29,118,*60
$BDGSV,2,2,06,208,26,064,,210,23,069,*6F
$GPGSA,A,3,05,13,15,17,19,20,28,30,,,,,3.0,1.5,2.6*37
$GNGSA,A,3,05,13,15,17,19,20,28,30,,,,,3.0,1.5,2.6*29
$GNGSA,A,3,65,66,72,75,76,84,85,,,,,,3.0,1.5,2.6*2B
$QZGSA,A,3,,,,,,,,,,,,,3.0,1.5,2.6*2D
$IMGSA,A,3,,,,,,,,,,,,,3.0,1.5,2.6*22
$BDGSA,A,3,,,,,,,,,,,,,3.0,1.5,2.6*20
$GPRMC,062252.00,A,3205.026205,N,03448.164333,E,000.0,,170616,,,A*7A
$GPGGA,062253.00,3205.028104,N,03448.162214,E,1,15,0.8,20.8,M,19.2,M,,*52
$GPGSV,3,1,11,28,65,024,27,13,59,318,37,17,42,142,34,30,41,066,25*70
$GPGSV,3,2,11,05,27,239,36,15,25,315,33,19,23,171,21,07,18,084,22*7E
$GPGSV,3,3,11,20,17,287,25,11,05,064,,24,00,287,*4B
$GLGSV,3,1,10,65,50,270,33,75,47,335,36,72,33,201,29,74,29,043,36*63
$GLGSV,3,2,10,85,27,123,33,84,27,066,17,66,17,327,27,76,15,279,16*69
$GLGSV,3,3,10,83,01,020,,86,00,167,*62
$BDGSV,2,1,06,205,45,140,26,214,36,230,37,212,30,153,28,202,29,118,*61
$BDGSV,2,2,06,208,26,064,,210,23,069,*6F
$GPGSA,A,3,05,13,15,17,19,20,28,30,,,,,2.4,1.4,2.0*35
$GNGSA,A,3,05,13,15,17,19,20,28,30,,,,,2.4,1.4,2.0*2B
$GNGSA,A,3,65,66,72,75,76,84,85,,,,,,2.4,1.4,2.0*29
$QZGSA,A,3,,,,,,,,,,,,,2.4,1.4,2.0*2F
$IMGSA,A,3,,,,,,,,,,,,,2.4,1.4,2.0*20
$BDGSA,A,3,,,,,,,,,,,,,2.4,1.4,2.0*22
$GPRMC,062253.00,A,3205.028104,N,03448.162214,E,001.4,,170616,,,A*70
$GPGGA,062254.00,3205.028734,N,03448.162226,E,1,15,0.8,20.8,M,19.2,M,,*51
$GPGSV,3,1,11,28,65,024,26,13,59,318,38,17,43,142,34,30,41,066,25*7F
$GPGSV,3,2,11,05,27,239,40,15,25,315,39,19,23,171,21,07,18,084,21*76
$GPGSV,3,3,11,20,17,287,25,11,05,064,,24,00,287,*4B
$GLGSV,3,1,10,65,50,270,32,75,47,335,36,72,33,201,29,74,29,043,35*61
$GLGSV,3,2,10,85,27,123,32,84,27,066,16,66,17,327,27,76,15,279,16*69
$GLGSV,3,3,10,83,01,020,,86,00,167,*62
$BDGSV,2,1,06,205,45,140,25,214,36,230,37,212,30,153,28,202,29,118,*62
$BDGSV,2,2,06,208,26,064,,210,23,069,*6F
$GPGSA,A,3,05,13,15,17,19,20,28,30,,,,,2.8,1.6,2.3*38
$GNGSA,A,3,05,13,15,17,19,20,28,30,,,,,2.8,1.6,2.3*26
$GNGSA,A,3,65,66,72,75,76,84,85,,,,,,2.8,1.6,2.3*24
$QZGSA,A,3,,,,,,,,,,,,,2.8,1.6,2.3*22
$IMGSA,A,3,,,,,,,,,,,,,2.8,1.6,2.3*2D
$BDGSA,A,3,,,,,,,,,,,,,2.8,1.6,2.3*2F
$GPRMC,062254.00,A,3205.028734,N,03448.162226,E,002.1,,170616,,,A*75
$GPGGA,062255.00,3205.029246,N,03448.162252,E,1,15,0.8,20.8,M,19.2,M,,*52
$GPGSV,3,1,11,28,65,025,25,13,59,318,38,17,43,142,33,30,41,066,25*7A
$GPGSV,3,2,11,05,27,239,39,15,25,315,39,19,23,171,20,07,18,084,20*78
$GPGSV,3,3,11,20,17,287,25,11,05,064,,24,00,287,*4B
$GLGSV,3,1,10,65,50,270,31,75,47,335,36,72,33,201,28,74,29,043,35*63
$GLGSV,3,2,10,85,27,123,32,84,27,066,16,66,17,327,27,76,15,279,15*6A
$GLGSV,3,3,10,83,01,020,,86,00,167,*62
$BDGSV,2,1,06,205,45,140,24,214,36,230,37,212,30,153,28,202,29,118,*63
$BDGSV,2,2,06,208,26,064,,210,23,069,*6F
$GPGSA,A,3,05,13,15,17,19,20,28,30,,,,,2.8,1.6,2.3*38
$GNGSA,A,3,05,13,15,17,19,20,28,30,,,,,2.8,1.6,2.3*26
$GNGSA,A,3,65,66,72,75,76,84,85,,,,,,2.8,1.6,2.3*24
$QZGSA,A,3,,,,,,,,,,,,,2.8,1.6,2.3*22
$IMGSA,A,3,,,,,,,,,,,,,2.8,1.6,2.3*2D
$BDGSA,A,3,,,,,,,,,,,,,2.8,1.6,2.3*2F
$GPRMC,062255.00,A,3205.029246,N,03448.162252,E,002.4,,170616,,,A*73
$GPGGA,062256.00,3205.029807,N,03448.162140,E,1,15,0.8,20.9,M,19.2,M,,*5F
$GPGSV,3,1,11,28,65,025,24,13,59,318,38,17,43,142,33,30,41,066,24*7A
$GPGSV,3,2,11,05,27,239,39,15,25,315,38,19,23,171,20,07,18,084,18*72
$GPGSV,3,3,11,20,17,287,26,11,05,064,,24,00,287,*48
$GLGSV,3,1,10,65,50,270,30,75,47,335,35,72,33,201,28,74,29,043,34*60
$GLGSV,3,2,10,84,27,066,16,85,27,123,31,66,17,327,27,76,15,279,15*69
$GLGSV,3,3,10,83,01,020,,86,00,167,*62
$BDGSV,2,1,06,205,45,140,23,214,36,230,37,212,30,153,27,202,29,118,*6B
$BDGSV,2,2,06,208,26,064,,210,23,069,*6F
$GPGSA,A,3,05,13,15,17,19,20,28,30,,,,,2.5,1.5,2.0*35
$GNGSA,A,3,05,13,15,17,19,20,28,30,,,,,2.5,1.5,2.0*2B
$GNGSA,A,3,65,66,72,75,76,84,85,,,,,,2.5,1.5,2.0*29
$QZGSA,A,3,,,,,,,,,,,,,2.5,1.5,2.0*2F
$IMGSA,A,3,,,,,,,,,,,,,2.5,1.5,2.0*20
$BDGSA,A,3,,,,,,,,,,,,,2.5,1.5,2.0*22
$GPRMC,062256.00,A,3205.029807,N,03448.162140,E,002.5,000.4,170616,,,A*54
$GPGGA,062257.00,3205.030505,N,03448.161898,E,1,15,0.8,21.0,M,19.2,M,,*5E
$GPGSV,3,1,11,28,65,025,24,13,59,318,38,17,43,142,33,30,41,066,24*7A
$GPGSV,3,2,11,05,27,239,39,15,25,315,38,19,23,171,20,07,18,084,16*7C
$GPGSV,3,3,11,20,17,287,30,11,05,064,,24,00,287,*4F
$GLGSV,3,1,10,65,50,270,29,75,47,335,35,72,33,201,30,74,29,043,33*66
$GLGSV,3,2,10,85,27,123,31,84,27,066,16,66,17,327,27,76,15,279,15*69
$GLGSV,3,3,10,83,01,020,,86,00,167,*62
$BDGSV,2,1,06,205,45,140,22,214,36,230,39,212,30,153,27,202,29,118,*64
$BDGSV,2,2,06,208,26,064,,210,23,069,*6F
$GPGSA,A,3,05,13,15,17,19,20,28,30,,,,,2.8,1.6,2.3*38
$GNGSA,A,3,05,13,15,17,19,20,28,30,,,,,2.8,1.6,2.3*26
$GNGSA,A,3,65,66,72,75,76,84,85,,,,,,2.8,1.6,2.3*24
$QZGSA,A,3,,,,,,,,,,,,,2.8,1.6,2.3*22
$IMGSA,A,3,,,,,,,,,,,,,2.8,1.6,2.3*2D
$BDGSA,A,3,,,,,,,,,,,,,2.8,1.6,2.3*2F
$GPRMC,062257.00,A,3205.030505,N,03448.161898,E,002.5,000.2,170616,,,A*5B
$GPGGA,062258.00,3205.031448,N,03448.161558,E,1,15,0.8,21.0,M,19.2,M,,*59
$GPGSV,3,1,11,28,65,025,23,13,59,318,38,17,43,142,33,30,41,066,24*7D
$GPGSV,3,2,11,05,27,239,38,15,25,315,38,19,23,171,19,07,18,084,15*74
$GPGSV,3,3,11,20,17,287,30,11,05,064,,24,00,287,*4F
$GLGSV,3,1,10,65,50,270,28,75,47,335,35,72,33,201,30,74,29,043,32*66
$GLGSV,3,2,10,85,27,123,30,84,27,066,15,66,17,327,27,76,15,279,15*6B
$GLGSV,3,3,10,83,01,020,,86,00,167,*62
$BDGSV,2,1,06,205,45,140,20,214,36,230,39,212,30,153,27,202,29,118,*66
$BDGSV,2,2,06,208,26,064,,210,23,069,*6F
$GPGSA,A,3,05,13,15,17,19,20,28,30,,,,,2.8,1.6,2.3*38
$GNGSA,A,3,05,13,15,17,19,20,28,30,,,,,2.8,1.6,2.3*26
$GNGSA,A,3,65,66,72,75,76,84,85,,,,,,2.8,1.6,2.3*24
$QZGSA,A,3,,,,,,,,,,,,,2.8,1.6,2.3*22
$IMGSA,A,3,,,,,,,,,,,,,2.8,1.6,2.3*2D
$BDGSA,A,3,,,,,,,,,,,,,2.8,1.6,2.3*2F
$GPRMC,062258.00,A,3205.031448,N,03448.161558,E,002.5,001.1,170616,,,A*5E
$GPGGA,062259.00,3205.032446,N,03448.161134,E,1,15,0.8,21.1,M,19.2,M,,*5A
$GPGSV,3,1,11,28,65,025,22,13,59,318,38,17,43,142,32,30,41,066,23*7A
$GPGSV,3,2,11,05,27,239,37,15,25,315,38,19,23,171,19,07,18,084,14*7A
$GPGSV,3,3,11,20,17,287,29,11,05,064,,24,00,287,*47
$GLGSV,3,1,10,65,50,270,28,75,47,335,35,72,33,201,30,74,29,043,31*65
$GLGSV,3,2,10,84,27,066,15,85,27,123,30,66,17,327,27,76,15,279,15*6B
$GLGSV,3,3,10,83,01,020,,86,00,167,*62
$BDGSV,2,1,06,205,45,140,16,214,36,230,39,212,30,153,27,202,29,118,*63
$BDGSV,2,2,06,208,26,064,,210,23,069,*6F
$GPGSA,A,3,05,13,15,17,19,20,28,30,,,,,2.8,1.6,2.3*38
$GNGSA,A,3,05,13,15,17,19,20,28,30,,,,,2.8,1.6,2.3*26
$GNGSA,A,3,65,66,72,75,76,84,85,,,,,,2.8,1.6,2.3*24
$QZGSA,A,3,,,,,,,,,,,,,2.8,1.6,2.3*22
$IMGSA,A,3,,,,,,,,,,,,,2.8,1.6,2.3*2D
$BDGSA,A,3,,,,,,,,,,,,,2.8,1.6,2.3*2F
$GPRMC,062259.00,A,3205.032446,N,03448.161134,E,002.5,358.5,170616,,,A*57
$GPGGA,062300.00,3205.033406,N,03448.160630,E,1,15,0.8,21.3,M,19.2,M,,*52
$GPGSV,3,1,11,28,65,025,22,13,59,318,38,17,43,142,31,30,41,066,23*79
$GPGSV,3,2,11,05,27,239,37,15,25,315,37,19,23,171,19,07,18,084,12*73
$GPGSV,3,3,11,20,17,287,29,11,05,064,,24,00,287,*47
$GLGSV,3,1,10,65,50,270,27,75,47,335,35,72,33,201,29,74,29,043,31*62
$GLGSV,3,2,10,85,27,123,30,84,27,066,15,66,17,327,27,76,15,279,14*6A
$GLGSV,3,3,10,83,01,020,,86,00,167,*62
$BDGSV,2,1,06,205,45,140,11,214,36,230,39,212,30,153,27,202,29,118,*64
$BDGSV,2,2,06,208,26,064,,210,23,069,*6F
$GPGSA,A,3,05,13,15,17,19,20,28,30,,,,,2.8,1.6,2.3*38
$GNGSA,A,3,05,13,15,17,19,20,28,30,,,,,2.8,1.6,2.3*26
$GNGSA,A,3,65,66,72,75,76,84,85,,,,,,2.8,1.6,2.3*24
$QZGSA,A,3,,,,,,,,,,,,,2.8,1.6,2.3*22
$IMGSA,A,3,,,,,,,,,,,,,2.8,1.6,2.3*2D
$BDGSA,A,3,,,,,,,,,,,,,2.8,1.6,2.3*2F
$GPRMC,062300.00,A,3205.033406,N,03448.160630,E,002.5,352.7,170616,,,A*55
$GPGGA,062301.00,3205.034372,N,03448.160109,E,1,15,1.2,21.4,M,19.2,M,,*51
$GPGSV,3,1,11,28,65,025,22,13,59,318,38,17,43,142,30,30,41,066,26*7D
$GPGSV,3,2,11,05,27,239,37,15,25,315,37,19,23,171,19,07,18,084,12*73
$GPGSV,3,3,11,20,17,287,28,11,05,064,,24,00,287,*46
$GLGSV,3,1,10,65,50,270,27,75,47,335,36,72,33,201,29,74,29,043,30*60
$GLGSV,3,2,10,85,27,123,29,84,27,066,15,66,17,327,27,76,15,279,14*62
$GLGSV,3,3,10,83,01,020,,86,00,167,*62
$BDGSV,2,1,06,214,36,230,38,212,30,153,28,205,45,140,,202,29,118,*6A
$BDGSV,2,2,06,208,26,064,,210,23,069,*6F
$GPGSA,A,3,05,13,15,17,19,20,28,30,,,,,2.7,1.5,2.2*35
$GNGSA,A,3,05,13,15,17,19,20,28,30,,,,,2.7,1.5,2.2*2B
$GNGSA,A,3,65,66,72,75,76,84,85,,,,,,2.7,1.5,2.2*29
$QZGSA,A,3,,,,,,,,,,,,,2.7,1.5,2.2*2F
$IMGSA,A,3,,,,,,,,,,,,,2.7,1.5,2.2*20
$BDGSA,A,3,,,,,,,,,,,,,2.7,1.5,2.2*22
$GPRMC,062301.00,A,3205.034372,N,03448.160109,E,002.5,352.8,170616,,,A*55
$GPGGA,062302.00,3205.036608,N,03448.159477,E,1,15,1.6,21.6,M,19.2,M,,*58
$GPGSV,3,1,11,28,65,025,22,13,59,318,39,17,43,142,29,30,41,066,26*74
$GPGSV,3,2,11,05,27,239,36,15,25,315,37,19,23,171,20,07,18,084,12*78
$GPGSV,3,3,11,20,17,286,28,11,05,064,,24,00,287,*47
$GLGSV,3,1,10,65,50,270,26,75,47,335,37,72,33,201,30,74,29,043,29*60
$GLGSV,3,2,10,85,27,123,29,84,27,066,17,66,17,327,27,76,15,279,14*60
$GLGSV,3,3,10,83,01,020,,86,00,167,*62
$BDGSV,2,1,06,214,36,230,38,212,30,153,28,205,45,140,,202,29,118,*6A
$BDGSV,2,2,06,208,26,064,,210,23,069,*6F
$GPGSA,A,3,05,13,15,17,19,20,28,30,,,,,2.7,1.5,2.2*35
$GNGSA,A,3,05,13,15,17,19,20,28,30,,,,,2.7,1.5,2.2*2B
$GNGSA,A,3,65,66,72,75,76,84,85,,,,,,2.7,1.5,2.2*29
$QZGSA,A,3,,,,,,,,,,,,,2.7,1.5,2.2*2F
$IMGSA,A,3,,,,,,,,,,,,,2.7,1.5,2.2*20
$BDGSA,A,3,,,,,,,,,,,,,2.7,1.5,2.2*22
$GPRMC,062302.00,A,3205.036608,N,03448.159477,E,002.5,353.8,170616,,,A*5B
$GPGGA,062303.00,3205.037324,N,03448.159095,E,1,15,1.6,21.8,M,19.2,M,,*55
$GPGSV,3,1,11,28,65,025,22,13,59,318,39,17,43,142,29,30,41,066,27*75
$GPGSV,3,2,11,05,27,239,35,15,25,315,36,19,23,171,20,07,18,084,11*79
$GPGSV,3,3,11,20,17,286,27,11,05,064,,24,00,287,*48
$GLGSV,3,1,10,65,50,270,26,75,47,335,37,72,33,201,30,74,29,043,29*60
$GLGSV,3,2,10,85,27,123,29,84,27,066,21,66,17,327,28,76,15,279,14*6A
$GLGSV,3,3,10,83,01,020,,86,00,167,*62
$BDGSV,2,1,06,214,36,230,38,212,30,153,28,205,45,140,,202,29,118,*6A
$BDGSV,2,2,06,208,26,064,,210,23,069,*6F
$GPGSA,A,3,05,13,15,17,19,20,28,30,,,,,2.4,1.5,1.8*3F
$GNGSA,A,3,05,13,15,17,19,20,28,30,,,,,2.4,1.5,1.8*21
$GNGSA,A,3,65,66,72,75,76,84,85,,,,,,2.4,1.5,1.8*23
$QZGSA,A,3,,,,,,,,,,,,,2.4,1.5,1.8*25
$IMGSA,A,3,,,,,,,,,,,,,2.4,1.5,1.8*2A
$BDGSA,A,3,,,,,,,,,,,,,2.4,1.5,1.8*28
$GPRMC,062303.00,A,3205.037324,N,03448.159095,E,002.5,358.1,170616,,,A*5A
$GPGGA,062304.00,3205.037987,N,03448.158760,E,1,14,1.6,22.1,M,19.2,M,,*56
$GPGSV,3,1,11,28,65,025,21,13,59,318,38,17,43,142,28,30,41,066,32*72
$GPGSV,3,2,11,05,27,239,34,15,25,315,37,19,23,171,20,07,18,084,11*79
$GPGSV,3,3,11,20,17,286,27,11,05,064,,24,00,287,*48
$GLGSV,3,1,10,65,50,270,26,75,47,335,37,72,33,201,30,74,29,043,28*61
$GLGSV,3,2,10,85,27,123,29,84,27,066,27,66,17,327,27,76,15,279,14*63
$GLGSV,3,3,10,83,01,020,,86,00,167,*62
$BDGSV,2,1,06,214,36,230,38,212,30,153,27,205,45,140,,202,29,118,*65
$BDGSV,2,2,06,208,26,064,,210,23,069,*6F
$GPGSA,A,3,05,13,15,17,19,20,28,30,,,,,2.0,1.0,1.7*31
$GNGSA,A,3,05,13,15,17,19,20,28,30,,,,,2.0,1.0,1.7*2F
$GNGSA,A,3,65,66,72,75,84,85,,,,,,,2.0,1.0,1.7*2C
$QZGSA,A,3,,,,,,,,,,,,,2.0,1.0,1.7*2B
$IMGSA,A,3,,,,,,,,,,,,,2.0,1.0,1.7*24
$BDGSA,A,3,,,,,,,,,,,,,2.0,1.0,1.7*26
$GPRMC,062304.00,A,3205.037987,N,03448.158760,E,002.5,001.4,170616,,,A*58
$GPGGA,062305.00,3205.038512,N,03448.158582,E,1,14,3.2,22.3,M,19.2,M,,*52
$GPGSV,3,1,11,28,65,025,23,13,59,318,38,17,43,142,27,30,41,066,35*78
$GPGSV,3,2,11,05,27,239,33,15,25,315,38,19,23,171,19,07,18,084,11*7B
$GPGSV,3,3,11,20,17,286,27,11,05,064,,24,00,287,*48
$GLGSV,3,1,10,65,50,270,25,75,47,335,36,72,33,201,29,74,29,043,27*64
$GLGSV,3,2,10,85,27,123,33,84,27,066,30,66,17,327,27,76,15,279,14*6E
$GLGSV,3,3,10,83,01,020,,86,00,167,*62
$BDGSV,2,1,06,214,36,230,38,212,30,153,26,205,45,140,,202,29,118,*64
$BDGSV,2,2,06,208,26,064,,210,23,069,*6F
$GPGSA,A,3,05,13,15,17,19,20,28,30,,,,,6.9,6.3,2.7*3B
$GNGSA,A,3,05,13,15,17,19,20,28,30,,,,,6.9,6.3,2.7*25
$GNGSA,A,3,65,66,72,75,84,85,,,,,,,6.9,6.3,2.7*26
$QZGSA,A,3,,,,,,,,,,,,,6.9,6.3,2.7*21
$IMGSA,A,3,,,,,,,,,,,,,6.9,6.3,2.7*2E
$BDGSA,A,3,,,,,,,,,,,,,6.9,6.3,2.7*2C
$GPRMC,062305.00,A,3205.038512,N,03448.158582,E,002.4,348.2,170616,,,A*51
$GPGGA,062306.00,3205.038951,N,03448.158369,E,1,14,3.2,22.5,M,19.2,M,,*5F
$GPGSV,3,1,11,28,65,025,25,13,59,318,38,17,43,142,27,30,41,066,35*7E
$GPGSV,3,2,11,05,27,239,33,15,25,315,43,19,23,171,19,07,18,084,11*77
$GPGSV,3,3,11,20,17,286,27,11,05,064,,24,00,287,*48
$GLGSV,3,1,10,65,50,270,25,75,47,335,36,72,33,201,29,74,29,043,27*64
$GLGSV,3,2,10,85,27,123,33,84,27,066,30,66,17,327,27,76,15,279,13*69
$GLGSV,3,3,10,83,01,020,,86,00,167,*62
$BDGSV,2,1,06,214,36,230,37,212,30,153,25,205,45,140,,202,29,118,*68
$BDGSV,2,2,06,208,26,064,,210,23,069,*6F
$GPGSA,A,3,05,13,15,17,19,20,28,30,,,,,6.3,5.9,2.1*3E
$GNGSA,A,3,05,13,15,17,19,20,28,30,,,,,6.3,5.9,2.1*20
$GNGSA,A,3,65,66,72,75,84,85,,,,,,,6.3,5.9,2.1*23
$QZGSA,A,3,,,,,,,,,,,,,6.3,5.9,2.1*24
$IMGSA,A,3,,,,,,,,,,,,,6.3,5.9,2.1*2B
$BDGSA,A,3,,,,,,,,,,,,,6.3,5.9,2.1*29
$GPRMC,062306.00,A,3205.038951,N,03448.158369,E,001.4,348.2,170616,,,A*59
$GPGGA,062307.00,3205.039542,N,03448.158196,E,1,15,1.6,22.8,M,19.2,M,,*59
$GPGSV,3,1,11,28,65,025,26,13,59,318,38,17,43,142,26,30,41,066,35*7C
$GPGSV,3,2,11,05,26,239,32,15,25,315,43,19,23,171,20,07,18,084,12*7E
$GPGSV,3,3,11,20,17,286,26,11,05,064,,24,00,287,*49
$GLGSV,3,1,10,65,50,270,24,75,47,335,36,72,33,201,29,74,29,043,26*64
$GLGSV,3,2,10,84,27,066,29,85,27,123,33,66,17,327,26,76,15,279,13*60
$GLGSV,3,3,10,83,01,020,,86,00,167,*62
$BDGSV,2,1,06,214,36,230,37,212,30,153,25,205,45,140,,202,29,118,*68
$BDGSV,2,2,06,208,26,064,,210,23,069,*6F
$GPGSA,A,3,05,07,13,15,17,19,20,28,30,,,,2.2,1.5,1.7*31
$GNGSA,A,3,05,07,13,15,17,19,20,28,30,,,,2.2,1.5,1.7*2F
$GNGSA,A,3,65,66,72,75,84,85,,,,,,,2.2,1.5,1.7*2B
$QZGSA,A,3,,,,,,,,,,,,,2.2,1.5,1.7*2C
$IMGSA,A,3,,,,,,,,,,,,,2.2,1.5,1.7*23
$BDGSA,A,3,,,,,,,,,,,,,2.2,1.5,1.7*21
$GPRMC,062307.00,A,3205.039542,N,03448.158196,E,002.3,350.9,170616,,,A*53
$GPGGA,062308.00,3205.040434,N,03448.157754,E,1,15,1.6,23.1,M,19.2,M,,*57
$GPGSV,3,1,11,28,65,025,29,13,59,318,38,17,43,142,26,30,41,066,34*72
$GPGSV,3,2,11,05,26,239,32,15,25,315,42,19,23,171,22,07,18,084,13*7C
$GPGSV,3,3,11,20,17,286,26,11,05,064,,24,00,287,*49
$GLGSV,3,1,10,65,50,270,25,75,47,335,35,72,33,201,30,74,29,043,25*6D
$GLGSV,3,2,10,84,27,066,28,85,27,123,39,66,17,327,26,76,15,279,13*6B
$GLGSV,3,3,10,83,01,020,,86,00,167,*62
$BDGSV,2,1,06,214,36,230,36,212,30,153,24,205,45,140,,202,29,118,*68
$BDGSV,2,2,06,208,26,064,,210,23,069,*6F
$GPGSA,A,3,05,07,13,15,17,19,20,28,30,,,,2.6,1.7,2.0*33
$GNGSA,A,3,05,07,13,15,17,19,20,28,30,,,,2.6,1.7,2.0*2D
$GNGSA,A,3,65,66,72,75,84,85,,,,,,,2.6,1.7,2.0*29
$QZGSA,A,3,,,,,,,,,,,,,2.6,1.7,2.0*2E
$IMGSA,A,3,,,,,,,,,,,,,2.6,1.7,2.0*21
$BDGSA,A,3,,,,,,,,,,,,,2.6,1.7,2.0*23
$GPRMC,062308.00,A,3205.040434,N,03448.157754,E,002.3,344.8,170616,,,A*51
$GPGGA,062309.00,3205.041250,N,03448.157364,E,1,16,1.6,23.4,M,19.2,M,,*52
$GPGSV,3,1,11,28,65,025,32,13,59,318,39,17,43,142,25,30,41,066,33*7D
$GPGSV,3,2,11,05,26,239,31,15,25,315,41,19,23,171,22,07,18,084,13*7C
$GPGSV,3,3,11,20,17,286,26,11,05,064,,24,00,287,*49
$GLGSV,3,1,10,65,50,270,28,75,47,335,35,72,33,201,30,74,29,043,25*60
$GLGSV,3,2,10,84,27,066,27,85,27,123,39,66,17,327,25,76,15,279,14*60
$GLGSV,3,3,10,83,01,020,,86,00,167,*62
$BDGSV,2,1,06,214,36,230,35,212,30,153,23,205,45,140,,202,29,118,*6C
$BDGSV,2,2,06,208,26,064,,210,23,069,*6F
$GPGSA,A,3,05,07,13,15,17,19,20,28,30,,,,2.4,1.6,1.8*3B
$GNGSA,A,3,05,07,13,15,17,19,20,28,30,,,,2.4,1.6,1.8*25
$GNGSA,A,3,65,66,72,75,76,84,85,,,,,,2.4,1.6,1.8*20
$QZGSA,A,3,,,,,,,,,,,,,2.4,1.6,1.8*26
$IMGSA,A,3,,,,,,,,,,,,,2.4,1.6,1.8*29
$BDGSA,A,3,,,,,,,,,,,,,2.4,1.6,1.8*2B
$GPRMC,062309.00,A,3205.041250,N,03448.157364,E,002.3,348.7,170616,,,A*51
$GPGGA,062310.00,3205.041979,N,03448.157137,E,1,15,1.6,23.7,M,19.2,M,,*5E
$GPGSV,3,1,11,28,65,025,34,13,59,318,40,17,43,142,25,30,41,066,32*74
$GPGSV,3,2,11,05,26,239,31,15,25,315,41,19,23,171,22,07,18,084,12*7D
$GPGSV,3,3,11,20,17,286,25,11,05,064,,24,00,287,*4A
$GLGSV,3,1,10,65,50,270,32,75,47,335,34,72,33,201,29,74,29,043,25*62
$GLGSV,3,2,10,84,27,066,26,85,27,123,38,66,17,327,25,76,15,279,18*6C
$GLGSV,3,3,10,83,01,020,,86,00,167,*62
$BDGSV,2,1,06,214,36,230,33,212,30,153,22,205,45,140,,202,29,118,*6B
$BDGSV,2,2,06,208,26,064,,210,23,069,*6F
$GPGSA,A,3,05,13,15,17,19,20,28,30,,,,,4.0,3.0,2.7*36
$GNGSA,A,3,05,13,15,17,19,20,28,30,,,,,4.0,3.0,2.7*28
$GNGSA,A,3,65,66,72,75,76,84,85,,,,,,4.0,3.0,2.7*2A
$QZGSA,A,3,,,,,,,,,,,,,4.0,3.0,2.7*2C
$IMGSA,A,3,,,,,,,,,,,,,4.0,3.0,2.7*23
$BDGSA,A,3,,,,,,,,,,,,,4.0,3.0,2.7*21
$GPRMC,062310.00,A,3205.041979,N,03448.157137,E,002.3,356.8,170616,,,A*5D
$GPGGA,062311.00,3205.042638,N,03448.157022,E,1,15,2.4,23.9,M,19.2,M,,*5C
$GPGSV,3,1,11,28,65,025,34,13,59,318,40,17,43,142,25,30,41,066,31*77
$GPGSV,3,2,11,05,26,239,31,15,25,315,40,19,23,171,22,07,18,084,12*7C
$GPGSV,3,3,11,20,17,286,25,11,05,064,,24,00,287,*4A
$GLGSV,3,1,10,65,50,270,32,75,47,335,34,72,33,201,29,74,29,043,26*61
$GLGSV,3,2,10,84,27,066,25,85,27,123,38,66,17,327,24,76,15,279,18*6E
$GLGSV,3,3,10,83,01,020,,86,00,167,*62
$BDGSV,2,1,06,214,36,230,32,212,30,153,22,205,45,140,,202,29,118,*6A
$BDGSV,2,2,06,208,26,064,,210,23,069,*6F
$GPGSA,A,3,05,13,15,17,19,20,28,30,,,,,4.5,3.5,2.9*38
$GNGSA,A,3,05,13,15,17,19,20,28,30,,,,,4.5,3.5,2.9*26
$GNGSA,A,3,65,66,72,75,76,84,85,,,,,,4.5,3.5,2.9*24
$QZGSA,A,3,,,,,,,,,,,,,4.5,3.5,2.9*22
$IMGSA,A,3,,,,,,,,,,,,,4.5,3.5,2.9*2D
$BDGSA,A,3,,,,,,,,,,,,,4.5,3.5,2.9*2F
$GPRMC,062311.00,A,3205.042638,N,03448.157022,E,002.3,004.0,170616,,,A*5C
$GPGGA,062312.00,3205.043408,N,03448.157057,E,1,16,1.2,24.2,M,19.2,M,,*57
$GPGSV,3,1,11,28,65,025,34,13,59,318,40,17,43,142,25,30,41,066,30*76
$GPGSV,3,2,11,05,26,239,30,15,25,315,40,19,23,171,22,07,18,084,13*7C
$GPGSV,3,3,11,20,17,286,25,11,05,064,,24,00,287,*4A
$GLGSV,3,1,10,65,50,270,35,75,47,335,35,72,33,201,29,74,29,043,26*67
$GLGSV,3,2,10,84,27,065,25,85,27,123,38,66,17,327,24,76,15,279,18*6D
$GLGSV,3,3,10,83,01,020,,86,00,167,*62
$BDGSV,2,1,06,214,36,230,31,212,30,153,21,205,45,140,,202,29,118,*6A
$BDGSV,2,2,06,208,26,064,,210,23,069,*6F
$GPGSA,A,3,05,07,13,15,17,19,20,28,30,,,,2.8,1.9,2.1*32
$GNGSA,A,3,05,07,13,15,17,19,20,28,30,,,,2.8,1.9,2.1*2C
$GNGSA,A,3,65,66,72,75,76,84,85,,,,,,2.8,1.9,2.1*29
$QZGSA,A,3,,,,,,,,,,,,,2.8,1.9,2.1*2F
$IMGSA,A,3,,,,,,,,,,,,,2.8,1.9,2.1*20
$BDGSA,A,3,,,,,,,,,,,,,2.8,1.9,2.1*22
$GPRMC,062312.00,A,3205.043408,N,03448.157057,E,002.3,008.8,170616,,,A*59
$GPGGA,062313.00,3205.043411,N,03448.157057,E,1,16,1.2,24.5,M,19.2,M,,*59
$GPGSV,3,1,11,28,65,025,34,13,60,318,40,17,43,142,26,30,41,066,30*7F
$GPGSV,3,2,11,05,26,239,30,15,25,315,40,19,23,171,22,07,18,084,13*7C
$GPGSV,3,3,11,20,17,286,24,11,05,064,,24,00,287,*4B
$GLGSV,3,1,10,65,50,270,37,75,47,335,35,72,33,201,29,74,29,043,27*64
$GLGSV,3,2,10,84,27,065,24,85,27,123,38,66,17,327,24,76,15,279,17*63
$GLGSV,3,3,10,83,01,020,,86,00,167,*62
$BDGSV,2,1,06,214,36,230,30,212,30,153,21,205,45,140,,202,29,118,*6B
$BDGSV,2,2,06,208,26,064,,210,23,069,*6F
$GPGSA,A,3,05,07,13,15,17,19,20,28,30,,,,2.8,1.9,2.1*32
$GNGSA,A,3,05,07,13,15,17,19,20,28,30,,,,2.8,1.9,2.1*2C
$GNGSA,A,3,65,66,72,75,76,84,85,,,,,,2.8,1.9,2.1*29
$QZGSA,A,3,,,,,,,,,,,,,2.8,1.9,2.1*2F
$IMGSA,A,3,,,,,,,,,,,,,2.8,1.9,2.1*20
$BDGSA,A,3,,,,,,,,,,,,,2.8,1.9,2.1*22
$GPRMC,062313.00,A,3205.043411,N,03448.157057,E,000.9,008.8,170616,,,A*58
$GPGGA,062314.00,3205.043411,N,03448.157057,E,1,16,1.2,24.7,M,19.2,M,,*5C
$GPGSV,3,1,11,28,65,025,34,13,60,318,40,17,43,142,26,30,41,066,30*7F
$GPGSV,3,2,11,05,26,239,29,15,25,315,40,19,23,171,22,07,18,084,14*73
$GPGSV,3,3,11,20,17,286,24,11,05,064,,24,00,287,*4B
$GLGSV,3,1,10,65,50,270,38,75,47,335,35,72,33,201,30,74,29,043,27*63
$GLGSV,3,2,10,84,27,065,23,85,27,123,38,66,17,327,23,76,15,279,17*63
$GLGSV,3,3,10,83,01,020,,86,00,167,*62
$BDGSV,2,1,06,214,36,230,29,212,30,153,24,205,45,140,,202,29,118,*66
$BDGSV,2,2,06,208,26,064,,210,23,069,*6F
$GPGSA,A,3,05,07,13,15,17,19,20,28,30,,,,2.5,1.4,2.0*33
$GNGSA,A,3,05,07,13,15,17,19,20,28,30,,,,2.5,1.4,2.0*2D
$GNGSA,A,3,65,66,72,75,76,84,85,,,,,,2.5,1.4,2.0*28
$QZGSA,A,3,,,,,,,,,,,,,2.5,1.4,2.0*2E
$IMGSA,A,3,,,,,,,,,,,,,2.5,1.4,2.0*21
$BDGSA,A,3,,,,,,,,,,,,,2.5,1.4,2.0*23
$GPRMC,062314.00,A,3205.043411,N,03448.157057,E,000.7,008.8,170616,,,A*51
$GPGGA,062315.00,3205.043598,N,03448.156512,E,1,16,1.2,25.0,M,19.2,M,,*5E
$GPGSV,3,1,11,28,65,025,34,13,60,318,40,17,43,142,26,30,41,066,29*77
$GPGSV,3,2,11,05,26,239,29,15,25,315,40,19,23,171,22,07,18,084,14*73
$GPGSV,3,3,11,20,17,286,24,11,05,064,,24,00,287,*4B
$GLGSV,3,1,10,65,50,270,38,75,47,335,35,72,33,201,31,74,29,043,27*62
$GLGSV,3,2,10,84,27,065,23,85,27,123,37,66,17,327,23,76,15,279,17*6C
$GLGSV,3,3,10,83,01,020,,86,00,167,*62
$BDGSV,2,1,06,214,36,230,28,212,30,153,29,205,45,140,,202,29,118,*6A
$BDGSV,2,2,06,208,26,064,,210,23,069,*6F
$GPGSA,A,3,05,07,13,15,17,19,20,28,30,,,,2.5,1.4,2.0*33
$GNGSA,A,3,05,07,13,15,17,19,20,28,30,,,,2.5,1.4,2.0*2D
$GNGSA,A,3,65,66,72,75,76,84,85,,,,,,2.5,1.4,2.0*28
$QZGSA,A,3,,,,,,,,,,,,,2.5,1.4,2.0*2E
$IMGSA,A,3,,,,,,,,,,,,,2.5,1.4,2.0*21
$BDGSA,A,3,,,,,,,,,,,,,2.5,1.4,2.0*23
$GPRMC,062315.00,A,3205.043598,N,03448.156512,E,002.0,280.5,170616,,,A*5F
$GPGGA,062316.00,3205.043918,N,03448.156109,E,1,16,1.6,25.3,M,19.2,M,,*50
$GPGSV,3,1,11,28,65,025,34,13,60,318,39,17,43,142,27,30,41,066,29*78
$GPGSV,3,2,11,05,26,239,28,15,25,315,40,19,23,171,23,07,18,084,14*73
$GPGSV,3,3,11,20,17,286,24,11,05,064,,24,00,287,*4B
$GLGSV,3,1,10,65,50,270,38,75,47,335,35,72,33,201,31,74,29,043,27*62
$GLGSV,3,2,10,84,27,065,22,85,27,123,37,66,17,327,23,76,15,279,16*6C
$GLGSV,3,3,10,83,01,020,,86,00,167,*62
$BDGSV,2,1,06,214,36,230,27,212,30,153,33,205,45,140,,202,29,118,*6E
$BDGSV,2,2,06,208,26,064,,210,23,069,*6F
$GPGSA,A,3,05,07,13,15,17,19,20,28,30,,,,2.0,1.0,1.7*36
$GNGSA,A,3,05,07,13,15,17,19,20,28,30,,,,2.0,1.0,1.7*28
$GNGSA,A,3,65,66,72,75,76,84,85,,,,,,2.0,1.0,1.7*2D
$QZGSA,A,3,,,,,,,,,,,,,2.0,1.0,1.7*2B
$IMGSA,A,3,,,,,,,,,,,,,2.0,1.0,1.7*24
$BDGSA,A,3,,,,,,,,,,,,,2.0,1.0,1.7*26
$GPRMC,062316.00,A,3205.043918,N,03448.156109,E,001.0,280.5,170616,,,A*55
$GPGGA,062317.00,3205.043922,N,03448.156108,E,1,16,1.6,25.6,M,19.2,M,,*5C
$GPGSV,3,1,11,28,65,025,35,13,60,318,39,17,43,142,31,30,41,066,28*7F
$GPGSV,3,2,11,05,26,239,28,15,25,315,39,19,23,171,27,07,18,084,14*79
$GPGSV,3,3,11,20,17,286,23,11,05,064,,24,00,287,*4C
$GLGSV,3,1,10,65,50,270,38,75,47,335,36,72,33,201,32,74,29,044,27*65
$GLGSV,3,2,10,84,27,065,22,85,27,123,36,66,17,327,23,76,15,279,16*6D
$GLGSV,3,3,10,83,01,020,,86,00,167,*62
$BDGSV,2,1,06,214,36,230,26,212,30,153,37,205,45,140,,202,29,118,*6B
$BDGSV,2,2,06,208,26,064,,210,23,069,*6F
$GPGSA,A,3,05,07,13,15,17,19,20,28,30,,,,2.1,1.2,1.8*3A
$GNGSA,A,3,05,07,13,15,17,19,20,28,30,,,,2.1,1.2,1.8*24
$GNGSA,A,3,65,66,72,75,76,84,85,,,,,,2.1,1.2,1.8*21
$QZGSA,A,3,,,,,,,,,,,,,2.1,1.2,1.8*27
$IMGSA,A,3,,,,,,,,,,,,,2.1,1.2,1.8*28
$BDGSA,A,3,,,,,,,,,,,,,2.1,1.2,1.8*2A
$GPRMC,062317.00,A,3205.043922,N,03448.156108,E,000.6,280.5,170616,,,A*5B
$GPGGA,062318.00,3205.044084,N,03448.155702,E,1,16,1.6,26.0,M,19.2,M,,*5B
$GPGSV,3,1,11,28,65,025,35,13,60,318,39,17,43,142,33,30,41,066,28*7D
$GPGSV,3,2,11,05,26,239,28,15,25,315,39,19,23,171,26,07,18,084,14*78
$GPGSV,3,3,11,20,17,286,23,11,05,064,,24,00,287,*4C
$GLGSV,3,1,10,65,50,270,38,75,47,335,36,72,33,201,37,74,29,044,27*60
$GLGSV,3,2,10,84,27,065,21,85,27,123,36,66,17,327,23,76,15,279,16*6E
$GLGSV,3,3,10,83,01,020,,86,00,167,*62
$BDGSV,2,1,06,214,36,230,26,212,30,153,36,205,45,140,,202,29,118,*6A
$BDGSV,2,2,06,208,26,064,,210,23,069,*6F
$GPGSA,A,3,05,07,13,15,17,19,20,28,30,,,,2.0,1.0,1.8*39
$GNGSA,A,3,05,07,13,15,17,19,20,28,30,,,,2.0,1.0,1.8*27
$GNGSA,A,3,65,66,72,75,76,84,85,,,,,,2.0,1.0,1.8*22
$QZGSA,A,3,,,,,,,,,,,,,2.0,1.0,1.8*24
$IMGSA,A,3,,,,,,,,,,,,,2.0,1.0,1.8*2B
$BDGSA,A,3,,,,,,,,,,,,,2.0,1.0,1.8*29
$GPRMC,062318.00,A,3205.044084,N,03448.155702,E,000.9,280.5,170616,,,A*56
$GPGGA,062319.00,3205.044086,N,03448.155701,E,1,16,0.8,26.0,M,19.2,M,,*54
$GPGSV,3,1,11,28,65,025,35,13,60,318,39,17,43,142,37,30,41,066,27*76
$GPGSV,3,2,11,05,26,239,28,15,25,315,39,19,23,171,26,07,18,084,14*78
$GPGSV,3,3,11,20,17,286,22,11,05,064,,24,00,287,*4D
$GLGSV,3,1,10,65,50,270,38,75,47,335,35,72,33,201,37,74,29,044,26*62
$GLGSV,3,2,10,84,27,065,21,85,27,123,35,66,17,327,22,76,15,280,16*6A
$GLGSV,3,3,10,83,01,020,,86,00,167,*62
$BDGSV,2,1,06,214,36,230,26,212,30,153,36,205,45,140,,202,29,118,*6A
$BDGSV,2,2,06,208,26,064,,210,23,069,*6F
$GPGSA,A,3,05,07,13,15,17,19,20,28,30,,,,2.4,1.3,2.0*35
$GNGSA,A,3,05,07,13,15,17,19,20,28,30,,,,2.4,1.3,2.0*2B
$GNGSA,A,3,65,66,72,75,76,84,85,,,,,,2.4,1.3,2.0*2E
$QZGSA,A,3,,,,,,,,,,,,,2.4,1.3,2.0*28
$IMGSA,A,3,,,,,,,,,,,,,2.4,1.3,2.0*27
$BDGSA,A,3,,,,,,,,,,,,,2.4,1.3,2.0*25
$GPRMC,062319.00,A,3205.044086,N,03448.155701,E,000.0,280.5,170616,,,A*5F
$GPGGA,062320.00,3205.044334,N,03448.155519,E,1,16,0.8,26.0,M,19.2,M,,*5F
$GPGSV,3,1,11,28,65,025,35,13,60,318,39,17,43,142,37,30,41,066,27*76
$GPGSV,3,2,11,05,26,239,28,15,25,315,40,19,23,171,26,07,18,084,14*76
$GPGSV,3,3,11,20,17,286,22,11,05,064,,24,00,287,*4D
$GLGSV,3,1,10,65,50,270,38,75,47,335,35,72,33,201,39,74,29,044,26*6C
$GLGSV,3,2,10,84,27,065,21,85,27,123,34,66,17,327,23,76,15,280,16*6A
$GLGSV,3,3,10,83,01,020,,86,00,167,*62
$BDGSV,2,1,06,214,36,230,25,212,30,153,36,205,45,140,,202,29,118,*69
$BDGSV,2,2,06,208,26,064,,210,23,069,*6F
$GPGSA,A,3,05,07,13,15,17,19,20,28,30,,,,2.5,1.4,2.0*33
$GNGSA,A,3,05,07,13,15,17,19,20,28,30,,,,2.5,1.4,2.0*2D
$GNGSA,A,3,65,66,72,75,76,84,85,,,,,,2.5,1.4,2.0*28
$QZGSA,A,3,,,,,,,,,,,,,2.5,1.4,2.0*2E
$IMGSA,A,3,,,,,,,,,,,,,2.5,1.4,2.0*21
$BDGSA,A,3,,,,,,,,,,,,,2.5,1.4,2.0*23
$GPRMC,062320.00,A,3205.044334,N,03448.155519,E,000.0,280.5,170616,,,A*54
$GPGGA,062321.00,3205.044804,N,03448.154759,E,1,16,0.8,26.1,M,19.2,M,,*50
$GPGSV,3,1,11,28,65,025,35,13,60,318,39,17,43,142,36,30,41,066,27*77
$GPGSV,3,2,11,05,26,239,31,15,25,315,39,19,23,171,25,07,18,084,14*73
$GPGSV,3,3,11,20,17,286,21,11,05,064,,24,00,287,*4E
$GLGSV,3,1,10,65,50,270,37,75,47,335,35,72,33,200,38,74,29,044,26*63
$GLGSV,3,2,10,84,27,065,22,85,27,123,33,66,17,327,22,76,15,280,19*60
$GLGSV,3,3,10,83,01,020,,86,00,167,*62
$BDGSV,2,1,06,214,36,230,25,212,30,153,36,205,45,140,,202,29,118,*69
$BDGSV,2,2,06,208,26,064,,210,23,069,*6F
$GPGSA,A,3,05,07,13,15,17,19,20,28,30,,,,2.4,1.3,2.0*35
$GNGSA,A,3,05,07,13,15,17,19,20,28,30,,,,2.4,1.3,2.0*2B
$GNGSA,A,3,65,66,72,75,76,84,85,,,,,,2.4,1.3,2.0*2E
$QZGSA,A,3,,,,,,,,,,,,,2.4,1.3,2.0*28
$IMGSA,A,3,,,,,,,,,,,,,2.4,1.3,2.0*27
$BDGSA,A,3,,,,,,,,,,,,,2.4,1.3,2.0*25
$GPRMC,062321.00,A,3205.044804,N,03448.154759,E,001.5,280.5,170616,,,A*5E
$GPGGA,062322.00,3205.044727,N,03448.154349,E,1,16,0.8,26.2,M,19.2,M,,*5B
$GPGSV,3,1,11,28,65,025,35,13,60,318,38,17,43,142,36,30,41,066,27*76
$GPGSV,3,2,11,05,26,239,31,15,25,315,39,19,23,171,25,07,18,084,14*73
$GPGSV,3,3,11,20,17,286,21,11,05,064,,24,00,287,*4E
$GLGSV,3,1,10,65,50,270,37,75,47,335,34,72,33,200,38,74,29,044,26*62
$GLGSV,3,2,10,84,27,065,23,85,27,123,33,66,17,327,22,76,15,280,19*61
$GLGSV,3,3,10,83,01,020,,86,00,167,*62
$BDGSV,2,1,06,214,36,230,25,212,30,153,36,205,45,140,,202,29,118,*69
$BDGSV,2,2,06,208,26,064,,210,23,069,*6F
$GPGSA,A,3,05,07,13,15,17,19,20,28,30,,,,2.5,1.4,2.0*33
$GNGSA,A,3,05,07,13,15,17,19,20,28,30,,,,2.5,1.4,2.0*2D
$GNGSA,A,3,65,66,72,75,76,84,85,,,,,,2.5,1.4,2.0*28
$QZGSA,A,3,,,,,,,,,,,,,2.5,1.4,2.0*2E
$IMGSA,A,3,,,,,,,,,,,,,2.5,1.4,2.0*21
$BDGSA,A,3,,,,,,,,,,,,,2.5,1.4,2.0*23
$GPRMC,062322.00,A,3205.044727,N,03448.154349,E,001.1,214.2,170616,,,A*58
$GPGGA,062323.00,3205.044584,N,03448.154184,E,1,16,0.8,26.3,M,19.2,M,,*53
$GPGSV,3,1,11,28,65,025,35,13,60,318,38,17,43,142,40,30,41,066,31*70
$GPGSV,3,2,11,05,26,239,30,15,25,315,38,19,23,171,24,07,18,084,14*72
$GPGSV,3,3,11,20,17,286,22,11,05,064,,24,00,287,*4D
$GLGSV,3,1,10,65,50,270,35,75,47,335,34,72,33,200,38,74,29,044,27*61
$GLGSV,3,2,10,84,27,065,24,85,27,123,32,66,17,327,22,76,15,280,18*66
$GLGSV,3,3,10,86,01,167,,83,01,020,*63
$BDGSV,2,1,06,214,36,230,24,212,30,153,36,205,45,140,,202,29,118,*68
$BDGSV,2,2,06,208,26,064,,210,23,069,*6F
$GPGSA,A,3,05,07,13,15,17,19,20,28,30,,,,2.8,1.7,2.2*3F
$GNGSA,A,3,05,07,13,15,17,19,20,28,30,,,,2.8,1.7,2.2*21
$GNGSA,A,3,65,66,72,75,76,84,85,,,,,,2.8,1.7,2.2*24
$QZGSA,A,3,,,,,,,,,,,,,2.8,1.7,2.2*22
$IMGSA,A,3,,,,,,,,,,,,,2.8,1.7,2.2*2D
$BDGSA,A,3,,,,,,,,,,,,,2.8,1.7,2.2*2F
$GPRMC,062323.00,A,3205.044584,N,03448.154184,E,001.5,187.0,170616,,,A*5E
$GPGGA,062324.00,3205.043955,N,03448.153530,E,1,16,0.6,26.4,M,19.2,M,,*56
$GPGSV,3,1,11,28,65,025,35,13,60,318,38,17,43,142,40,30,41,067,38*78
$GPGSV,3,2,11,05,26,239,29,15,25,315,38,19,23,171,24,07,18,084,14*7A
$GPGSV,3,3,11,20,17,286,22,11,05,064,,24,00,287,*4D
$GLGSV,3,1,10,65,50,270,34,75,47,335,34,72,33,200,39,74,29,044,27*61
$GLGSV,3,2,10,84,27,065,34,85,27,123,32,66,17,327,22,76,15,280,18*67
$GLGSV,3,3,10,86,01,167,,83,01,020,*63
$BDGSV,2,1,06,214,36,230,24,212,30,153,39,205,45,140,,202,29,118,*67
$BDGSV,2,2,06,208,26,064,,210,23,069,*6F
$GPGSA,A,3,05,07,13,15,17,19,20,28,30,,,,2.0,1.0,1.7*36
$GNGSA,A,3,05,07,13,15,17,19,20,28,30,,,,2.0,1.0,1.7*28
$GNGSA,A,3,65,66,72,75,76,84,85,,,,,,2.0,1.0,1.7*2D
$QZGSA,A,3,,,,,,,,,,,,,2.0,1.0,1.7*2B
$IMGSA,A,3,,,,,,,,,,,,,2.0,1.0,1.7*24
$BDGSA,A,3,,,,,,,,,,,,,2.0,1.0,1.7*26
$GPRMC,062324.00,A,3205.043955,N,03448.153530,E,001.9,189.3,170616,,,A*53
$GPGGA,062325.00,3205.043026,N,03448.152600,E,1,16,0.6,26.5,M,19.2,M,,*5A
$GPGSV,3,1,11,28,65,025,35,13,60,318,37,17,43,142,39,30,41,067,37*76
$GPGSV,3,2,11,05,26,239,29,15,25,315,38,19,23,171,23,07,18,084,14*7D
