$GPGGA,062905.13,,,,,0,00,999.9,,M,,M,,*6C
$GPGSV,3,1,11,13,62,316,,28,62,026,,17,45,140,,30,39,069,*77
$GPGSV,3,2,11,15,27,315,,19,25,170,,05,25,237,,20,17,284,*79
$GPGSV,3,3,11,07,17,087,,11,05,061,,24,02,289,*42
$GLGSV,3,1,09,65,49,265,,75,47,340,,72,30,199,,85,29,120,*65
$GLGSV,3,2,09,74,28,046,,84,27,062,,66,19,325,,76,16,282,*69
$GLGSV,3,3,09,86,03,166,*50
$BDGSV,2,1,06,205,45,140,,214,34,228,,212,32,152,,202,29,118,*63
$BDGSV,2,2,06,208,27,063,,210,23,071,*60
$GPGSA,A,1,,,,,,,,,,,,,140.0,99.0,99.0*35
$GNGSA,A,1,,,,,,,,,,,,,140.0,99.0,99.0*2B
$GNGSA,A,1,,,,,,,,,,,,,140.0,99.0,99.0*2B
$QZGSA,A,1,,,,,,,,,,,,,140.0,99.0,99.0*29
$IMGSA,A,1,,,,,,,,,,,,,140.0,99.0,99.0*26
$BDGSA,A,1,,,,,,,,,,,,,140.0,99.0,99.0*24
$GPRMC,062905.13,V,,,,,,,170616,,,N*70
$GPGGA,062905.94,,,,,0,00,999.9,,M,,M,,*63
$GPGSV,3,1,11,28,62,026,37,13,62,316,,17,45,140,,30,39,069,*73
$GPGSV,3,2,11,15,27,315,,19,25,170,,05,25,237,,20,17,284,*79
$GPGSV,3,3,11,07,17,087,,11,05,061,,24,02,289,*42
$GLGSV,3,1,09,65,49,265,,75,47,340,,72,30,199,,85,29,120,*65
$GLGSV,3,2,09,74,28,046,,84,27,062,,66,19,325,,76,16,282,*69
$GLGSV,3,3,09,86,03,166,*50
$BDGSV,2,1,06,205,45,140,,214,34,228,,212,32,152,,202,29,118,*63
$BDGSV,2,2,06,208,27,063,,210,23,071,*60
$GPGSA,A,1,,,,,,,,,,,,,140.0,99.0,99.0*35
$GNGSA,A,1,,,,,,,,,,,,,140.0,99.0,99.0*2B
$GNGSA,A,1,,,,,,,,,,,,,140.0,99.0,99.0*2B
$QZGSA,A,1,,,,,,,,,,,,,140.0,99.0,99.0*29
$IMGSA,A,1,,,,,,,,,,,,,140.0,99.0,99.0*26
$BDGSA,A,1,,,,,,,,,,,,,140.0,99.0,99.0*24
$GPRMC,062905.94,V,,,,,,,170616,,,N*7F
$GPGGA,062906.15,,,,,0,00,999.9,,M,,M,,*69
$GPGSV,3,1,11,28,62,026,37,17,45,140,31,30,39,069,31,15,27,315,30*74
$GPGSV,3,2,11,05,25,237,31,07,17,087,30,13,62,316,,19,25,170,*78
$GPGSV,3,3,11,20,17,284,,11,05,061,,24,02,289,*46
$GLGSV,3,1,09,65,49,265,32,85,29,120,37,75,47,340,,72,30,199,*60
$GLGSV,3,2,09,74,28,046,,84,27,062,,66,19,325,,76,16,282,*69
$GLGSV,3,3,09,86,03,166,*50
$BDGSV,2,1,06,214,34,228,32,205,45,140,,212,32,152,,202,29,118,*62
$BDGSV,2,2,06,208,27,063,,210,23,071,*60
$GPGSA,A,1,,,,,,,,,,,,,140.0,99.0,99.0*35
$GNGSA,A,1,,,,,,,,,,,,,140.0,99.0,99.0*2B
$GNGSA,A,1,,,,,,,,,,,,,140.0,99.0,99.0*2B
$QZGSA,A,1,,,,,,,,,,,,,140.0,99.0,99.0*29
$IMGSA,A,1,,,,,,,,,,,,,140.0,99.0,99.0*26
$BDGSA,A,1,,,,,,,,,,,,,140.0,99.0,99.0*24
$GPRMC,062906.15,V,,,,,,,170616,,,N*75
$GPGGA,062907.07,3205.019196,N,03448.152125,E,1,08,3.2,109.5,M,19.2,M,,*66
$GPGSV,3,1,11,28,62,026,38,17,45,140,31,30,39,069,31,15,27,315,30*7B
$GPGSV,3,2,11,05,25,237,32,07,17,087,30,13,62,316,,19,25,170,*7B
$GPGSV,3,3,11,20,17,284,,11,05,061,,24,02,289,*46
$GLGSV,3,1,09,65,49,265,33,75,47,340,35,85,29,120,37,72,30,199,*67
$GLGSV,3,2,09,74,28,046,,84,27,062,,66,19,325,,76,16,282,*69
$GLGSV,3,3,09,86,03,166,*50
$BDGSV,2,1,06,214,34,228,33,205,45,140,,212,32,152,,202,29,118,*63
$BDGSV,2,2,06,208,27,063,,210,23,071,*60
$GPGSA,A,3,05,07,15,17,28,30,,,,,,,2.2,1.0,1.9*32
$GNGSA,A,3,05,07,15,17,28,30,,,,,,,2.2,1.0,1.9*2C
$GNGSA,A,3,65,85,,,,,,,,,,,2.2,1.0,1.9*2B
$QZGSA,A,3,,,,,,,,,,,,,2.2,1.0,1.9*27
$IMGSA,A,3,,,,,,,,,,,,,2.2,1.0,1.9*28
$BDGSA,A,3,,,,,,,,,,,,,2.2,1.0,1.9*2A
$GPRMC,062907.07,A,3205.019196,N,03448.152125,E,000.7,338.2,170616,,,A*50
$GPGGA,062908.07,3205.031664,N,03448.151122,E,1,11,1.2,108.8,M,19.2,M,,*6B
$GPGSV,3,1,11,28,62,026,38,13,62,316,21,17,45,140,32,30,39,069,33*7E
$GPGSV,3,2,11,15,27,315,30,19,25,170,27,05,25,237,36,20,17,284,24*7C
$GPGSV,3,3,11,07,17,087,30,11,05,061,,24,02,289,*41
$GLGSV,3,1,09,65,49,265,34,75,47,340,34,85,29,120,36,72,29,199,*68
$GLGSV,3,2,09,74,28,047,,84,27,062,,66,19,325,,76,16,282,*68
$GLGSV,3,3,09,86,03,166,*50
$BDGSV,2,1,06,214,34,228,36,205,45,140,,212,32,152,,202,29,118,*66
$BDGSV,2,2,06,208,27,063,,210,23,071,*60
$GPGSA,A,3,05,07,13,15,19,20,28,30,,,,,1.8,0.9,1.6*32
$GNGSA,A,3,05,07,13,15,19,20,28,30,,,,,1.8,0.9,1.6*2C
$GNGSA,A,3,65,75,85,,,,,,,,,,1.8,0.9,1.6*27
$QZGSA,A,3,,,,,,,,,,,,,1.8,0.9,1.6*29
$IMGSA,A,3,,,,,,,,,,,,,1.8,0.9,1.6*26
$BDGSA,A,3,,,,,,,,,,,,,1.8,0.9,1.6*24
$GPRMC,062908.07,A,3205.031664,N,03448.151122,E,002.0,357.1,170616,,,A*54
$GPGGA,062909.08,3205.031726,N,03448.152163,E,1,12,3.2,111.9,M,19.2,M,,*6C
$GPGSV,3,1,11,28,62,026,39,13,62,316,21,17,45,140,32,30,39,069,33*7F
$GPGSV,3,2,11,15,27,315,30,19,25,170,29,05,25,237,39,20,17,284,25*7C
$GPGSV,3,3,11,07,17,087,30,11,05,061,,24,02,289,*41
$GLGSV,3,1,09,65,49,265,34,75,47,340,34,85,29,120,35,74,28,047,31*6C
$GLGSV,3,2,09,72,29,199,,84,27,062,,66,19,325,,76,16,282,*6D
$GLGSV,3,3,09,86,03,166,*50
$BDGSV,2,1,06,214,34,228,36,205,45,140,,212,32,152,,202,29,118,*66
$BDGSV,2,2,06,208,27,063,,210,23,071,*60
$GPGSA,A,3,05,07,13,15,17,19,20,28,30,,,,2.2,0.9,1.9*32
$GNGSA,A,3,05,07,13,15,17,19,20,28,30,,,,2.2,0.9,1.9*2C
$GNGSA,A,3,65,75,85,,,,,,,,,,2.2,0.9,1.9*21
$QZGSA,A,3,,,,,,,,,,,,,2.2,0.9,1.9*2F
$IMGSA,A,3,,,,,,,,,,,,,2.2,0.9,1.9*20
$BDGSA,A,3,,,,,,,,,,,,,2.2,0.9,1.9*22
$GPRMC,062909.08,A,3205.031726,N,03448.152163,E,,,170616,,,A*59
$GPGGA,062910.08,3205.030956,N,03448.152772,E,1,13,4.8,60.0,M,19.2,M,,*58
$GPGSV,3,1,11,28,62,026,39,13,62,316,21,17,45,140,31,30,39,069,32*7D
$GPGSV,3,2,11,15,27,315,30,19,25,170,30,05,25,237,40,20,17,284,27*78
$GPGSV,3,3,11,07,17,087,34,11,05,061,,24,02,289,*45
$GLGSV,3,1,09,65,49,265,34,75,47,340,34,85,29,120,35,72,29,199,29*60
$GLGSV,3,2,09,74,28,047,31,84,27,062,,66,19,325,,76,16,282,*6A
$GLGSV,3,3,09,86,03,166,*50
$BDGSV,2,1,06,214,34,228,35,205,45,140,,212,32,152,,202,29,118,*65
$BDGSV,2,2,06,208,27,063,,210,23,071,*60
$GPGSA,A,3,05,07,13,15,17,19,20,28,30,,,,2.2,1.2,1.8*39
$GNGSA,A,3,05,07,13,15,17,19,20,28,30,,,,2.2,1.2,1.8*27
$GNGSA,A,3,65,72,75,85,,,,,,,,,2.2,1.2,1.8*2F
$QZGSA,A,3,,,,,,,,,,,,,2.2,1.2,1.8*24
$IMGSA,A,3,,,,,,,,,,,,,2.2,1.2,1.8*2B
$BDGSA,A,3,,,,,,,,,,,,,2.2,1.2,1.8*29
$GPRMC,062910.08,A,3205.030956,N,03448.152772,E,000.0,,170616,,,A*71
$GPGGA,062911.08,3205.031212,N,03448.153603,E,1,14,4.8,41.4,M,19.2,M,,*55
$GPGSV,3,1,11,28,62,026,39,13,62,316,21,17,45,140,31,30,39,069,32*7D
$GPGSV,3,2,11,15,27,315,30,19,25,170,30,05,25,237,40,20,17,284,27*78
$GPGSV,3,3,11,07,17,087,35,11,05,061,,24,02,289,*44
$GLGSV,3,1,09,65,49,265,34,75,47,340,34,85,29,120,34,72,29,199,28*60
$GLGSV,3,2,09,74,28,047,31,84,27,062,23,66,19,325,,76,16,282,*6B
$GLGSV,3,3,09,86,03,166,*50
$BDGSV,2,1,06,214,34,228,35,205,45,140,,212,32,152,,202,29,118,*65
$BDGSV,2,2,06,208,27,063,,210,23,071,*60
$GPGSA,A,3,05,07,13,15,17,19,20,28,30,,,,1.9,1.0,1.6*3D
$GNGSA,A,3,05,07,13,15,17,19,20,28,30,,,,1.9,1.0,1.6*23
$GNGSA,A,3,65,72,75,84,85,,,,,,,,1.9,1.0,1.6*27
$QZGSA,A,3,,,,,,,,,,,,,1.9,1.0,1.6*20
$IMGSA,A,3,,,,,,,,,,,,,1.9,1.0,1.6*2F
$BDGSA,A,3,,,,,,,,,,,,,1.9,1.0,1.6*2D
$GPRMC,062911.08,A,3205.031212,N,03448.153603,E,000.0,,170616,,,A*7C
$GPGGA,062912.12,3205.031216,N,03448.153631,E,1,15,2.4,30.6,M,19.2,M,,*57
$GPGSV,3,1,11,28,62,026,40,13,62,316,21,17,45,140,31,30,39,069,31*70
$GPGSV,3,2,11,15,27,315,29,19,25,170,30,05,25,237,40,20,17,284,28*7F
$GPGSV,3,3,11,07,17,087,35,11,05,061,,24,02,289,*44
$GLGSV,3,1,09,65,49,265,34,75,47,340,34,85,29,120,34,72,29,199,28*60
$GLGSV,3,2,09,74,28,047,32,84,27,062,23,76,16,282,19,66,19,325,*60
$GLGSV,3,3,09,86,03,166,*50
$BDGSV,2,1,06,214,34,228,34,205,45,140,,212,32,152,,202,29,118,*64
$BDGSV,2,2,06,208,27,063,,210,23,071,*60
$GPGSA,A,3,05,07,13,15,17,19,20,28,30,,,,1.8,0.9,1.6*34
$GNGSA,A,3,05,07,13,15,17,19,20,28,30,,,,1.8,0.9,1.6*2A
$GNGSA,A,3,65,72,75,76,84,85,,,,,,,1.8,0.9,1.6*2F
$QZGSA,A,3,,,,,,,,,,,,,1.8,0.9,1.6*29
$IMGSA,A,3,,,,,,,,,,,,,1.8,0.9,1.6*26
$BDGSA,A,3,,,,,,,,,,,,,1.8,0.9,1.6*24
$GPRMC,062912.12,A,3205.031216,N,03448.153631,E,000.0,,170616,,,A*71
$GPGGA,062913.12,3205.031216,N,03448.153632,E,1,16,1.2,21.2,M,19.2,M,,*57
$GPGSV,3,1,11,28,62,026,40,13,62,316,25,17,45,140,31,30,39,069,30*75
$GPGSV,3,2,11,15,27,315,29,19,25,170,31,05,25,237,40,20,17,284,30*77
$GPGSV,3,3,11,07,17,087,38,11,05,061,,24,02,289,*49
$GLGSV,3,1,09,65,49,264,37,75,47,340,35,85,29,120,34,72,29,199,27*6C
$GLGSV,3,2,09,74,28,047,31,84,27,062,23,66,19,325,22,76,16,282,19*63
$GLGSV,3,3,09,86,03,166,*50
$BDGSV,2,1,06,214,34,227,34,205,45,140,,212,32,152,,202,29,118,*6B
$BDGSV,2,2,06,208,27,063,,210,23,071,*60
$GPGSA,A,3,05,07,13,15,17,19,20,28,30,,,,1.8,1.0,1.5*3F
$GNGSA,A,3,05,07,13,15,17,19,20,28,30,,,,1.8,1.0,1.5*21
$GNGSA,A,3,65,66,72,75,76,84,85,,,,,,1.8,1.0,1.5*24
$QZGSA,A,3,,,,,,,,,,,,,1.8,1.0,1.5*22
$IMGSA,A,3,,,,,,,,,,,,,1.8,1.0,1.5*2D
$BDGSA,A,3,,,,,,,,,,,,,1.8,1.0,1.5*2F
$GPRMC,062913.12,A,3205.031216,N,03448.153632,E,000.0,,170616,,,A*73
$GPGGA,062914.00,3205.031216,N,03448.153632,E,1,16,1.2,12.5,M,19.2,M,,*54
$GPGSV,3,1,11,28,62,026,40,13,62,316,24,17,45,140,31,30,39,069,30*74
$GPGSV,3,2,11,15,27,315,29,19,25,170,32,05,25,237,40,20,17,284,30*74
$GPGSV,3,3,11,07,17,087,40,11,05,061,,24,02,289,*46
$GLGSV,3,1,09,65,49,264,38,75,47,340,37,85,29,120,37,72,29,199,27*62
$GLGSV,3,2,09,74,28,047,31,84,27,062,23,66,19,325,22,76,16,282,18*62
$GLGSV,3,3,09,86,03,166,*50
$BDGSV,2,1,06,214,34,227,34,205,45,140,,212,32,152,,202,29,118,*6B
$BDGSV,2,2,06,208,27,063,,210,23,071,*60
$GPGSA,A,3,05,07,13,15,17,19,20,28,30,,,,2.5,1.2,2.1*34
$GNGSA,A,3,05,07,13,15,17,19,20,28,30,,,,2.5,1.2,2.1*2A
$GNGSA,A,3,65,66,72,75,76,84,85,,,,,,2.5,1.2,2.1*2F
$QZGSA,A,3,,,,,,,,,,,,,2.5,1.2,2.1*29
$IMGSA,A,3,,,,,,,,,,,,,2.5,1.2,2.1*26
$BDGSA,A,3,,,,,,,,,,,,,2.5,1.2,2.1*24
$GPRMC,062914.00,A,3205.031216,N,03448.153632,E,000.0,,170616,,,A*77
$GPGGA,062915.00,3205.032248,N,03448.151939,E,1,16,0.8,8.3,M,19.2,M,,*6D
$GPGSV,3,1,11,28,62,026,40,13,62,316,24,17,45,140,33,30,39,069,30*76
$GPGSV,3,2,11,15,27,315,29,19,25,170,31,05,25,237,39,20,17,284,29*71
$GPGSV,3,3,11,07,17,087,40,11,05,061,,24,02,289,*46
$GLGSV,3,1,09,65,49,264,38,75,47,340,37,85,29,120,36,72,29,199,26*62
$GLGSV,3,2,09,74,28,047,31,84,27,062,23,66,19,325,22,76,16,282,18*62
$GLGSV,3,3,09,86,03,166,*50
$BDGSV,2,1,06,214,34,227,34,205,45,140,,212,32,152,,202,29,118,*6B
$BDGSV,2,2,06,208,27,063,,210,23,071,*60
$GPGSA,A,3,05,07,13,15,17,19,20,28,30,,,,2.2,1.2,1.8*39
$GNGSA,A,3,05,07,13,15,17,19,20,28,30,,,,2.2,1.2,1.8*27
$GNGSA,A,3,65,66,72,75,76,84,85,,,,,,2.2,1.2,1.8*22
$QZGSA,A,3,,,,,,,,,,,,,2.2,1.2,1.8*24
$IMGSA,A,3,,,,,,,,,,,,,2.2,1.2,1.8*2B
$BDGSA,A,3,,,,,,,,,,,,,2.2,1.2,1.8*29
$GPRMC,062915.00,A,3205.032248,N,03448.151939,E,000.0,,170616,,,A*78
$GPGGA,062916.00,3205.032318,N,03448.151574,E,1,16,0.8,9.7,M,19.2,M,,*6A
$GPGSV,3,1,11,28,62,026,39,13,62,316,24,17,45,140,36,30,39,069,29*75
$GPGSV,3,2,11,15,27,315,28,19,25,170,31,05,25,237,39,20,17,284,29*70
$GPGSV,3,3,11,07,17,087,39,11,05,061,,24,02,289,*48
$GLGSV,3,1,09,65,49,264,38,75,47,340,36,85,29,120,36,72,29,199,26*63
$GLGSV,3,2,09,74,28,047,31,84,27,062,22,66,19,325,22,76,16,282,18*63
$GLGSV,3,3,09,86,03,166,*50
$BDGSV,2,1,06,214,34,227,33,205,45,140,,212,32,152,,202,29,118,*6C
$BDGSV,2,2,06,208,27,063,,210,23,071,*60
$GPGSA,A,3,05,07,13,15,17,19,20,28,30,,,,2.2,1.2,1.8*39
$GNGSA,A,3,05,07,13,15,17,19,20,28,30,,,,2.2,1.2,1.8*27
$GNGSA,A,3,65,66,72,75,76,84,85,,,,,,2.2,1.2,1.8*22
$QZGSA,A,3,,,,,,,,,,,,,2.2,1.2,1.8*24
$IMGSA,A,3,,,,,,,,,,,,,2.2,1.2,1.8*2B
$BDGSA,A,3,,,,,,,,,,,,,2.2,1.2,1.8*29
$GPRMC,062916.00,A,3205.032318,N,03448.151574,E,000.0,,170616,,,A*7A
$GPGGA,062917.00,3205.032544,N,03448.153021,E,1,16,1.6,11.6,M,19.2,M,,*54
$GPGSV,3,1,11,28,62,026,39,13,62,316,24,17,45,140,36,30,39,069,29*75
$GPGSV,3,2,11,15,27,315,28,19,26,170,30,05,25,237,39,20,17,284,28*73
$GPGSV,3,3,11,07,16,087,38,11,05,061,,24,02,289,*48
$GLGSV,3,1,09,65,49,264,37,75,47,340,36,85,29,120,35,72,29,199,26*6F
$GLGSV,3,2,09,74,28,047,30,84,27,062,22,66,19,325,21,76,16,282,18*61
$GLGSV,3,3,09,86,03,166,*50
$BDGSV,2,1,06,214,34,227,33,205,45,140,,212,32,152,,202,29,118,*6C
$BDGSV,2,2,06,208,27,063,,210,23,071,*60
$GPGSA,A,3,05,07,13,15,17,19,20,28,30,,,,3.0,1.6,2.5*30
$GNGSA,A,3,05,07,13,15,17,19,20,28,30,,,,3.0,1.6,2.5*2E
$GNGSA,A,3,65,66,72,75,76,84,85,,,,,,3.0,1.6,2.5*2B
$QZGSA,A,3,,,,,,,,,,,,,3.0,1.6,2.5*2D
$IMGSA,A,3,,,,,,,,,,,,,3.0,1.6,2.5*22
$BDGSA,A,3,,,,,,,,,,,,,3.0,1.6,2.5*20
$GPRMC,062917.00,A,3205.032544,N,03448.153021,E,000.0,,170616,,,A*73
$GPGGA,062918.00,3205.032374,N,03448.153757,E,1,16,1.2,6.6,M,19.2,M,,*6A
$GPGSV,3,1,11,28,62,026,39,13,62,316,24,17,45,140,36,30,39,069,29*75
$GPGSV,3,2,11,15,27,315,27,19,26,170,30,05,25,237,39,20,17,284,28*7C
$GPGSV,3,3,11,07,16,087,36,11,05,061,,24,02,289,*46
$GLGSV,3,1,09,65,49,264,37,75,47,340,36,85,29,120,34,72,29,199,26*6E
$GLGSV,3,2,09,74,28,047,30,84,27,062,22,66,19,325,21,76,16,282,17*6E
$GLGSV,3,3,09,86,03,166,*50
$BDGSV,2,1,06,214,34,227,33,205,45,140,,212,32,152,,202,29,118,*6C
$BDGSV,2,2,06,208,27,063,,210,23,071,*60
$GPGSA,A,3,05,07,13,15,17,19,20,28,30,,,,3.0,1.5,2.6*30
$GNGSA,A,3,05,07,13,15,17,19,20,28,30,,,,3.0,1.5,2.6*2E
$GNGSA,A,3,65,66,72,75,76,84,85,,,,,,3.0,1.5,2.6*2B
$QZGSA,A,3,,,,,,,,,,,,,3.0,1.5,2.6*2D
$IMGSA,A,3,,,,,,,,,,,,,3.0,1.5,2.6*22
$BDGSA,A,3,,,,,,,,,,,,,3.0,1.5,2.6*20
$GPRMC,062918.00,A,3205.032374,N,03448.153757,E,000.0,,170616,,,A*7F
$GPGGA,062919.00,3205.032380,N,03448.154200,E,1,16,0.8,4.8,M,19.2,M,,*67
$GPGSV,3,1,11,28,62,026,38,13,62,316,24,17,45,140,36,30,39,069,30*7C
$GPGSV,3,2,11,15,27,315,27,19,26,170,29,05,25,237,39,20,17,284,27*7B
$GPGSV,3,3,11,07,16,087,35,11,05,061,,24,02,289,*45
$GLGSV,3,1,09,65,49,264,37,75,47,340,35,85,29,120,33,72,29,199,26*6A
$GLGSV,3,2,09,74,28,047,30,84,27,062,21,66,19,325,21,76,16,282,17*6D
$GLGSV,3,3,09,86,03,166,*50
$BDGSV,2,1,06,214,34,227,34,205,45,140,,212,32,152,,202,29,118,*6B
$BDGSV,2,2,06,208,27,063,,210,23,071,*60
$GPGSA,A,3,05,07,13,15,17,19,20,28,30,,,,3.0,1.5,2.6*30
$GNGSA,A,3,05,07,13,15,17,19,20,28,30,,,,3.0,1.5,2.6*2E
$GNGSA,A,3,65,66,72,75,76,84,85,,,,,,3.0,1.5,2.6*2B
$QZGSA,A,3,,,,,,,,,,,,,3.0,1.5,2.6*2D
$IMGSA,A,3,,,,,,,,,,,,,3.0,1.5,2.6*22
$BDGSA,A,3,,,,,,,,,,,,,3.0,1.5,2.6*20
$GPRMC,062919.00,A,3205.032380,N,03448.154200,E,000.0,,170616,,,A*75
$GPGGA,062920.00,3205.032533,N,03448.154354,E,1,17,0.8,2.9,M,19.2,M,,*65
$GPGSV,3,1,11,28,62,026,38,13,62,316,25,17,45,140,36,30,39,069,30*7D
$GPGSV,3,2,11,15,27,315,27,19,26,170,29,05,25,237,40,20,17,284,27*75
$GPGSV,3,3,11,07,16,087,33,11,05,061,,24,02,289,*43
$GLGSV,3,1,09,65,49,264,38,75,47,340,35,85,29,120,32,72,29,199,26*64
$GLGSV,3,2,09,74,28,047,30,84,27,062,21,66,19,325,25,76,16,282,16*68
$GLGSV,3,3,09,86,03,166,*50
$BDGSV,2,1,06,214,34,227,35,205,45,140,,212,32,152,,202,29,118,*6A
$BDGSV,2,2,06,208,27,063,,210,23,071,*60
$GPGSA,A,3,05,07,13,15,17,19,20,24,28,30,,,3.0,1.5,2.6*36
$GNGSA,A,3,05,07,13,15,17,19,20,24,28,30,,,3.0,1.5,2.6*28
$GNGSA,A,3,65,66,72,75,76,84,85,,,,,,3.0,1.5,2.6*2B
$QZGSA,A,3,,,,,,,,,,,,,3.0,1.5,2.6*2D
$IMGSA,A,3,,,,,,,,,,,,,3.0,1.5,2.6*22
$BDGSA,A,3,,,,,,,,,,,,,3.0,1.5,2.6*20
$GPRMC,062920.00,A,3205.032533,N,03448.154354,E,000.0,,170616,,,A*71
$GPGGA,062921.00,3205.032814,N,03448.154804,E,1,17,0.8,3.0,M,19.2,M,,*6A
$GPGSV,3,1,11,28,62,026,37,13,62,316,24,17,45,140,36,30,39,069,30*73
$GPGSV,3,2,11,15,27,315,26,19,26,170,28,05,25,237,39,20,17,284,26*7A
$GPGSV,3,3,11,07,16,087,31,11,05,061,,24,02,289,*41
$GLGSV,3,1,09,65,49,264,38,75,47,340,35,85,29,120,31,72,29,199,26*67
$GLGSV,3,2,09,74,28,047,30,84,27,062,20,66,19,325,25,76,16,282,16*69
$GLGSV,3,3,09,86,03,166,*50
$BDGSV,2,1,06,214,34,227,35,205,45,140,,212,32,152,,202,29,118,*6A
$BDGSV,2,2,06,208,27,063,,210,23,071,*60
$GPGSA,A,3,05,07,13,15,17,19,20,24,28,30,,,3.0,1.5,2.6*36
$GNGSA,A,3,05,07,13,15,17,19,20,24,28,30,,,3.0,1.5,2.6*28
$GNGSA,A,3,65,66,72,75,76,84,85,,,,,,3.0,1.5,2.6*2B
$QZGSA,A,3,,,,,,,,,,,,,3.0,1.5,2.6*2D
$IMGSA,A,3,,,,,,,,,,,,,3.0,1.5,2.6*22
$BDGSA,A,3,,,,,,,,,,,,,3.0,1.5,2.6*20
$GPRMC,062921.00,A,3205.032814,N,03448.154804,E,000.0,,170616,,,A*76
$GPGGA,062922.00,3205.033009,N,03448.155177,E,1,16,0.8,3.5,M,19.2,M,,*64
$GPGSV,3,1,11,28,62,026,37,13,62,316,24,17,45,140,36,30,39,070,29*73
$GPGSV,3,2,11,15,27,315,26,19,26,170,28,05,25,237,39,20,17,284,26*7A
$GPGSV,3,3,11,07,16,087,29,11,05,061,,24,02,289,*48
$GLGSV,3,1,09,65,49,264,38,75,47,340,34,85,29,120,31,72,29,199,26*66
$GLGSV,3,2,09,74,28,047,31,84,27,062,20,66,19,325,27,76,16,282,16*6A
$GLGSV,3,3,09,86,03,166,*50
$BDGSV,2,1,06,205,45,140,27,214,34,227,35,212,32,152,,202,29,118,*6F
$BDGSV,2,2,06,208,27,063,,210,23,071,*60
$GPGSA,A,3,05,13,15,17,19,20,24,28,30,,,,3.0,1.5,2.6*31
$GNGSA,A,3,05,13,15,17,19,20,24,28,30,,,,3.0,1.5,2.6*2F
$GNGSA,A,3,65,66,72,75,76,84,85,,,,,,3.0,1.5,2.6*2B
$QZGSA,A,3,,,,,,,,,,,,,3.0,1.5,2.6*2D
$IMGSA,A,3,,,,,,,,,,,,,3.0,1.5,2.6*22
$BDGSA,A,3,,,,,,,,,,,,,3.0,1.5,2.6*20
$GPRMC,062922.00,A,3205.033009,N,03448.155177,E,000.0,,170616,,,A*7C
$GPGGA,062923.00,3205.033269,N,03448.155038,E,1,16,0.8,6.7,M,19.2,M,,*6C
$GPGSV,3,1,11,28,62,026,36,13,62,316,25,17,45,140,35,30,39,070,29*70
$GPGSV,3,2,11,15,27,315,26,19,26,170,27,05,25,237,39,20,17,284,26*75
$GPGSV,3,3,11,07,16,087,27,11,05,061,,24,02,289,*46
$GLGSV,3,1,09,65,49,264,37,75,47,340,34,85,29,120,30,72,29,199,26*68
$GLGSV,3,2,09,74,28,047,32,84,27,062,20,66,19,325,27,76,16,282,15*6A
$GLGSV,3,3,09,86,03,166,*50
$BDGSV,2,1,06,205,45,140,26,214,34,227,35,212,32,152,,202,29,118,*6E
$BDGSV,2,2,06,208,27,063,,210,23,071,*60
$GPGSA,A,3,05,13,15,17,19,20,24,28,30,,,,3.0,1.5,2.6*31
$GNGSA,A,3,05,13,15,17,19,20,24,28,30,,,,3.0,1.5,2.6*2F
$GNGSA,A,3,65,66,72,75,76,84,85,,,,,,3.0,1.5,2.6*2B
$QZGSA,A,3,,,,,,,,,,,,,3.0,1.5,2.6*2D
$IMGSA,A,3,,,,,,,,,,,,,3.0,1.5,2.6*22
$BDGSA,A,3,,,,,,,,,,,,,3.0,1.5,2.6*20
$GPRMC,062923.00,A,3205.033269,N,03448.155038,E,000.0,,170616,,,A*73
$GPGGA,062924.00,3205.033628,N,03448.154817,E,1,14,0.8,8.5,M,19.2,M,,*60
$GPGSV,3,1,11,28,62,026,35,13,62,316,25,17,45,140,35,30,39,070,29*73
$GPGSV,3,2,11,15,27,315,28,19,26,170,27,05,25,237,39,20,17,284,25*78
$GPGSV,3,3,11,07,16,087,25,11,05,061,,24,02,289,*44
$GLGSV,3,1,09,65,49,264,36,75,47,340,33,85,29,120,29,72,29,199,26*66
$GLGSV,3,2,09,74,28,047,32,84,27,062,19,66,19,325,27,76,16,282,15*60
$GLGSV,3,3,09,86,03,166,*50
$BDGSV,2,1,06,205,45,140,26,214,34,227,36,212,32,152,,202,29,118,*6D
$BDGSV,2,2,06,208,27,063,,210,23,071,*60
$GPGSA,A,3,05,13,15,17,19,20,28,30,,,,,3.0,1.5,2.6*37
$GNGSA,A,3,05,13,15,17,19,20,28,30,,,,,3.0,1.5,2.6*29
$GNGSA,A,3,65,66,72,75,84,85,,,,,,,3.0,1.5,2.6*2A
$QZGSA,A,3,,,,,,,,,,,,,3.0,1.5,2.6*2D
$IMGSA,A,3,,,,,,,,,,,,,3.0,1.5,2.6*22
$BDGSA,A,3,,,,,,,,,,,,,3.0,1.5,2.6*20
$GPRMC,062924.00,A,3205.033628,N,03448.154817,E,000.0,,170616,,,A*71
$GPGGA,062925.00,3205.033104,N,03448.155821,E,1,14,1.6,0.2,M,19.2,M,,*6C
$GPGSV,3,1,11,13,62,316,30,28,62,026,34,17,45,140,35,30,39,070,29*76
$GPGSV,3,2,11,15,27,315,28,19,26,170,26,05,25,237,39,20,17,284,25*79
$GPGSV,3,3,11,07,16,087,22,11,05,061,,24,02,289,*43
$GLGSV,3,1,09,65,49,264,35,75,47,340,33,72,29,199,27,85,29,120,29*64
$GLGSV,3,2,09,74,28,047,34,84,27,062,19,66,19,325,27,76,16,282,15*66
$GLGSV,3,3,09,86,03,166,*50
$BDGSV,2,1,06,205,45,140,26,214,34,227,35,212,32,152,,202,29,118,*6E
$BDGSV,2,2,06,208,27,063,,210,23,071,*60
$GPGSA,A,3,05,13,15,17,19,20,28,30,,,,,2.9,1.5,2.5*3C
$GNGSA,A,3,05,13,15,17,19,20,28,30,,,,,2.9,1.5,2.5*22
$GNGSA,A,3,65,66,72,75,84,85,,,,,,,2.9,1.5,2.5*21
$QZGSA,A,3,,,,,,,,,,,,,2.9,1.5,2.5*26
$IMGSA,A,3,,,,,,,,,,,,,2.9,1.5,2.5*29
$BDGSA,A,3,,,,,,,,,,,,,2.9,1.5,2.5*2B
$GPRMC,062925.00,A,3205.033104,N,03448.155821,E,000.0,,170616,,,A*7D
$GPGGA,062926.00,3205.033048,N,03448.156664,E,1,14,1.2,0.0,M,19.2,M,,*6C
$GPGSV,3,1,11,13,62,316,35,28,62,026,34,17,45,140,35,30,39,070,29*73
$GPGSV,3,2,11,15,27,315,28,19,26,170,26,05,25,237,39,20,17,284,25*79
$GPGSV,3,3,11,07,16,087,18,11,05,061,,24,02,289,*4A
$GLGSV,3,1,09,65,49,264,35,75,47,340,34,72,29,199,27,85,29,120,28*62
$GLGSV,3,2,09,74,28,047,34,84,27,062,19,66,19,325,27,76,16,282,14*67
$GLGSV,3,3,09,86,03,166,*50
$BDGSV,2,1,06,205,45,140,25,214,34,227,35,212,32,152,,202,29,118,*6D
$BDGSV,2,2,06,208,27,063,,210,23,071,*60
$GPGSA,A,3,05,13,15,17,19,20,28,30,,,,,2.9,1.5,2.5*3C
$GNGSA,A,3,05,13,15,17,19,20,28,30,,,,,2.9,1.5,2.5*22
$GNGSA,A,3,65,66,72,75,84,85,,,,,,,2.9,1.5,2.5*21
$QZGSA,A,3,,,,,,,,,,,,,2.9,1.5,2.5*26
$IMGSA,A,3,,,,,,,,,,,,,2.9,1.5,2.5*29
$BDGSA,A,3,,,,,,,,,,,,,2.9,1.5,2.5*2B
$GPRMC,062926.00,A,3205.033048,N,03448.156664,E,000.0,,170616,,,A*7B
$GPGGA,062927.00,3205.033397,N,03448.156877,E,1,14,1.2,0.0,M,19.2,M,,*60
$GPGSV,3,1,11,28,62,026,33,13,62,316,37,17,45,140,35,30,39,070,28*77
$GPGSV,3,2,11,15,27,315,29,19,26,170,25,05,25,237,39,20,17,284,24*7A
$GPGSV,3,3,11,07,16,087,15,11,05,061,,24,02,289,*47
$GLGSV,3,1,09,65,49,264,34,75,47,340,34,85,29,120,28,72,29,199,26*62
$GLGSV,3,2,09,74,28,047,33,84,27,062,19,66,19,325,27,76,16,282,14*60
$GLGSV,3,3,09,86,03,166,*50
$BDGSV,2,1,06,205,45,140,25,214,34,227,35,212,32,152,,202,29,118,*6D
$BDGSV,2,2,06,208,27,063,,210,23,071,*60
$GPGSA,A,3,05,13,15,17,19,20,28,30,,,,,2.9,1.5,2.5*3C
$GNGSA,A,3,05,13,15,17,19,20,28,30,,,,,2.9,1.5,2.5*22
$GNGSA,A,3,65,66,72,75,84,85,,,,,,,2.9,1.5,2.5*21
$QZGSA,A,3,,,,,,,,,,,,,2.9,1.5,2.5*26
$IMGSA,A,3,,,,,,,,,,,,,2.9,1.5,2.5*29
$BDGSA,A,3,,,,,,,,,,,,,2.9,1.5,2.5*2B
$GPRMC,062927.00,A,3205.033397,N,03448.156877,E,000.0,,170616,,,A*77
$GPGGA,062928.00,3205.033732,N,03448.156873,E,1,14,0.8,0.1,M,19.2,M,,*6A
$GPGSV,3,1,11,28,62,026,33,13,62,316,38,17,45,140,35,30,39,070,28*78
$GPGSV,3,2,11,15,27,315,30,19,26,170,25,05,25,237,39,20,17,284,24*72
$GPGSV,3,3,11,07,16,087,14,11,05,061,,24,02,289,*46
$GLGSV,3,1,09,65,49,264,33,75,47,340,33,85,29,120,27,72,29,199,26*6D
$GLGSV,3,2,09,74,28,047,33,84,27,062,18,66,19,325,29,76,16,282,13*68
$GLGSV,3,3,09,86,03,166,*50
$BDGSV,2,1,06,205,45,140,24,214,34,227,35,212,32,151,,202,29,118,*6F
$BDGSV,2,2,06,208,27,063,,210,23,071,*60
$GPGSA,A,3,05,13,15,17,19,20,28,30,,,,,2.4,1.5,1.9*3E
$GNGSA,A,3,05,13,15,17,19,20,28,30,,,,,2.4,1.5,1.9*20
$GNGSA,A,3,65,66,72,75,84,85,,,,,,,2.4,1.5,1.9*23
$QZGSA,A,3,,,,,,,,,,,,,2.4,1.5,1.9*24
$IMGSA,A,3,,,,,,,,,,,,,2.4,1.5,1.9*2B
$BDGSA,A,3,,,,,,,,,,,,,2.4,1.5,1.9*29
$GPRMC,062928.00,A,3205.033732,N,03448.156873,E,000.0,,170616,,,A*77
$GPGGA,062929.00,3205.034358,N,03448.156797,E,1,14,0.8,3.1,M,19.2,M,,*62
$GPGSV,3,1,11,28,62,026,32,13,62,316,38,17,45,140,35,30,39,070,29*78
$GPGSV,3,2,11,15,27,315,33,19,26,170,25,05,25,237,39,20,17,284,23*76
$GPGSV,3,3,11,07,16,087,14,11,05,061,,24,02,289,*46
$GLGSV,3,1,09,65,49,264,32,75,47,340,33,85,29,120,27,72,29,199,26*6C
$GLGSV,3,2,09,74,28,047,33,84,27,062,19,66,19,325,29,76,16,282,13*69
$GLGSV,3,3,09,86,03,166,*50
$BDGSV,2,1,06,205,45,140,24,214,34,227,35,212,32,151,,202,29,118,*6F
$BDGSV,2,2,06,208,27,063,,210,23,071,*60
$GPGSA,A,3,05,13,15,17,19,20,28,30,,,,,2.4,1.5,1.9*3E
$GNGSA,A,3,05,13,15,17,19,20,28,30,,,,,2.4,1.5,1.9*20
$GNGSA,A,3,65,66,72,75,84,85,,,,,,,2.4,1.5,1.9*23
$QZGSA,A,3,,,,,,,,,,,,,2.4,1.5,1.9*24
$IMGSA,A,3,,,,,,,,,,,,,2.4,1.5,1.9*2B
$BDGSA,A,3,,,,,,,,,,,,,2.4,1.5,1.9*29
$GPRMC,062929.00,A,3205.034358,N,03448.156797,E,000.0,,170616,,,A*7C
$GPGGA,062930.00,3205.034682,N,03448.156769,E,1,14,1.2,6.6,M,19.2,M,,*60
$GPGSV,3,1,11,28,62,026,32,13,62,316,38,17,45,140,35,30,39,070,29*78
$GPGSV,3,2,11,15,27,315,33,19,26,170,24,05,25,237,38,20,17,284,23*76
$GPGSV,3,3,11,07,16,087,13,11,05,061,,24,02,289,*41
$GLGSV,3,1,09,65,49,264,31,75,47,340,33,85,29,120,27,72,29,199,25*6C
$GLGSV,3,2,09,74,28,047,32,84,27,062,19,66,19,325,29,76,16,282,12*69
$GLGSV,3,3,09,86,03,166,*50
$BDGSV,2,1,06,205,45,140,24,214,34,227,35,212,32,151,,202,29,118,*6F
$BDGSV,2,2,06,208,27,063,,210,23,071,*60
$GPGSA,A,3,05,13,15,17,19,20,28,30,,,,,2.4,1.4,1.9*3F
$GNGSA,A,3,05,13,15,17,19,20,28,30,,,,,2.4,1.4,1.9*21
$GNGSA,A,3,65,66,72,75,84,85,,,,,,,2.4,1.4,1.9*22
$QZGSA,A,3,,,,,,,,,,,,,2.4,1.4,1.9*25
$IMGSA,A,3,,,,,,,,,,,,,2.4,1.4,1.9*2A
$BDGSA,A,3,,,,,,,,,,,,,2.4,1.4,1.9*28
$GPRMC,062930.00,A,3205.034682,N,03448.156769,E,003.0,,170616,,,A*74
$GPGGA,062931.00,3205.034721,N,03448.156321,E,1,14,1.2,9.8,M,19.2,M,,*60
$GPGSV,3,1,11,28,62,026,31,13,62,316,37,17,45,140,34,30,39,070,29*75
$GPGSV,3,2,11,15,27,315,32,19,26,170,23,05,25,237,38,20,17,284,23*70
$GPGSV,3,3,11,07,16,087,12,11,05,061,,24,02,289,*40
$GLGSV,3,1,09,65,49,264,30,75,47,340,33,85,29,120,26,72,29,199,25*6C
$GLGSV,3,2,09,74,28,047,31,84,27,062,23,66,19,325,29,76,16,282,12*63
$GLGSV,3,3,09,86,03,166,*50
$BDGSV,2,1,06,205,45,140,23,214,34,227,34,212,32,151,,202,29,118,*69
$BDGSV,2,2,06,208,27,063,,210,23,071,*60
$GPGSA,A,3,05,13,15,17,19,20,28,30,,,,,2.0,1.1,1.7*30
$GNGSA,A,3,05,13,15,17,19,20,28,30,,,,,2.0,1.1,1.7*2E
$GNGSA,A,3,65,66,72,75,84,85,,,,,,,2.0,1.1,1.7*2D
$QZGSA,A,3,,,,,,,,,,,,,2.0,1.1,1.7*2A
$IMGSA,A,3,,,,,,,,,,,,,2.0,1.1,1.7*25
$BDGSA,A,3,,,,,,,,,,,,,2.0,1.1,1.7*27
$GPRMC,062931.00,A,3205.034721,N,03448.156321,E,000.0,,170616,,,A*76
$GPGGA,062932.00,3205.034808,N,03448.155980,E,1,14,1.2,13.7,M,19.2,M,,*51
$GPGSV,3,1,11,28,62,026,30,13,62,316,37,17,45,140,33,30,39,070,31*7A
$GPGSV,3,2,11,15,27,315,32,19,26,170,23,05,25,237,37,20,17,284,22*7E
$GPGSV,3,3,11,07,16,087,12,11,05,061,,24,02,289,*40
$GLGSV,3,1,09,65,49,264,29,75,47,340,32,85,29,120,26,72,29,199,24*64
$GLGSV,3,2,09,74,28,047,30,84,27,062,32,66,19,325,30,76,16,283,12*6B
$GLGSV,3,3,09,86,03,166,*50
$BDGSV,2,1,06,205,45,140,21,214,34,227,36,212,32,151,,202,29,118,*69
$BDGSV,2,2,06,208,27,063,,210,23,071,*60
$GPGSA,A,3,05,13,15,17,19,20,28,30,,,,,3.2,2.2,2.2*35
$GNGSA,A,3,05,13,15,17,19,20,28,30,,,,,3.2,2.2,2.2*2B
$GNGSA,A,3,65,66,72,75,84,85,,,,,,,3.2,2.2,2.2*28
$QZGSA,A,3,,,,,,,,,,,,,3.2,2.2,2.2*2F
$IMGSA,A,3,,,,,,,,,,,,,3.2,2.2,2.2*20
$BDGSA,A,3,,,,,,,,,,,,,3.2,2.2,2.2*22
$GPRMC,062932.00,A,3205.034808,N,03448.155980,E,000.0,,170616,,,A*73
$GPGGA,062933.00,3205.034810,N,03448.155976,E,1,14,1.2,17.9,M,19.2,M,,*5A
$GPGSV,3,1,11,28,62,026,30,13,62,316,36,17,45,140,31,30,39,070,32*7A
$GPGSV,3,2,11,15,27,315,32,19,26,170,23,05,25,237,36,20,17,284,22*7F
$GPGSV,3,3,11,07,16,087,12,11,05,061,,24,02,289,*40
$GLGSV,3,1,09,65,49,264,28,75,47,340,32,85,29,120,26,72,29,199,24*65
$GLGSV,3,2,09,74,28,047,29,84,27,062,32,66,19,325,30,76,16,283,11*60
$GLGSV,3,3,09,86,03,166,*50
$BDGSV,2,1,06,205,45,140,19,214,34,227,35,212,32,151,,202,29,118,*61
$BDGSV,2,2,06,208,27,063,,210,23,071,*60
$GPGSA,A,3,05,13,15,17,19,20,28,30,,,,,3.2,2.2,2.2*35
$GNGSA,A,3,05,13,15,17,19,20,28,30,,,,,3.2,2.2,2.2*2B
$GNGSA,A,3,65,66,72,75,84,85,,,,,,,3.2,2.2,2.2*28
$QZGSA,A,3,,,,,,,,,,,,,3.2,2.2,2.2*2F
$IMGSA,A,3,,,,,,,,,,,,,3.2,2.2,2.2*20
$BDGSA,A,3,,,,,,,,,,,,,3.2,2.2,2.2*22
$GPRMC,062933.00,A,3205.034810,N,03448.155976,E,000.0,,170616,,,A*72
$GPGGA,062934.00,3205.034810,N,03448.155976,E,1,14,1.2,23.7,M,19.2,M,,*54
$GPGSV,3,1,11,28,62,026,30,13,62,316,36,17,45,140,30,30,39,070,31*78
$GPGSV,3,2,11,15,27,315,34,19,26,170,23,05,25,237,36,20,17,284,22*79
$GPGSV,3,3,11,07,16,087,12,11,05,061,,24,02,289,*40
$GLGSV,3,1,09,65,49,264,28,75,47,340,32,85,29,120,26,72,29,199,24*65
$GLGSV,3,2,09,74,28,047,29,84,27,062,31,66,19,325,30,76,16,283,11*63
$GLGSV,3,3,09,86,03,166,*50
$BDGSV,2,1,06,205,45,140,15,214,34,227,35,212,32,151,,202,29,118,*6D
$BDGSV,2,2,06,208,27,063,,210,23,071,*60
$GPGSA,A,3,05,13,15,17,19,20,28,30,,,,,3.2,2.2,2.2*35
$GNGSA,A,3,05,13,15,17,19,20,28,30,,,,,3.2,2.2,2.2*2B
$GNGSA,A,3,65,66,72,75,84,85,,,,,,,3.2,2.2,2.2*28
$QZGSA,A,3,,,,,,,,,,,,,3.2,2.2,2.2*2F
$IMGSA,A,3,,,,,,,,,,,,,3.2,2.2,2.2*20
$BDGSA,A,3,,,,,,,,,,,,,3.2,2.2,2.2*22
$GPRMC,062934.00,A,3205.034810,N,03448.155976,E,000.0,,170616,,,A*75
$GPGGA,062935.00,3205.034810,N,03448.155976,E,1,14,0.8,30.3,M,19.2,M,,*58
$GPGSV,3,1,11,28,62,026,33,13,62,316,36,17,45,140,30,30,39,070,31*7B
$GPGSV,3,2,11,15,27,315,34,19,26,170,23,05,25,237,35,20,17,284,21*79
$GPGSV,3,3,11,07,16,087,12,11,05,061,,24,02,289,*40
$GLGSV,3,1,09,65,49,264,27,75,47,340,32,85,29,120,26,72,29,199,25*6B
$GLGSV,3,2,09,74,28,047,28,84,27,062,30,66,19,325,30,76,16,283,11*63
$GLGSV,3,3,09,86,03,166,*50
$BDGSV,2,1,06,205,45,140,11,214,34,227,34,212,32,151,,202,29,118,*68
$BDGSV,2,2,06,208,27,063,,210,23,071,*60
$GPGSA,A,3,05,13,15,17,19,20,28,30,,,,,2.0,1.3,1.5*30
$GNGSA,A,3,05,13,15,17,19,20,28,30,,,,,2.0,1.3,1.5*2E
$GNGSA,A,3,65,66,72,75,84,85,,,,,,,2.0,1.3,1.5*2D
$QZGSA,A,3,,,,,,,,,,,,,2.0,1.3,1.5*2A
$IMGSA,A,3,,,,,,,,,,,,,2.0,1.3,1.5*25
$BDGSA,A,3,,,,,,,,,,,,,2.0,1.3,1.5*27
$GPRMC,062935.00,A,3205.034810,N,03448.155976,E,000.0,,170616,,,A*74
$GPGGA,062936.00,3205.034810,N,03448.155976,E,1,15,1.6,35.7,M,19.2,M,,*54
$GPGSV,3,1,11,28,62,026,36,13,62,316,38,17,45,140,29,30,39,070,30*79
$GPGSV,3,2,11,15,27,315,34,19,26,170,23,05,25,237,34,20,17,284,21*78
$GPGSV,3,3,11,07,16,087,12,11,05,061,,24,02,289,*40
$GLGSV,3,1,09,65,49,264,27,75,47,340,32,85,30,120,26,72,29,199,25*63
$GLGSV,3,2,09,74,28,047,27,84,27,062,29,66,19,325,30,76,16,283,11*64
$GLGSV,3,3,09,86,03,166,*50
$BDGSV,2,1,06,214,34,227,34,205,45,140,,212,32,151,,202,29,118,*68
$BDGSV,2,2,06,208,27,063,,210,23,071,*60
$GPGSA,A,3,05,13,15,17,19,20,28,30,,,,,2.0,1.1,1.7*30
$GNGSA,A,3,05,13,15,17,19,20,28,30,,,,,2.0,1.1,1.7*2E
$GNGSA,A,3,65,66,72,75,84,85,86,,,,,,2.0,1.1,1.7*23
$QZGSA,A,3,,,,,,,,,,,,,2.0,1.1,1.7*2A
$IMGSA,A,3,,,,,,,,,,,,,2.0,1.1,1.7*25
$BDGSA,A,3,,,,,,,,,,,,,2.0,1.1,1.7*27
$GPRMC,062936.00,A,3205.034810,N,03448.155976,E,000.0,,170616,,,A*77
$GPGGA,062937.00,3205.034810,N,03448.155976,E,1,15,1.2,39.5,M,19.2,M,,*5F
$GPGSV,3,1,11,28,62,026,36,13,62,316,38,17,45,140,29,30,39,070,30*79
$GPGSV,3,2,11,15,27,315,34,19,26,170,23,05,25,237,34,20,17,284,21*78
$GPGSV,3,3,11,07,16,087,12,11,05,061,,24,02,289,*40
$GLGSV,3,1,09,65,49,264,26,75,47,340,32,85,30,120,26,72,29,199,25*62
$GLGSV,3,2,09,74,28,047,27,84,27,062,28,66,19,325,29,76,16,283,11*6D
$GLGSV,3,3,09,86,03,166,*50
$BDGSV,2,1,06,214,34,227,33,205,45,140,,212,32,151,,202,29,118,*6F
$BDGSV,2,2,06,208,27,063,,210,23,071,*60
$GPGSA,A,3,05,13,15,17,19,20,28,30,,,,,2.8,1.5,2.3*3B
$GNGSA,A,3,05,13,15,17,19,20,28,30,,,,,2.8,1.5,2.3*25
$GNGSA,A,3,65,66,72,75,84,85,86,,,,,,2.8,1.5,2.3*28
$QZGSA,A,3,,,,,,,,,,,,,2.8,1.5,2.3*21
$IMGSA,A,3,,,,,,,,,,,,,2.8,1.5,2.3*2E
$BDGSA,A,3,,,,,,,,,,,,,2.8,1.5,2.3*2C
$GPRMC,062937.00,A,3205.034810,N,03448.155976,E,000.0,,170616,,,A*76
$GPGGA,062938.00,3205.034810,N,03448.155976,E,1,15,1.2,42.0,M,19.2,M,,*59
$GPGSV,3,1,11,28,62,026,36,13,62,316,38,17,45,140,28,30,39,070,29*70
$GPGSV,3,2,11,15,27,315,34,19,26,170,23,05,25,237,33,20,17,284,21*7F
$GPGSV,3,3,11,07,16,087,12,11,05,061,,24,02,289,*40
$GLGSV,3,1,09,65,49,264,26,75,47,340,32,85,30,120,26,72,29,199,24*63
$GLGSV,3,2,09,74,28,047,27,84,27,062,27,66,19,325,29,76,16,283,11*62
$GLGSV,3,3,09,86,03,166,*50
$BDGSV,2,1,06,214,34,227,32,205,45,140,,212,32,151,,202,29,118,*6E
$BDGSV,2,2,06,208,27,063,,210,23,071,*60
$GPGSA,A,3,05,13,15,17,19,20,28,30,,,,,2.8,1.5,2.3*3B
$GNGSA,A,3,05,13,15,17,19,20,28,30,,,,,2.8,1.5,2.3*25
$GNGSA,A,3,65,66,72,75,84,85,86,,,,,,2.8,1.5,2.3*28
$QZGSA,A,3,,,,,,,,,,,,,2.8,1.5,2.3*21
$IMGSA,A,3,,,,,,,,,,,,,2.8,1.5,2.3*2E
$BDGSA,A,3,,,,,,,,,,,,,2.8,1.5,2.3*2C
$GPRMC,062938.00,A,3205.034810,N,03448.155976,E,000.0,,170616,,,A*79
$GPGGA,062939.00,3205.035698,N,03448.156387,E,1,15,2.4,42.2,M,19.2,M,,*57
$GPGSV,3,1,11,28,62,026,36,13,62,316,38,17,45,140,28,30,39,070,29*70
$GPGSV,3,2,11,15,27,315,33,19,26,170,22,05,25,237,32,20,17,284,21*78
$GPGSV,3,3,11,07,16,087,12,11,05,061,,24,02,289,*40
$GLGSV,3,1,09,65,49,264,25,75,47,340,32,85,30,120,25,72,29,199,25*62
$GLGSV,3,2,09,74,28,047,27,84,27,062,26,66,19,325,28,76,16,283,11*62
$GLGSV,3,3,09,86,03,166,*50
$BDGSV,2,1,06,214,34,227,31,205,45,140,,212,32,151,,202,29,118,*6D
$BDGSV,2,2,06,208,27,063,,210,23,071,*60
$GPGSA,A,3,05,13,15,17,19,20,28,30,,,,,2.3,1.2,2.0*34
$GNGSA,A,3,05,13,15,17,19,20,28,30,,,,,2.3,1.2,2.0*2A
$GNGSA,A,3,65,66,72,75,84,85,86,,,,,,2.3,1.2,2.0*27
$QZGSA,A,3,,,,,,,,,,,,,2.3,1.2,2.0*2E
$IMGSA,A,3,,,,,,,,,,,,,2.3,1.2,2.0*21
$BDGSA,A,3,,,,,,,,,,,,,2.3,1.2,2.0*23
$GPRMC,062939.00,A,3205.035698,N,03448.156387,E,001.0,,170616,,,A*71
$GPGGA,062940.00,3205.036121,N,03448.156497,E,1,15,2.4,42.4,M,19.2,M,,*5F
$GPGSV,3,1,11,28,62,026,36,13,62,316,37,17,45,140,27,30,39,070,29*70
$GPGSV,3,2,11,15,27,315,33,19,26,170,22,05,25,237,32,20,17,284,21*78
$GPGSV,3,3,11,07,16,087,11,11,05,061,,24,02,289,*43
$GLGSV,3,1,09,65,49,264,25,75,47,340,34,85,30,120,25,72,29,199,26*67
$GLGSV,3,2,09,74,28,047,27,84,27,062,26,66,19,325,28,76,16,283,11*62
$GLGSV,3,3,09,86,03,166,*50
$BDGSV,2,1,06,214,34,227,30,205,45,140,,212,32,151,,202,29,118,*6C
$BDGSV,2,2,06,208,27,063,,210,23,071,*60
$GPGSA,A,3,05,13,15,17,19,20,28,30,,,,,5.1,4.6,2.1*31
$GNGSA,A,3,05,13,15,17,19,20,28,30,,,,,5.1,4.6,2.1*2F
$GNGSA,A,3,65,66,72,75,84,85,86,,,,,,5.1,4.6,2.1*22
$QZGSA,A,3,,,,,,,,,,,,,5.1,4.6,2.1*2B
$IMGSA,A,3,,,,,,,,,,,,,5.1,4.6,2.1*24
$BDGSA,A,3,,,,,,,,,,,,,5.1,4.6,2.1*26
$GPRMC,062940.00,A,3205.036121,N,03448.156497,E,001.5,,170616,,,A*7A
$GPGGA,062941.00,3205.036458,N,03448.156578,E,1,16,2.4,42.7,M,19.2,M,,*55
$GPGSV,3,1,11,28,62,026,36,13,62,316,37,17,45,140,26,30,39,070,28*70
$GPGSV,3,2,11,15,27,315,33,19,26,170,27,05,25,237,31,20,17,284,22*7D
$GPGSV,3,3,11,07,16,087,12,11,05,061,,24,02,289,*40
$GLGSV,3,1,09,65,49,264,25,75,47,340,35,85,30,120,27,72,29,199,27*65
$GLGSV,3,2,09,74,28,047,26,84,27,062,25,66,19,325,27,76,16,283,12*6C
$GLGSV,3,3,09,86,03,166,*50
$BDGSV,2,1,06,214,34,227,29,205,45,140,,212,32,151,,202,29,118,*64
$BDGSV,2,2,06,208,27,063,,210,23,071,*60
$GPGSA,A,3,05,07,13,15,17,19,20,28,30,,,,2.8,2.0,1.9*33
$GNGSA,A,3,05,07,13,15,17,19,20,28,30,,,,2.8,2.0,1.9*2D
$GNGSA,A,3,65,66,72,75,84,85,86,,,,,,2.8,2.0,1.9*27
$QZGSA,A,3,,,,,,,,,,,,,2.8,2.0,1.9*2E
$IMGSA,A,3,,,,,,,,,,,,,2.8,2.0,1.9*21
$BDGSA,A,3,,,,,,,,,,,,,2.8,2.0,1.9*23
$GPRMC,062941.00,A,3205.036458,N,03448.156578,E,001.2,,170616,,,A*77
$GPGGA,062942.00,3205.036952,N,03448.156723,E,1,16,2.4,42.9,M,19.2,M,,*53
$GPGSV,3,1,11,28,62,026,36,13,62,316,38,17,45,140,26,30,39,070,28*7F
$GPGSV,3,2,11,15,27,315,34,19,26,170,26,05,25,237,30,20,17,284,21*79
$GPGSV,3,3,11,07,16,087,12,11,05,061,,24,02,289,*40
$GLGSV,3,1,09,65,49,264,25,75,47,340,35,85,30,120,26,72,29,199,27*64
$GLGSV,3,2,09,74,28,047,26,84,27,062,25,66,19,325,27,76,16,283,12*6C
$GLGSV,3,3,09,86,03,166,*50
$BDGSV,2,1,06,214,34,227,29,205,45,140,,212,32,151,,202,29,118,*64
$BDGSV,2,2,06,208,27,063,,210,23,071,*60
$GPGSA,A,3,05,07,13,15,17,19,20,28,30,,,,2.7,1.8,2.1*3C
$GNGSA,A,3,05,07,13,15,17,19,20,28,30,,,,2.7,1.8,2.1*22
$GNGSA,A,3,65,66,72,75,84,85,86,,,,,,2.7,1.8,2.1*28
$QZGSA,A,3,,,,,,,,,,,,,2.7,1.8,2.1*21
$IMGSA,A,3,,,,,,,,,,,,,2.7,1.8,2.1*2E
$BDGSA,A,3,,,,,,,,,,,,,2.7,1.8,2.1*2C
$GPRMC,062942.00,A,3205.036952,N,03448.156723,E,001.6,,170616,,,A*7B
$GPGGA,062943.00,3205.037353,N,03448.155794,E,1,15,1.2,43.0,M,19.2,M,,*59
$GPGSV,3,1,11,28,62,026,36,13,62,316,38,17,45,140,26,30,39,070,27*70
$GPGSV,3,2,11,15,27,315,36,19,26,170,26,05,25,237,30,20,17,284,21*7B
$GPGSV,3,3,11,07,16,087,12,11,05,061,,24,02,289,*40
$GLGSV,3,1,09,65,49,264,25,75,47,340,35,85,30,120,26,72,29,199,27*64
$GLGSV,3,2,09,74,28,047,26,84,27,062,24,66,19,325,27,76,16,283,12*6D
$GLGSV,3,3,09,86,03,166,*50
$BDGSV,2,1,06,214,34,227,28,205,45,140,,212,32,151,,202,29,118,*65
$BDGSV,2,2,06,208,27,063,,210,23,071,*60
$GPGSA,A,3,05,13,15,17,19,20,28,30,,,,,3.5,2.7,2.3*36
$GNGSA,A,3,05,13,15,17,19,20,28,30,,,,,3.5,2.7,2.3*28
$GNGSA,A,3,65,66,72,75,84,85,86,,,,,,3.5,2.7,2.3*25
$QZGSA,A,3,,,,,,,,,,,,,3.5,2.7,2.3*2C
$IMGSA,A,3,,,,,,,,,,,,,3.5,2.7,2.3*23
$BDGSA,A,3,,,,,,,,,,,,,3.5,2.7,2.3*21
$GPRMC,062943.00,A,3205.037353,N,03448.155794,E,001.8,,170616,,,A*71
$GPGGA,062944.00,3205.037409,N,03448.155028,E,1,16,1.2,43.0,M,19.2,M,,*55
$GPGSV,3,1,11,28,62,026,37,13,62,316,38,17,45,140,29,30,39,070,27*7E
$GPGSV,3,2,11,15,27,315,39,19,26,170,26,05,25,237,29,20,17,283,21*7B
$GPGSV,3,3,11,07,16,087,12,11,05,061,,24,02,289,*40
$GLGSV,3,1,09,65,49,264,26,75,47,340,35,85,30,120,26,72,29,199,27*67
$GLGSV,3,2,09,74,28,047,26,84,27,062,24,66,19,325,27,76,16,283,12*6D
$GLGSV,3,3,09,86,03,166,*50
$BDGSV,2,1,06,214,34,227,27,205,45,140,,212,32,151,,202,29,118,*6A
$BDGSV,2,2,06,208,27,063,,210,23,071,*60
$GPGSA,A,3,05,07,13,15,17,19,20,28,30,,,,2.7,1.6,2.2*31
$GNGSA,A,3,05,07,13,15,17,19,20,28,30,,,,2.7,1.6,2.2*2F
$GNGSA,A,3,65,66,72,75,84,85,86,,,,,,2.7,1.6,2.2*25
$QZGSA,A,3,,,,,,,,,,,,,2.7,1.6,2.2*2C
$IMGSA,A,3,,,,,,,,,,,,,2.7,1.6,2.2*23
$BDGSA,A,3,,,,,,,,,,,,,2.7,1.6,2.2*21
$GPRMC,062944.00,A,3205.037409,N,03448.155028,E,001.9,,170616,,,A*7F
$GPGGA,062945.00,3205.037476,N,03448.153782,E,1,15,1.2,42.8,M,19.2,M,,*57
$GPGSV,3,1,11,28,62,026,37,13,62,316,38,17,45,140,32,30,39,070,26*75
$GPGSV,3,2,11,15,27,315,39,19,26,170,26,05,25,237,29,20,17,283,21*7B
$GPGSV,3,3,11,07,16,087,13,11,05,061,,24,02,289,*41
$GLGSV,3,1,09,65,49,264,27,75,47,340,35,85,30,120,26,72,29,199,28*69
$GLGSV,3,2,09,74,28,047,26,84,27,062,23,66,19,325,26,76,16,283,12*6B
$GLGSV,3,3,09,86,03,166,*50
$BDGSV,2,1,06,214,34,227,27,205,45,140,,212,32,151,,202,29,118,*6A
$BDGSV,2,2,06,208,27,063,,210,23,071,*60
$GPGSA,A,3,05,07,13,15,17,19,20,28,30,,,,2.7,1.7,2.0*32
$GNGSA,A,3,05,07,13,15,17,19,20,28,30,,,,2.7,1.7,2.0*2C
$GNGSA,A,3,65,66,72,75,84,85,,,,,,,2.7,1.7,2.0*28
$QZGSA,A,3,,,,,,,,,,,,,2.7,1.7,2.0*2F
$IMGSA,A,3,,,,,,,,,,,,,2.7,1.7,2.0*20
$BDGSA,A,3,,,,,,,,,,,,,2.7,1.7,2.0*22
$GPRMC,062945.00,A,3205.037476,N,03448.153782,E,001.9,,170616,,,A*77
$GPGGA,062946.00,3205.037660,N,03448.152422,E,1,15,0.8,42.7,M,19.2,M,,*5D
$GPGSV,3,1,11,13,63,316,38,28,62,026,37,17,45,140,34,30,39,070,26*72
$GPGSV,3,2,11,15,27,315,40,19,26,170,25,05,25,237,28,20,17,283,21*77
$GPGSV,3,3,11,07,16,087,13,11,05,061,,24,02,289,*41
$GLGSV,3,1,09,65,49,264,27,75,47,340,35,85,30,120,26,72,29,199,29*68
$GLGSV,3,2,09,74,28,047,27,84,27,062,23,66,19,325,27,76,16,283,11*68
$GLGSV,3,3,09,86,03,166,*50
$BDGSV,2,1,06,214,34,227,26,205,45,140,,212,32,151,,202,29,118,*6B
$BDGSV,2,2,06,208,27,063,,210,23,071,*60
$GPGSA,A,3,05,07,13,15,17,19,20,28,30,,,,2.9,1.7,2.3*3F
$GNGSA,A,3,05,07,13,15,17,19,20,28,30,,,,2.9,1.7,2.3*21
$GNGSA,A,3,65,66,72,75,84,85,,,,,,,2.9,1.7,2.3*25
$QZGSA,A,3,,,,,,,,,,,,,2.9,1.7,2.3*22
$IMGSA,A,3,,,,,,,,,,,,,2.9,1.7,2.3*2D
$BDGSA,A,3,,,,,,,,,,,,,2.9,1.7,2.3*2F
$GPRMC,062946.00,A,3205.037660,N,03448.152422,E,002.0,237.7,170616,,,A*5C
$GPGGA,062947.00,3205.038470,N,03448.151239,E,1,15,0.8,42.6,M,19.2,M,,*5E
$GPGSV,3,1,11,13,63,316,38,28,62,026,36,17,45,140,38,30,39,070,26*7F
$GPGSV,3,2,11,15,27,315,40,19,26,170,26,05,25,237,28,20,17,283,20*75
$GPGSV,3,3,11,07,16,087,13,11,05,061,,24,02,289,*41
$GLGSV,3,1,09,65,49,264,27,75,47,340,35,85,30,120,26,72,29,199,30*60
$GLGSV,3,2,09,74,27,047,26,84,27,062,22,66,19,325,28,76,16,283,11*68
$GLGSV,3,3,09,86,03,166,*50
$BDGSV,2,1,06,214,34,227,26,205,45,140,,212,32,151,,202,29,118,*6B
$BDGSV,2,2,06,208,27,063,,210,23,071,*60
$GPGSA,A,3,05,07,13,15,17,19,20,28,30,,,,2.9,1.7,2.3*3F
$GNGSA,A,3,05,07,13,15,17,19,20,28,30,,,,2.9,1.7,2.3*21
$GNGSA,A,3,65,66,72,75,84,85,,,,,,,2.9,1.7,2.3*25
$QZGSA,A,3,,,,,,,,,,,,,2.9,1.7,2.3*22
$IMGSA,A,3,,,,,,,,,,,,,2.9,1.7,2.3*2D
$BDGSA,A,3,,,,,,,,,,,,,2.9,1.7,2.3*2F
$GPRMC,062947.00,A,3205.038470,N,03448.151239,E,002.0,240.5,170616,,,A*5C
$GPGGA,062948.00,3205.038485,N,03448.151228,E,1,15,0.8,42.6,M,19.2,M,,*5B
$GPGSV,3,1,11,13,63,316,37,28,62,026,36,17,45,140,38,30,39,070,26*70
$GPGSV,3,2,11,15,27,315,39,19,26,170,26,05,25,237,27,20,17,283,20*74
$GPGSV,3,3,11,07,16,087,13,11,05,061,,24,02,289,*41
$GLGSV,3,1,09,65,49,264,27,75,47,341,35,85,30,120,25,72,29,199,34*66
$GLGSV,3,2,09,74,27,047,26,84,27,062,22,66,19,325,28,76,17,283,11*69
$GLGSV,3,3,09,86,03,166,*50
$BDGSV,2,1,06,214,34,227,26,205,45,140,,212,32,151,,202,29,118,*6B
$BDGSV,2,2,06,208,27,063,,210,23,071,*60
$GPGSA,A,3,05,07,13,15,17,19,20,28,30,,,,2.9,1.7,2.3*3F
$GNGSA,A,3,05,07,13,15,17,19,20,28,30,,,,2.9,1.7,2.3*21
$GNGSA,A,3,65,66,72,75,84,85,,,,,,,2.9,1.7,2.3*25
$QZGSA,A,3,,,,,,,,,,,,,2.9,1.7,2.3*22
$IMGSA,A,3,,,,,,,,,,,,,2.9,1.7,2.3*2D
$BDGSA,A,3,,,,,,,,,,,,,2.9,1.7,2.3*2F
$GPRMC,062948.00,A,3205.038485,N,03448.151228,E,000.9,240.5,170616,,,A*52
$GPGGA,062949.00,3205.038485,N,03448.151228,E,1,15,0.8,42.5,M,19.2,M,,*59
$GPGSV,3,1,11,13,63,316,37,28,62,026,36,17,45,140,38,30,39,070,25*73
$GPGSV,3,2,11,15,27,315,39,19,26,170,26,05,25,237,27,20,17,283,20*74
$GPGSV,3,3,11,07,16,087,14,11,05,061,,24,02,289,*46
$GLGSV,3,1,09,65,49,264,26,75,47,341,35,85,30,120,27,72,29,199,37*66
$GLGSV,3,2,09,74,27,047,26,84,27,062,22,66,19,325,28,76,17,283,11*69
$GLGSV,3,3,09,86,03,166,*50
$BDGSV,2,1,06,214,34,227,28,205,45,140,,212,32,151,,202,29,118,*65
$BDGSV,2,2,06,208,27,063,,210,23,071,*60
$GPGSA,A,3,05,07,13,15,17,19,20,28,30,,,,2.9,1.7,2.3*3F
$GNGSA,A,3,05,07,13,15,17,19,20,28,30,,,,2.9,1.7,2.3*21
$GNGSA,A,3,65,66,72,75,84,85,,,,,,,2.9,1.7,2.3*25
$QZGSA,A,3,,,,,,,,,,,,,2.9,1.7,2.3*22
$IMGSA,A,3,,,,,,,,,,,,,2.9,1.7,2.3*2D
$BDGSA,A,3,,,,,,,,,,,,,2.9,1.7,2.3*2F
$GPRMC,062949.00,A,3205.038485,N,03448.151228,E,000.5,240.5,170616,,,A*5F
$GPGGA,062950.00,3205.038336,N,03448.150975,E,1,16,0.8,42.4,M,19.2,M,,*5E
$GPGSV,3,1,11,13,63,316,37,28,62,026,36,17,45,140,39,30,39,070,25*72
$GPGSV,3,2,11,15,27,315,38,19,26,170,25,05,25,237,29,20,17,283,22*7A
$GPGSV,3,3,11,07,16,087,14,11,05,061,,24,02,289,*46
$GLGSV,3,1,09,65,49,264,26,75,47,341,34,85,30,120,27,72,29,199,43*64
$GLGSV,3,2,09,74,27,047,26,84,27,062,22,66,19,325,27,76,17,283,11*66
$GLGSV,3,3,09,86,03,166,*50
$BDGSV,2,1,06,214,34,227,28,205,45,140,,212,32,151,,202,29,118,*65
$BDGSV,2,2,06,208,27,063,,210,23,071,*60
$GPGSA,A,3,05,07,13,15,17,19,20,28,30,,,,2.9,1.7,2.3*3F
$GNGSA,A,3,05,07,13,15,17,19,20,28,30,,,,2.9,1.7,2.3*21
$GNGSA,A,3,65,66,72,75,84,85,86,,,,,,2.9,1.7,2.3*2B
$QZGSA,A,3,,,,,,,,,,,,,2.9,1.7,2.3*22
$IMGSA,A,3,,,,,,,,,,,,,2.9,1.7,2.3*2D
$BDGSA,A,3,,,,,,,,,,,,,2.9,1.7,2.3*2F
$GPRMC,062950.00,A,3205.038336,N,03448.150975,E,001.4,240.5,170616,,,A*5A
$GPGGA,062951.00,3205.038223,N,03448.150899,E,1,16,0.8,42.3,M,19.2,M,,*5E
$GPGSV,3,1,11,13,63,316,37,28,62,026,37,17,45,140,40,30,39,070,25*7D
$GPGSV,3,2,11,15,27,315,37,19,26,170,25,05,25,237,29,20,17,283,22*75
$GPGSV,3,3,11,07,16,087,14,11,05,061,,24,02,289,*46
$GLGSV,3,1,09,65,49,264,26,75,47,341,34,85,30,120,26,72,29,199,42*64
$GLGSV,3,2,09,74,27,047,27,84,27,062,22,66,19,325,27,76,17,283,12*64
$GLGSV,3,3,09,86,03,166,*50
$BDGSV,2,1,06,214,34,227,27,205,45,140,,212,32,151,,202,29,118,*6A
$BDGSV,2,2,06,208,27,063,,210,23,071,*60
$GPGSA,A,3,05,07,13,15,17,19,20,28,30,,,,2.9,1.7,2.3*3F
$GNGSA,A,3,05,07,13,15,17,19,20,28,30,,,,2.9,1.7,2.3*21
$GNGSA,A,3,65,66,72,75,84,85,86,,,,,,2.9,1.7,2.3*2B
$QZGSA,A,3,,,,,,,,,,,,,2.9,1.7,2.3*22
$IMGSA,A,3,,,,,,,,,,,,,2.9,1.7,2.3*2D
$BDGSA,A,3,,,,,,,,,,,,,2.9,1.7,2.3*2F
$GPRMC,062951.00,A,3205.038223,N,03448.150899,E,001.9,167.2,170616,,,A*51
$GPGGA,062952.00,3205.038354,N,03448.150644,E,1,16,0.8,42.2,M,19.2,M,,*53
$GPGSV,3,1,11,13,63,316,37,28,62,026,39,17,45,140,42,30,39,070,26*72
$GPGSV,3,2,11,15,27,315,36,19,26,170,24,05,25,237,28,20,17,283,22*74
$GPGSV,3,3,11,07,16,087,19,11,05,061,,24,02,289,*4B
$GLGSV,3,1,09,65,49,264,25,75,47,341,34,85,30,120,26,72,29,199,42*67
$GLGSV,3,2,09,74,27,047,27,84,27,062,22,66,19,325,26,76,17,283,11*66
$GLGSV,3,3,09,86,03,166,*50
$BDGSV,2,1,06,214,34,227,27,205,45,140,,212,32,151,,202,29,118,*6A
$BDGSV,2,2,06,208,27,063,,210,23,071,*60
$GPGSA,A,3,05,07,13,15,17,19,20,28,30,,,,2.7,1.3,2.4*32
$GNGSA,A,3,05,07,13,15,17,19,20,28,30,,,,2.7,1.3,2.4*2C
$GNGSA,A,3,65,66,72,75,84,85,86,,,,,,2.7,1.3,2.4*26
$QZGSA,A,3,,,,,,,,,,,,,2.7,1.3,2.4*2F
$IMGSA,A,3,,,,,,,,,,,,,2.7,1.3,2.4*20
$BDGSA,A,3,,,,,,,,,,,,,2.7,1.3,2.4*22
$GPRMC,062952.00,A,3205.038354,N,03448.150644,E,002.0,166.4,170616,,,A*50
$GPGGA,062953.00,3205.038659,N,03448.150230,E,1,16,0.8,42.2,M,19.2,M,,*5D
$GPGSV,3,1,11,13,63,316,37,28,62,026,39,17,45,140,42,30,39,070,26*72
$GPGSV,3,2,11,15,27,315,35,19,26,169,24,05,25,237,28,20,17,283,23*7E
$GPGSV,3,3,11,07,16,087,18,11,05,061,,24,02,289,*4A
$GLGSV,3,1,09,65,49,264,25,75,47,341,34,85,30,120,27,72,29,199,41*65
$GLGSV,3,2,09,74,27,047,29,84,27,062,22,66,19,325,26,76,17,283,11*68
$GLGSV,3,3,09,86,03,166,*50
$BDGSV,2,1,06,214,34,227,28,205,45,140,,212,32,151,,202,29,118,*65
$BDGSV,2,2,06,208,27,063,,210,23,071,*60
$GPGSA,A,3,05,07,13,15,17,19,20,28,30,,,,2.7,1.3,2.4*32
$GNGSA,A,3,05,07,13,15,17,19,20,28,30,,,,2.7,1.3,2.4*2C
$GNGSA,A,3,65,66,72,75,84,85,86,,,,,,2.7,1.3,2.4*26
$QZGSA,A,3,,,,,,,,,,,,,2.7,1.3,2.4*2F
$IMGSA,A,3,,,,,,,,,,,,,2.7,1.3,2.4*20
$BDGSA,A,3,,,,,,,,,,,,,2.7,1.3,2.4*22
$GPRMC,062953.00,A,3205.038659,N,03448.150230,E,002.0,166.4,170616,,,A*5E
$GPGGA,062954.00,3205.038825,N,03448.149850,E,1,16,1.2,42.1,M,19.2,M,,*53
$GPGSV,3,1,11,13,63,316,37,28,62,026,39,17,45,140,42,30,39,070,28*7C
$GPGSV,3,2,11,15,27,315,34,19,26,169,24,05,25,237,28,20,17,283,23*7F
$GPGSV,3,3,11,07,16,087,21,11,05,061,,24,02,289,*40
$GLGSV,3,1,09,65,49,264,24,75,47,341,33,85,30,120,28,72,29,199,40*6D
$GLGSV,3,2,09,74,27,047,30,84,27,061,25,66,19,325,25,76,17,283,12*64
$GLGSV,3,3,09,86,03,166,*50
$BDGSV,2,1,06,214,34,227,30,205,45,140,,212,32,151,,202,29,118,*6C
$BDGSV,2,2,06,208,27,063,,210,23,071,*60
$GPGSA,A,3,05,07,13,15,17,19,20,28,30,,,,2.7,1.3,2.4*32
$GNGSA,A,3,05,07,13,15,17,19,20,28,30,,,,2.7,1.3,2.4*2C
$GNGSA,A,3,65,66,72,75,84,85,86,,,,,,2.7,1.3,2.4*26
$QZGSA,A,3,,,,,,,,,,,,,2.7,1.3,2.4*2F
$IMGSA,A,3,,,,,,,,,,,,,2.7,1.3,2.4*20
$BDGSA,A,3,,,,,,,,,,,,,2.7,1.3,2.4*22
$GPRMC,062954.00,A,3205.038825,N,03448.149850,E,002.1,166.1,170616,,,A*5C
$GPGGA,062955.00,3205.038676,N,03448.149574,E,1,16,0.8,42.1,M,19.2,M,,*5A
$GPGSV,3,1,11,13,63,316,37,28,62,026,39,17,45,140,41,30,39,070,28*7F
$GPGSV,3,2,11,15,27,315,34,19,26,169,24,05,25,237,28,20,17,283,23*7F
$GPGSV,3,3,11,07,16,087,20,11,05,061,,24,02,289,*41
$GLGSV,3,1,09,65,49,264,24,75,47,341,33,85,30,120,28,72,29,199,39*63
$GLGSV,3,2,09,74,27,047,30,84,27,061,29,66,19,325,25,76,17,283,11*6B
$GLGSV,3,3,09,86,03,166,*50
$BDGSV,2,1,06,214,34,227,30,205,45,140,,212,32,151,,202,29,118,*6C
$BDGSV,2,2,06,208,27,063,,210,23,071,*60
$GPGSA,A,3,05,07,13,15,17,19,20,28,30,,,,2.5,1.3,2.1*35
$GNGSA,A,3,05,07,13,15,17,19,20,28,30,,,,2.5,1.3,2.1*2B
$GNGSA,A,3,65,66,72,75,84,85,86,,,,,,2.5,1.3,2.1*21
$QZGSA,A,3,,,,,,,,,,,,,2.5,1.3,2.1*28
$IMGSA,A,3,,,,,,,,,,,,,2.5,1.3,2.1*27
$BDGSA,A,3,,,,,,,,,,,,,2.5,1.3,2.1*25
$GPRMC,062955.00,A,3205.038676,N,03448.149574,E,002.3,172.2,170616,,,A*5A
$GPGGA,062956.00,3205.038323,N,03448.149377,E,1,16,0.8,42.1,M,19.2,M,,*59
$GPGSV,3,1,11,13,63,316,37,28,62,026,39,17,45,140,41,30,39,070,28*7F
$GPGSV,3,2,11,15,27,315,33,19,26,169,24,05,25,237,28,20,17,283,24*7F
$GPGSV,3,3,11,07,16,087,20,11,05,061,,24,02,289,*41
$GLGSV,3,1,09,65,49,264,23,75,47,341,33,85,30,120,29,72,29,199,39*65
$GLGSV,3,2,09,74,27,047,30,84,27,061,31,66,19,325,25,76,17,283,12*61
$GLGSV,3,3,09,86,03,166,*50
$BDGSV,2,1,06,214,34,227,30,205,45,140,,212,32,151,,202,29,118,*6C
$BDGSV,2,2,06,208,27,063,,210,23,071,*60
$GPGSA,A,3,05,07,13,15,17,19,20,28,30,,,,2.5,1.3,2.1*35
$GNGSA,A,3,05,07,13,15,17,19,20,28,30,,,,2.5,1.3,2.1*2B
$GNGSA,A,3,65,66,72,75,84,85,86,,,,,,2.5,1.3,2.1*21
$QZGSA,A,3,,,,,,,,,,,,,2.5,1.3,2.1*28
$IMGSA,A,3,,,,,,,,,,,,,2.5,1.3,2.1*27
$BDGSA,A,3,,,,,,,,,,,,,2.5,1.3,2.1*25
$GPRMC,062956.00,A,3205.038323,N,03448.149377,E,002.4,176.3,170616,,,A*5B
$GPGGA,062957.00,3205.037853,N,03448.149386,E,1,17,0.8,42.2,M,19.2,M,,*57
$GPGSV,3,1,11,13,63,316,37,28,62,026,39,17,45,140,40,30,39,070,28*7E
$GPGSV,3,2,11,15,27,315,33,19,26,169,26,05,25,237,34,20,17,283,26*72
$GPGSV,3,3,11,07,16,087,19,11,05,061,,24,02,289,*4B
$GLGSV,3,1,09,65,49,264,23,75,47,341,33,85,30,120,34,72,29,199,38*68
$GLGSV,3,2,09,74,27,047,30,84,27,061,32,66,19,325,25,76,17,283,12*62
$GLGSV,3,3,09,86,03,166,*50
$BDGSV,2,1,06,214,34,227,30,205,45,140,,212,32,151,,202,29,118,*6C
$BDGSV,2,2,06,208,27,063,,210,23,071,*60
$GPGSA,A,3,05,07,13,15,17,19,20,28,30,,,,2.2,1.2,1.9*38
$GNGSA,A,3,05,07,13,15,17,19,20,28,30,,,,2.2,1.2,1.9*26
$GNGSA,A,3,65,66,72,75,76,84,85,86,,,,,2.2,1.2,1.9*2D
$QZGSA,A,3,,,,,,,,,,,,,2.2,1.2,1.9*25
$IMGSA,A,3,,,,,,,,,,,,,2.2,1.2,1.9*2A
$BDGSA,A,3,,,,,,,,,,,,,2.2,1.2,1.9*28
$GPRMC,062957.00,A,3205.037853,N,03448.149386,E,002.6,185.4,170616,,,A*5E
$GPGGA,062958.00,3205.037381,N,03448.149748,E,1,17,1.2,42.5,M,19.2,M,,*56
$GPGSV,3,1,11,13,63,316,37,28,62,026,39,17,45,140,40,30,39,070,27*71
$GPGSV,3,2,11,15,27,315,33,19,26,169,25,05,25,237,36,20,17,283,25*70
$GPGSV,3,3,11,07,16,087,20,11,05,061,,24,02,289,*41
$GLGSV,3,1,09,65,49,264,23,75,47,341,33,85,30,120,35,72,29,199,37*66
$GLGSV,3,2,09,74,27,047,30,84,27,061,31,66,19,325,24,76,17,283,12*60
$GLGSV,3,3,09,86,03,166,*50
$BDGSV,2,1,06,214,34,227,29,205,45,140,,212,32,151,,202,29,118,*64
$BDGSV,2,2,06,208,27,063,,210,23,071,*60
$GPGSA,A,3,05,07,13,15,17,19,20,28,30,,,,2.1,1.0,1.9*39
$GNGSA,A,3,05,07,13,15,17,19,20,28,30,,,,2.1,1.0,1.9*27
$GNGSA,A,3,65,66,72,75,76,84,85,86,,,,,2.1,1.0,1.9*2C
$QZGSA,A,3,,,,,,,,,,,,,2.1,1.0,1.9*24
$IMGSA,A,3,,,,,,,,,,,,,2.1,1.0,1.9*2B
$BDGSA,A,3,,,,,,,,,,,,,2.1,1.0,1.9*29
$GPRMC,062958.00,A,3205.037381,N,03448.149748,E,002.6,183.5,170616,,,A*54
$GPGGA,062959.00,3205.036711,N,03448.150120,E,1,16,1.6,42.9,M,19.2,M,,*52
$GPGSV,3,1,11,13,63,316,37,28,62,026,39,17,45,139,41,30,39,070,27*7E
$GPGSV,3,2,11,15,27,315,33,19,26,169,25,05,25,237,36,20,17,283,25*70
$GPGSV,3,3,11,07,16,087,20,11,05,061,,24,02,289,*41
$GLGSV,3,1,09,65,49,264,23,75,47,341,33,85,30,120,38,72,29,199,36*6A
$GLGSV,3,2,09,74,27,047,30,84,27,061,31,66,19,325,24,76,17,283,12*60
$GLGSV,3,3,09,86,03,166,*50
$BDGSV,2,1,06,214,34,227,31,205,45,140,,212,32,151,,202,29,118,*6D
$BDGSV,2,2,06,208,27,063,,210,23,071,*60
$GPGSA,A,3,05,07,13,15,17,19,20,28,30,,,,2.2,1.1,1.9*3B
$GNGSA,A,3,05,07,13,15,17,19,20,28,30,,,,2.2,1.1,1.9*25
$GNGSA,A,3,65,66,72,75,84,85,86,,,,,,2.2,1.1,1.9*2F
$QZGSA,A,3,,,,,,,,,,,,,2.2,1.1,1.9*26
$IMGSA,A,3,,,,,,,,,,,,,2.2,1.1,1.9*29
$BDGSA,A,3,,,,,,,,,,,,,2.2,1.1,1.9*2B
$GPRMC,062959.00,A,3205.036711,N,03448.150120,E,002.7,189.0,170616,,,A*57
$GPGGA,063000.00,3205.035931,N,03448.150511,E,1,16,1.6,43.2,M,19.2,M,,*55
$GPGSV,3,1,11,13,63,316,37,28,62,026,39,17,45,139,40,30,39,070,26*7E
$GPGSV,3,2,11,15,27,315,33,19,26,169,25,05,25,237,36,20,17,283,25*70
$GPGSV,3,3,11,07,16,087,19,11,05,061,,24,02,289,*4B
$GLGSV,3,1,09,65,49,264,23,75,47,341,32,85,30,120,38,72,29,199,35*68
$GLGSV,3,2,09,74,27,047,30,84,27,061,30,66,19,325,23,76,17,283,12*66
$GLGSV,3,3,09,86,03,166,*50
$BDGSV,2,1,06,214,34,227,36,205,45,140,,212,32,151,,202,29,118,*6A
$BDGSV,2,2,06,208,27,063,,210,23,071,*60
$GPGSA,A,3,05,07,13,15,17,19,20,28,30,,,,2.2,1.1,1.9*3B
$GNGSA,A,3,05,07,13,15,17,19,20,28,30,,,,2.2,1.1,1.9*25
$GNGSA,A,3,65,66,72,75,84,85,86,,,,,,2.2,1.1,1.9*2F
$QZGSA,A,3,,,,,,,,,,,,,2.2,1.1,1.9*26
$IMGSA,A,3,,,,,,,,,,,,,2.2,1.1,1.9*29
$BDGSA,A,3,,,,,,,,,,,,,2.2,1.1,1.9*2B
$GPRMC,063000.00,A,3205.035931,N,03448.150511,E,002.7,190.1,170616,,,A*53
$GPGGA,063001.00,3205.035157,N,03448.151041,E,1,16,1.2,43.6,M,19.2,M,,*5D
$GPGSV,3,1,11,13,63,316,39,28,62,026,39,17,45,139,40,30,39,070,26*70
$GPGSV,3,2,11,15,27,315,36,19,26,169,24,05,25,236,36,20,17,283,25*75
$GPGSV,3,3,11,07,16,087,19,11,05,061,,24,02,289,*4B
$GLGSV,3,1,09,65,49,264,23,75,47,341,32,85,30,120,37,72,29,199,35*67
$GLGSV,3,2,09,74,27,047,32,84,27,061,29,66,19,325,23,76,17,283,12*6C
$GLGSV,3,3,09,86,03,166,*50
$BDGSV,2,1,06,214,34,227,37,205,45,140,,212,32,151,,202,29,118,*6B
$BDGSV,2,2,06,208,27,063,,210,23,071,*60
$GPGSA,A,3,05,07,13,15,17,19,20,28,30,,,,2.7,1.4,2.3*32
$GNGSA,A,3,05,07,13,15,17,19,20,28,30,,,,2.7,1.4,2.3*2C
$GNGSA,A,3,65,66,72,75,84,85,86,,,,,,2.7,1.4,2.3*26
$QZGSA,A,3,,,,,,,,,,,,,2.7,1.4,2.3*2F
$IMGSA,A,3,,,,,,,,,,,,,2.7,1.4,2.3*20
$BDGSA,A,3,,,,,,,,,,,,,2.7,1.4,2.3*22
$GPRMC,063001.00,A,3205.035157,N,03448.151041,E,002.7,178.6,170616,,,A*5A
$GPGGA,063002.00,3205.034240,N,03448.151538,E,1,16,1.2,44.0,M,19.2,M,,*50
$GPGSV,3,1,11,13,63,316,40,28,62,026,38,17,45,139,40,30,39,070,26*7F
$GPGSV,3,2,11,15,27,315,36,19,26,169,24,05,25,236,35,20,17,283,25*76
$GPGSV,3,3,11,07,16,087,22,11,05,061,,24,02,289,*43
$GLGSV,3,1,09,65,49,264,23,75,47,341,32,85,30,120,37,72,29,199,34*66
$GLGSV,3,2,09,74,27,047,32,84,27,061,29,66,19,325,25,76,17,283,12*6A
$GLGSV,3,3,09,86,03,166,*50
$BDGSV,2,1,06,214,34,227,36,205,45,140,,212,32,151,,202,29,118,*6A
$BDGSV,2,2,06,208,27,063,,210,23,071,*60
$GPGSA,A,3,05,07,13,15,17,19,20,28,30,,,,2.2,1.2,1.9*38
$GNGSA,A,3,05,07,13,15,17,19,20,28,30,,,,2.2,1.2,1.9*26
$GNGSA,A,3,65,66,72,75,84,85,86,,,,,,2.2,1.2,1.9*2C
$QZGSA,A,3,,,,,,,,,,,,,2.2,1.2,1.9*25
$IMGSA,A,3,,,,,,,,,,,,,2.2,1.2,1.9*2A
$BDGSA,A,3,,,,,,,,,,,,,2.2,1.2,1.9*28
$GPRMC,063002.00,A,3205.034240,N,03448.151538,E,002.7,180.2,170616,,,A*55
$GPGGA,063003.00,3205.033334,N,03448.152153,E,1,17,0.8,44.3,M,19.2,M,,*57
$GPGSV,3,1,11,13,63,316,40,28,62,026,37,17,45,139,41,30,39,070,26*71
$GPGSV,3,2,11,15,27,315,35,19,26,169,24,05,25,236,35,20,17,283,25*75
$GPGSV,3,3,11,07,16,087,22,11,05,061,,24,02,289,*43
$GLGSV,3,1,09,65,49,264,23,75,47,341,32,85,30,120,36,72,29,199,34*67
$GLGSV,3,2,09,74,27,047,33,84,27,061,28,66,19,325,25,76,17,283,12*6A
$GLGSV,3,3,09,86,03,166,*50
$BDGSV,2,1,06,214,34,227,36,205,45,140,,212,32,151,,202,29,118,*6A
$BDGSV,2,2,06,208,27,063,,210,23,071,*60
$GPGSA,A,3,05,07,13,15,17,19,20,28,30,,,,3.1,1.6,2.6*32
$GNGSA,A,3,05,07,13,15,17,19,20,28,30,,,,3.1,1.6,2.6*2C
$GNGSA,A,3,65,66,72,75,76,84,85,86,,,,,3.1,1.6,2.6*27
$QZGSA,A,3,,,,,,,,,,,,,3.1,1.6,2.6*2F
$IMGSA,A,3,,,,,,,,,,,,,3.1,1.6,2.6*20
$BDGSA,A,3,,,,,,,,,,,,,3.1,1.6,2.6*22
$GPRMC,063003.00,A,3205.033334,N,03448.152153,E,002.7,175.9,170616,,,A*5A
$GPGGA,063004.00,3205.032542,N,03448.152815,E,1,17,0.8,44.6,M,19.2,M,,*58
$GPGSV,3,1,11,13,63,316,39,28,62,026,37,17,45,139,41,30,39,070,27*7E
$GPGSV,3,2,11,15,27,315,35,19,26,169,23,05,25,236,38,20,17,283,25*7F
$GPGSV,3,3,11,07,16,087,22,11,05,061,,24,02,289,*43
$GLGSV,3,1,09,65,49,264,26,75,47,341,32,85,30,120,35,72,29,199,33*66
$GLGSV,3,2,09,74,27,047,34,84,27,061,27,66,19,325,25,76,17,283,14*64
$GLGSV,3,3,09,86,03,166,*50
$BDGSV,2,1,06,214,34,227,38,205,45,140,,212,32,151,,202,29,118,*64
$BDGSV,2,2,06,208,27,063,,210,23,071,*60
$GPGSA,A,3,05,07,13,15,17,19,20,28,30,,,,3.1,1.6,2.6*32
$GNGSA,A,3,05,07,13,15,17,19,20,28,30,,,,3.1,1.6,2.6*2C
$GNGSA,A,3,65,66,72,75,76,84,85,86,,,,,3.1,1.6,2.6*27
$QZGSA,A,3,,,,,,,,,,,,,3.1,1.6,2.6*2F
$IMGSA,A,3,,,,,,,,,,,,,3.1,1.6,2.6*20
$BDGSA,A,3,,,,,,,,,,,,,3.1,1.6,2.6*22
$GPRMC,063004.00,A,3205.032542,N,03448.152815,E,002.7,164.7,170616,,,A*5E
$GPGGA,063005.00,3205.031090,N,03448.153789,E,1,17,1.2,44.7,M,19.2,M,,*51
$GPGSV,3,1,11,13,63,316,39,28,62,026,36,17,45,139,41,30,39,070,27*7F
$GPGSV,3,2,11,15,27,315,34,19,26,169,23,05,25,236,39,20,17,283,25*7F
$GPGSV,3,3,11,07,16,087,22,11,05,061,,24,02,289,*43
$GLGSV,3,1,09,65,49,264,26,75,47,341,32,85,30,120,35,72,29,199,33*66
$GLGSV,3,2,09,74,27,047,36,84,27,061,26,66,19,325,27,76,17,283,14*65
$GLGSV,3,3,09,86,03,166,*50
$BDGSV,2,1,06,214,34,227,38,205,45,140,,212,32,151,,202,29,118,*64
$BDGSV,2,2,06,208,27,063,,210,23,071,*60
$GPGSA,A,3,05,07,13,15,17,19,20,28,30,,,,2.4,1.5,1.9*39
$GNGSA,A,3,05,07,13,15,17,19,20,28,30,,,,2.4,1.5,1.9*27
$GNGSA,A,3,65,66,72,75,76,84,85,86,,,,,2.4,1.5,1.9*2C
$QZGSA,A,3,,,,,,,,,,,,,2.4,1.5,1.9*24
$IMGSA,A,3,,,,,,,,,,,,,2.4,1.5,1.9*2B
$BDGSA,A,3,,,,,,,,,,,,,2.4,1.5,1.9*29
$GPRMC,063005.00,A,3205.031090,N,03448.153789,E,002.7,154.2,170616,,,A*5B
$GPGGA,063006.00,3205.030500,N,03448.154182,E,1,17,1.2,44.8,M,19.2,M,,*5A
$GPGSV,3,1,11,13,63,316,38,28,62,026,35,17,45,139,41,30,39,070,27*7D
$GPGSV,3,2,11,15,27,315,34,19,26,169,24,05,25,236,39,20,17,283,26*7B
$GPGSV,3,3,11,07,16,087,24,11,05,061,,24,02,289,*45
$GLGSV,3,1,09,65,49,264,26,75,47,341,32,85,30,120,34,72,29,199,33*67
$GLGSV,3,2,09,74,27,047,35,84,27,061,25,66,19,325,27,76,17,283,14*65
$GLGSV,3,3,09,86,03,166,*50
$BDGSV,2,1,06,214,34,227,38,205,45,140,,212,32,151,,202,29,118,*64
$BDGSV,2,2,06,208,27,063,,210,23,071,*60
$GPGSA,A,3,05,07,13,15,17,19,20,28,30,,,,2.4,1.5,1.9*39
$GNGSA,A,3,05,07,13,15,17,19,20,28,30,,,,2.4,1.5,1.9*27
$GNGSA,A,3,65,66,72,75,76,84,85,86,,,,,2.4,1.5,1.9*2C
$QZGSA,A,3,,,,,,,,,,,,,2.4,1.5,1.9*24
$IMGSA,A,3,,,,,,,,,,,,,2.4,1.5,1.9*2B
$BDGSA,A,3,,,,,,,,,,,,,2.4,1.5,1.9*29
$GPRMC,063006.00,A,3205.030500,N,03448.154182,E,002.6,153.2,170616,,,A*59
$GPGGA,063007.00,3205.028636,N,03448.155393,E,1,17,1.2,44.8,M,19.2,M,,*57
$GPGSV,3,1,11,13,63,316,38,28,62,026,34,17,45,139,40,30,39,070,27*7D
$GPGSV,3,2,11,15,27,315,34,19,26,169,25,05,25,236,39,20,17,283,26*7A
$GPGSV,3,3,11,07,16,087,24,11,05,061,,24,02,289,*45
$GLGSV,3,1,09,65,49,264,32,75,47,341,32,85,30,120,34,72,29,199,33*62
$GLGSV,3,2,09,74,27,047,35,84,27,061,25,66,19,325,27,76,17,283,14*65
$GLGSV,3,3,09,86,03,166,*50
$BDGSV,2,1,06,214,34,227,38,205,45,140,,212,32,151,,202,29,118,*64
$BDGSV,2,2,06,208,27,063,,210,23,071,*60
$GPGSA,A,3,05,07,13,15,17,19,20,28,30,,,,2.9,1.5,2.5*3B
$GNGSA,A,3,05,07,13,15,17,19,20,28,30,,,,2.9,1.5,2.5*25
$GNGSA,A,3,65,66,72,75,76,84,85,86,,,,,2.9,1.5,2.5*2E
$QZGSA,A,3,,,,,,,,,,,,,2.9,1.5,2.5*26
$IMGSA,A,3,,,,,,,,,,,,,2.9,1.5,2.5*29
$BDGSA,A,3,,,,,,,,,,,,,2.9,1.5,2.5*2B
$GPRMC,063007.00,A,3205.028636,N,03448.155393,E,002.5,151.6,170616,,,A*51
$GPGGA,063008.00,3205.028142,N,03448.155796,E,1,17,1.2,44.8,M,19.2,M,,*5D
$GPGSV,3,1,11,13,63,316,37,28,62,026,33,17,45,139,40,30,39,070,27*75
$GPGSV,3,2,11,15,27,315,33,19,26,169,25,05,25,236,39,20,17,283,28*73
$GPGSV,3,3,11,07,16,087,24,11,05,061,,24,02,289,*45
$GLGSV,3,1,09,65,49,264,33,75,47,341,32,85,30,120,34,72,29,199,33*63
$GLGSV,3,2,09,74,27,047,35,84,27,061,24,66,19,325,27,76,17,283,14*64
$GLGSV,3,3,09,86,03,166,*50
$BDGSV,2,1,06,214,34,227,37,205,45,140,,212,32,151,,202,29,118,*6B
$BDGSV,2,2,06,208,27,063,,210,23,071,*60
$GPGSA,A,3,05,07,13,15,17,19,20,28,30,,,,2.9,1.5,2.5*3B
$GNGSA,A,3,05,07,13,15,17,19,20,28,30,,,,2.9,1.5,2.5*25
$GNGSA,A,3,65,66,72,75,76,84,85,86,,,,,2.9,1.5,2.5*2E
$QZGSA,A,3,,,,,,,,,,,,,2.9,1.5,2.5*26
$IMGSA,A,3,,,,,,,,,,,,,2.9,1.5,2.5*29
$BDGSA,A,3,,,,,,,,,,,,,2.9,1.5,2.5*2B
$GPRMC,063008.00,A,3205.028142,N,03448.155796,E,002.5,146.9,170616,,,A*52
$GPGGA,063009.00,3205.027479,N,03448.156214,E,1,17,1.6,44.6,M,19.2,M,,*58
$GPGSV,3,1,11,13,63,316,36,28,62,026,33,17,45,139,41,30,39,070,26*74
$GPGSV,3,2,11,15,27,315,34,19,26,169,25,05,25,236,39,20,17,283,27*7B
$GPGSV,3,3,11,07,16,087,24,11,05,061,,24,02,289,*45
$GLGSV,3,1,09,65,49,264,37,75,47,341,32,85,30,120,34,72,29,199,35*61
$GLGSV,3,2,09,74,27,047,35,84,27,061,24,66,19,325,26,76,17,283,15*64
$GLGSV,3,3,09,86,03,166,*50
$BDGSV,2,1,06,214,34,227,37,205,45,140,,212,32,151,,202,29,118,*6B
$BDGSV,2,2,06,208,27,063,,210,23,071,*60
$GPGSA,A,3,05,07,13,15,17,19,20,28,30,,,,2.9,1.5,2.5*3B
$GNGSA,A,3,05,07,13,15,17,19,20,28,30,,,,2.9,1.5,2.5*25
$GNGSA,A,3,65,66,72,75,76,84,85,86,,,,,2.9,1.5,2.5*2E
$QZGSA,A,3,,,,,,,,,,,,,2.9,1.5,2.5*26
$IMGSA,A,3,,,,,,,,,,,,,2.9,1.5,2.5*29
$BDGSA,A,3,,,,,,,,,,,,,2.9,1.5,2.5*2B
$GPRMC,063009.00,A,3205.027479,N,03448.156214,E,002.4,149.9,170616,,,A*53
$GPGGA,063010.00,3205.025882,N,03448.157289,E,1,17,1.6,44.3,M,19.2,M,,*5A
$GPGSV,3,1,11,13,63,316,36,28,62,026,32,17,45,139,40,30,39,070,26*74
$GPGSV,3,2,11,15,27,315,34,19,26,169,25,05,25,236,38,20,17,283,27*7A
$GPGSV,3,3,11,07,16,087,24,11,05,061,,24,02,289,*45
$GLGSV,3,1,09,65,49,264,37,75,47,341,32,85,30,120,33,72,29,199,34*67
$GLGSV,3,2,09,74,27,047,35,84,27,061,23,66,19,325,26,76,17,283,15*63
$GLGSV,3,3,09,86,03,166,*50
$BDGSV,2,1,06,214,34,227,36,205,45,140,,212,32,151,,202,29,118,*6A
$BDGSV,2,2,06,208,27,063,,210,23,071,*60
$GPGSA,A,3,05,07,13,15,17,19,20,28,30,,,,2.9,1.5,2.5*3B
$GNGSA,A,3,05,07,13,15,17,19,20,28,30,,,,2.9,1.5,2.5*25
$GNGSA,A,3,65,66,72,75,76,84,85,86,,,,,2.9,1.5,2.5*2E
$QZGSA,A,3,,,,,,,,,,,,,2.9,1.5,2.5*26
$IMGSA,A,3,,,,,,,,,,,,,2.9,1.5,2.5*29
$BDGSA,A,3,,,,,,,,,,,,,2.9,1.5,2.5*2B
$GPRMC,063010.00,A,3205.025882,N,03448.157289,E,002.4,147.2,170616,,,A*51
$GPGGA,063011.00,3205.025103,N,03448.157659,E,1,17,1.2,44.0,M,19.2,M,,*55
$GPGSV,3,1,11,13,63,316,35,28,62,026,31,17,45,139,40,30,39,070,26*74
$GPGSV,3,2,11,15,27,315,33,19,26,169,25,05,25,236,38,20,17,283,27*7D
$GPGSV,3,3,11,07,16,087,26,11,05,061,,24,02,289,*47
$GLGSV,3,1,09,65,49,264,37,75,47,341,32,85,30,120,33,72,29,199,34*67
$GLGSV,3,2,09,74,27,047,34,84,27,061,23,66,19,325,25,76,17,283,15*61
$GLGSV,3,3,09,86,03,166,*50
$BDGSV,2,1,06,214,34,227,36,205,45,140,,212,32,151,,202,29,118,*6A
$BDGSV,2,2,06,208,27,063,,210,23,071,*60
$GPGSA,A,3,05,07,13,15,17,19,20,28,30,,,,2.9,1.5,2.5*3B
$GNGSA,A,3,05,07,13,15,17,19,20,28,30,,,,2.9,1.5,2.5*25
$GNGSA,A,3,65,66,72,75,76,84,85,86,,,,,2.9,1.5,2.5*2E
$QZGSA,A,3,,,,,,,,,,,,,2.9,1.5,2.5*26
$IMGSA,A,3,,,,,,,,,,,,,2.9,1.5,2.5*29
$BDGSA,A,3,,,,,,,,,,,,,2.9,1.5,2.5*2B
$GPRMC,063011.00,A,3205.025103,N,03448.157659,E,002.4,153.4,170616,,,A*5A
$GPGGA,063012.00,3205.022990,N,03448.158610,E,1,17,1.2,43.6,M,19.2,M,,*50
$GPGSV,3,1,11,13,63,316,35,28,62,026,31,17,45,139,40,30,39,070,26*74
