$GPGGA,063358.15,,,,,0,00,999.9,,M,,M,,*69
$GPGSV,3,1,11,13,64,314,,28,60,027,,17,47,138,,30,38,072,*76
$GPGSV,3,2,11,15,29,314,,19,28,169,,05,23,235,,20,16,282,*70
$GPGSV,3,3,11,07,15,089,,11,05,059,,24,03,290,*4C
$GLGSV,3,1,09,65,48,261,,75,47,344,,85,31,118,,72,27,199,*60
$GLGSV,3,2,09,84,27,059,,74,26,049,,66,21,323,,76,17,285,*6B
$GLGSV,3,3,09,86,05,165,*55
$BDGSV,2,1,06,205,45,140,,212,34,150,,214,33,226,,202,29,118,*6E
$BDGSV,2,2,06,208,27,062,,210,23,072,*62
$GPGSA,A,1,,,,,,,,,,,,,140.0,99.0,99.0*35
$GNGSA,A,1,,,,,,,,,,,,,140.0,99.0,99.0*2B
$GNGSA,A,1,,,,,,,,,,,,,140.0,99.0,99.0*2B
$QZGSA,A,1,,,,,,,,,,,,,140.0,99.0,99.0*29
$IMGSA,A,1,,,,,,,,,,,,,140.0,99.0,99.0*26
$BDGSA,A,1,,,,,,,,,,,,,140.0,99.0,99.0*24
$GPRMC,063358.15,V,,,,,,,170616,,,N*75
$GPGGA,063358.91,,,,,0,00,999.9,,M,,M,,*65
$GPGSV,3,1,11,20,16,282,25,13,64,314,,28,60,027,,17,47,138,*71
$GPGSV,3,2,11,30,38,072,,15,29,314,,19,28,169,,05,23,235,*70
$GPGSV,3,3,11,07,15,089,,11,05,059,,24,03,290,*4C
$GLGSV,3,1,09,65,48,261,,75,47,344,,85,31,118,,72,27,199,*60
$GLGSV,3,2,09,84,27,059,,74,26,049,,66,21,323,,76,17,285,*6B
$GLGSV,3,3,09,86,05,165,*55
$BDGSV,2,1,06,205,45,140,,212,34,150,,214,33,226,,202,29,118,*6E
$BDGSV,2,2,06,208,27,062,,210,23,072,*62
$GPGSA,A,1,,,,,,,,,,,,,140.0,99.0,99.0*35
$GNGSA,A,1,,,,,,,,,,,,,140.0,99.0,99.0*2B
$GNGSA,A,1,,,,,,,,,,,,,140.0,99.0,99.0*2B
$QZGSA,A,1,,,,,,,,,,,,,140.0,99.0,99.0*29
$IMGSA,A,1,,,,,,,,,,,,,140.0,99.0,99.0*26
$BDGSA,A,1,,,,,,,,,,,,,140.0,99.0,99.0*24
$GPRMC,063358.91,V,,,,,,,170616,,,N*79
$GPGGA,063359.15,,,,,0,00,999.9,,M,,M,,*68
$GPGSV,3,1,11,28,60,027,26,17,47,138,23,15,29,314,31,19,28,169,27*7A
$GPGSV,3,2,11,05,23,235,24,20,16,282,25,13,64,314,,30,38,072,*7F
$GPGSV,3,3,11,07,15,089,,11,05,059,,24,03,290,*4C
$GLGSV,3,1,09,75,47,344,32,65,48,261,,85,31,118,,84,27,059,*65
$GLGSV,3,2,09,72,27,199,,74,26,049,,66,21,323,,76,17,285,*6F
$GLGSV,3,3,09,86,05,165,*55
$BDGSV,2,1,06,205,45,140,,212,34,150,,214,33,226,,202,29,118,*6E
$BDGSV,2,2,06,208,27,062,,210,23,072,*62
$GPGSA,A,1,,,,,,,,,,,,,140.0,99.0,99.0*35
$GNGSA,A,1,,,,,,,,,,,,,140.0,99.0,99.0*2B
$GNGSA,A,1,,,,,,,,,,,,,140.0,99.0,99.0*2B
$QZGSA,A,1,,,,,,,,,,,,,140.0,99.0,99.0*29
$IMGSA,A,1,,,,,,,,,,,,,140.0,99.0,99.0*26
$BDGSA,A,1,,,,,,,,,,,,,140.0,99.0,99.0*24
$GPRMC,063359.15,V,,,,,,,170616,,,N*74
$GPGGA,063400.15,,,,,0,00,999.9,,M,,M,,*63
$GPGSV,3,1,11,28,60,027,27,17,47,138,24,15,29,314,31,19,28,169,27*7C
$GPGSV,3,2,11,05,23,235,24,20,16,282,25,13,64,314,,30,38,072,*7F
$GPGSV,3,3,11,07,15,089,,11,05,059,,24,03,290,*4C
$GLGSV,3,1,09,75,47,344,32,85,31,118,33,65,48,260,,84,27,059,*64
$GLGSV,3,2,09,72,27,199,,74,26,049,,66,21,323,,76,17,285,*6F
$GLGSV,3,3,09,86,05,165,*55
$BDGSV,2,1,06,214,33,226,33,205,45,140,,212,34,150,,202,29,118,*6E
$BDGSV,2,2,06,208,27,062,,210,23,072,*62
$GPGSA,A,1,,,,,,,,,,,,,140.0,99.0,99.0*35
$GNGSA,A,1,,,,,,,,,,,,,140.0,99.0,99.0*2B
$GNGSA,A,1,,,,,,,,,,,,,140.0,99.0,99.0*2B
$QZGSA,A,1,,,,,,,,,,,,,140.0,99.0,99.0*29
$IMGSA,A,1,,,,,,,,,,,,,140.0,99.0,99.0*26
$BDGSA,A,1,,,,,,,,,,,,,140.0,99.0,99.0*24
$GPRMC,063400.15,V,,,,,,,170616,,,N*7F
$GPGGA,063401.12,3205.039517,N,03448.172746,E,1,08,3.2,179.1,M,19.2,M,,*65
$GPGSV,3,1,11,13,64,314,12,28,60,027,27,17,47,138,25,30,38,072,14*72
$GPGSV,3,2,11,15,29,314,31,19,28,169,27,05,23,235,23,20,16,282,24*70
$GPGSV,3,3,11,07,15,089,30,11,05,059,,24,03,290,*4F
$GLGSV,3,1,09,65,48,260,38,75,47,344,31,85,31,118,33,72,27,199,*68
$GLGSV,3,2,09,84,27,059,,74,26,049,,66,21,323,,76,17,285,*6B
$GLGSV,3,3,09,86,05,165,*55
$BDGSV,2,1,06,214,33,226,33,205,45,140,,212,34,150,,202,29,118,*6E
$BDGSV,2,2,06,208,27,062,,210,23,072,*62
$GPGSA,A,3,07,15,17,19,28,,,,,,,,2.5,1.2,2.1*32
$GNGSA,A,3,07,15,17,19,28,,,,,,,,2.5,1.2,2.1*2C
$GNGSA,A,3,65,75,85,,,,,,,,,,2.5,1.2,2.1*27
$QZGSA,A,3,,,,,,,,,,,,,2.5,1.2,2.1*29
$IMGSA,A,3,,,,,,,,,,,,,2.5,1.2,2.1*26
$BDGSA,A,3,,,,,,,,,,,,,2.5,1.2,2.1*24
$GPRMC,063401.12,A,3205.039517,N,03448.172746,E,001.2,223.6,170616,,,A*5B
$GPGGA,063402.12,3205.034226,N,03448.155374,E,1,10,0.1,143.2,M,19.2,M,,*6D
$GPGSV,3,1,11,13,64,314,21,28,60,027,30,17,47,138,24,30,38,072,15*74
$GPGSV,3,2,11,15,29,314,30,19,28,169,28,05,23,235,27,20,16,282,24*7A
$GPGSV,3,3,11,07,15,089,30,11,05,059,,24,03,290,*4F
$GLGSV,3,1,09,65,48,260,37,75,47,344,31,85,31,118,33,84,27,059,18*6A
$GLGSV,3,2,09,74,26,049,26,72,27,199,,66,21,323,,76,17,285,*6B
$GLGSV,3,3,09,86,05,165,*55
$BDGSV,2,1,06,214,33,226,33,205,45,140,,212,34,150,,202,29,118,*6E
$BDGSV,2,2,06,208,27,062,,210,23,072,*62
$GPGSA,A,3,05,07,17,19,20,28,30,,,,,,2.0,1.1,1.8*3E
$GNGSA,A,3,05,07,17,19,20,28,30,,,,,,2.0,1.1,1.8*20
$GNGSA,A,3,65,75,85,,,,,,,,,,2.0,1.1,1.8*2B
$QZGSA,A,3,,,,,,,,,,,,,2.0,1.1,1.8*25
$IMGSA,A,3,,,,,,,,,,,,,2.0,1.1,1.8*2A
$BDGSA,A,3,,,,,,,,,,,,,2.0,1.1,1.8*28
$GPRMC,063402.12,A,3205.034226,N,03448.155374,E,000.2,065.2,170616,,,A*55
$GPGGA,063403.04,3205.034328,N,03448.155072,E,1,13,3.2,139.3,M,19.2,M,,*6E
$GPGSV,3,1,11,13,64,314,24,28,60,027,33,17,47,138,24,30,38,072,21*75
$GPGSV,3,2,11,15,29,314,30,19,28,169,28,05,23,235,31,20,16,282,24*7D
$GPGSV,3,3,11,07,15,089,30,11,05,059,,24,03,290,*4F
$GLGSV,3,1,09,65,48,260,37,75,47,344,30,85,31,118,33,84,27,059,17*64
$GLGSV,3,2,09,74,26,049,26,72,27,199,,66,21,323,,76,17,285,*6B
$GLGSV,3,3,09,86,05,165,*55
$BDGSV,2,1,06,214,33,226,35,205,45,140,,212,34,150,,202,29,118,*68
$BDGSV,2,2,06,208,27,062,,210,23,072,*62
$GPGSA,A,3,05,07,13,15,17,19,20,28,30,,,,3.2,1.2,3.0*32
$GNGSA,A,3,05,07,13,15,17,19,20,28,30,,,,3.2,1.2,3.0*2C
$GNGSA,A,3,65,75,84,85,,,,,,,,,3.2,1.2,3.0*2D
$QZGSA,A,3,,,,,,,,,,,,,3.2,1.2,3.0*2F
$IMGSA,A,3,,,,,,,,,,,,,3.2,1.2,3.0*20
$BDGSA,A,3,,,,,,,,,,,,,3.2,1.2,3.0*22
$GPRMC,063403.04,A,3205.034328,N,03448.155072,E,,,170616,,,A*5A
$GPGGA,063404.15,3205.034245,N,03448.155315,E,1,15,2.4,119.6,M,19.2,M,,*67
$GPGSV,3,1,11,13,64,314,24,28,60,027,34,17,47,138,26,30,38,072,24*75
$GPGSV,3,2,11,15,29,314,29,19,28,169,28,05,23,235,31,20,16,282,24*75
$GPGSV,3,3,11,07,15,089,30,11,05,059,,24,03,290,*4F
$GLGSV,3,1,09,65,48,260,37,75,47,344,30,85,31,118,34,72,27,199,26*65
$GLGSV,3,2,09,84,27,059,17,74,26,049,25,66,21,323,21,76,17,285,*69
$GLGSV,3,3,09,86,05,165,*55
$BDGSV,2,1,06,214,33,226,36,205,45,140,,212,34,150,,202,29,118,*6B
$BDGSV,2,2,06,208,27,062,,210,23,072,*62
$GPGSA,A,3,05,07,13,15,17,19,20,28,30,,,,2.8,1.4,2.4*3A
$GNGSA,A,3,05,07,13,15,17,19,20,28,30,,,,2.8,1.4,2.4*24
$GNGSA,A,3,65,66,72,75,84,85,,,,,,,2.8,1.4,2.4*20
$QZGSA,A,3,,,,,,,,,,,,,2.8,1.4,2.4*27
$IMGSA,A,3,,,,,,,,,,,,,2.8,1.4,2.4*28
$BDGSA,A,3,,,,,,,,,,,,,2.8,1.4,2.4*2A
$GPRMC,063404.15,A,3205.034245,N,03448.155315,E,000.0,,170616,,,A*7B
$GPGGA,063405.15,3205.034565,N,03448.156396,E,1,17,2.4,89.6,M,19.2,M,,*51
$GPGSV,3,1,11,13,64,314,24,28,60,027,34,17,47,138,29,30,38,072,23*7D
$GPGSV,3,2,11,15,29,314,28,19,28,169,28,05,23,235,31,20,16,282,24*74
$GPGSV,3,3,11,07,15,089,29,11,05,059,,24,03,290,*47
$GLGSV,3,1,09,65,48,260,37,75,47,344,32,85,31,118,34,84,27,059,19*6F
$GLGSV,3,2,09,72,27,199,25,74,26,049,25,66,21,323,21,76,17,285,17*6A
$GLGSV,3,3,09,86,05,165,21*56
$BDGSV,2,1,06,214,33,226,36,205,45,140,,212,34,150,,202,29,118,*6B
$BDGSV,2,2,06,208,27,062,,210,23,072,*62
$GPGSA,A,3,05,07,13,15,17,19,20,28,30,,,,2.3,1.2,1.9*39
$GNGSA,A,3,05,07,13,15,17,19,20,28,30,,,,2.3,1.2,1.9*27
$GNGSA,A,3,65,66,72,75,76,84,85,86,,,,,2.3,1.2,1.9*2C
$QZGSA,A,3,,,,,,,,,,,,,2.3,1.2,1.9*24
$IMGSA,A,3,,,,,,,,,,,,,2.3,1.2,1.9*2B
$BDGSA,A,3,,,,,,,,,,,,,2.3,1.2,1.9*29
$GPRMC,063405.15,A,3205.034565,N,03448.156396,E,000.0,,170616,,,A*77
$GPGGA,063406.00,3205.034564,N,03448.156411,E,1,18,2.4,57.1,M,19.2,M,,*54
$GPGSV,3,1,11,13,64,314,24,28,60,027,34,17,47,138,30,30,38,072,25*73
$GPGSV,3,2,11,15,29,314,28,19,28,169,28,05,23,235,31,20,16,282,24*74
$GPGSV,3,3,11,07,15,089,36,11,05,059,,24,03,290,*49
$GLGSV,3,1,09,65,48,260,40,75,47,344,34,85,31,118,35,84,27,059,20*62
$GLGSV,3,2,09,72,27,199,25,74,26,049,25,66,21,323,21,76,17,285,17*6A
$GLGSV,3,3,09,86,05,165,21*56
$BDGSV,2,1,06,214,33,226,35,205,45,140,,212,34,150,,202,29,118,*68
$BDGSV,2,2,06,208,27,062,,210,23,072,*62
$GPGSA,A,3,05,07,13,15,17,19,20,24,28,30,,,2.4,1.2,2.0*32
$GNGSA,A,3,05,07,13,15,17,19,20,24,28,30,,,2.4,1.2,2.0*2C
$GNGSA,A,3,65,66,72,75,76,84,85,86,,,,,2.4,1.2,2.0*21
$QZGSA,A,3,,,,,,,,,,,,,2.4,1.2,2.0*29
$IMGSA,A,3,,,,,,,,,,,,,2.4,1.2,2.0*26
$BDGSA,A,3,,,,,,,,,,,,,2.4,1.2,2.0*24
$GPRMC,063406.00,A,3205.034564,N,03448.156411,E,000.0,,170616,,,A*79
$GPGGA,063407.00,3205.034564,N,03448.156411,E,1,17,3.2,51.4,M,19.2,M,,*5E
$GPGSV,3,1,11,13,64,314,24,28,60,027,33,17,47,138,29,30,38,072,25*7C
$GPGSV,3,2,11,15,29,314,27,19,28,169,27,05,23,235,30,20,16,282,23*72
$GPGSV,3,3,11,07,15,089,35,11,05,059,,24,03,290,*4A
$GLGSV,3,1,09,65,48,260,40,75,47,344,34,85,31,118,34,84,27,059,20*63
$GLGSV,3,2,09,72,27,199,25,74,26,049,25,66,21,323,21,76,17,285,17*6A
$GLGSV,3,3,09,86,05,165,21*56
$BDGSV,2,1,06,214,33,226,35,205,45,140,,212,34,150,,202,29,118,*68
$BDGSV,2,2,06,208,27,062,,210,23,072,*62
$GPGSA,A,3,05,07,13,15,17,19,20,28,30,,,,2.1,1.2,1.8*3A
$GNGSA,A,3,05,07,13,15,17,19,20,28,30,,,,2.1,1.2,1.8*24
$GNGSA,A,3,65,66,72,75,76,84,85,86,,,,,2.1,1.2,1.8*2F
$QZGSA,A,3,,,,,,,,,,,,,2.1,1.2,1.8*27
$IMGSA,A,3,,,,,,,,,,,,,2.1,1.2,1.8*28
$BDGSA,A,3,,,,,,,,,,,,,2.1,1.2,1.8*2A
$GPRMC,063407.00,A,3205.034564,N,03448.156411,E,000.0,,170616,,,A*78
$GPGGA,063408.00,3205.034050,N,03448.160702,E,1,17,3.2,47.5,M,19.2,M,,*51
$GPGSV,3,1,11,13,64,314,23,28,60,027,32,17,47,138,29,30,38,072,24*7B
$GPGSV,3,2,11,15,29,314,26,19,28,169,26,05,23,235,30,20,16,282,23*72
$GPGSV,3,3,11,07,15,089,35,11,05,059,,24,03,290,*4A
$GLGSV,3,1,09,65,48,260,39,75,47,344,34,85,31,118,33,84,27,059,20*6A
$GLGSV,3,2,09,72,27,199,24,74,26,049,25,66,21,323,20,76,17,285,16*6B
$GLGSV,3,3,09,86,05,165,20*57
$BDGSV,2,1,06,214,33,226,33,205,45,140,,212,34,150,,202,29,118,*6E
$BDGSV,2,2,06,208,27,062,,210,23,072,*62
$GPGSA,A,3,05,07,13,15,17,19,20,28,30,,,,2.1,1.2,1.7*35
$GNGSA,A,3,05,07,13,15,17,19,20,28,30,,,,2.1,1.2,1.7*2B
$GNGSA,A,3,65,66,72,75,76,84,85,86,,,,,2.1,1.2,1.7*20
$QZGSA,A,3,,,,,,,,,,,,,2.1,1.2,1.7*28
$IMGSA,A,3,,,,,,,,,,,,,2.1,1.2,1.7*27
$BDGSA,A,3,,,,,,,,,,,,,2.1,1.2,1.7*25
$GPRMC,063408.00,A,3205.034050,N,03448.160702,E,000.0,,170616,,,A*71
$GPGGA,063409.00,3205.032970,N,03448.161085,E,1,17,1.2,36.8,M,19.2,M,,*5D
$GPGSV,3,1,11,13,64,314,23,28,60,027,32,17,47,138,34,30,38,072,24*77
$GPGSV,3,2,11,15,29,314,26,19,28,169,26,05,23,235,30,20,16,282,23*72
$GPGSV,3,3,11,07,15,089,35,11,05,059,,24,03,290,*4A
$GLGSV,3,1,09,65,48,260,39,75,47,344,35,85,31,118,32,84,27,059,23*69
$GLGSV,3,2,09,72,27,199,24,74,26,049,27,66,21,323,20,76,17,285,16*69
$GLGSV,3,3,09,86,05,165,20*57
$BDGSV,2,1,06,214,33,226,32,205,45,140,,212,34,150,,202,29,118,*6F
$BDGSV,2,2,06,208,27,062,,210,23,072,*62
$GPGSA,A,3,05,07,13,15,17,19,20,28,30,,,,2.8,1.5,2.4*3B
$GNGSA,A,3,05,07,13,15,17,19,20,28,30,,,,2.8,1.5,2.4*25
$GNGSA,A,3,65,66,72,75,76,84,85,86,,,,,2.8,1.5,2.4*2E
$QZGSA,A,3,,,,,,,,,,,,,2.8,1.5,2.4*26
$IMGSA,A,3,,,,,,,,,,,,,2.8,1.5,2.4*29
$BDGSA,A,3,,,,,,,,,,,,,2.8,1.5,2.4*2B
$GPRMC,063409.00,A,3205.032970,N,03448.161085,E,000.0,,170616,,,A*74
$GPGGA,063410.00,3205.031442,N,03448.161687,E,1,17,1.2,26.5,M,19.2,M,,*52
$GPGSV,3,1,11,13,64,314,22,28,60,027,35,17,47,138,35,30,38,072,25*71
$GPGSV,3,2,11,15,29,314,26,19,28,169,25,05,23,235,30,20,16,282,22*70
$GPGSV,3,3,11,07,15,089,34,11,05,059,,24,03,290,*4B
$GLGSV,3,1,09,65,48,260,39,75,47,344,35,85,31,118,32,84,27,059,23*69
$GLGSV,3,2,09,72,27,199,24,74,26,049,27,66,21,323,20,76,17,285,16*69
$GLGSV,3,3,09,86,05,165,20*57
$BDGSV,2,1,06,214,33,226,31,205,45,140,,212,34,150,,202,29,118,*6C
$BDGSV,2,2,06,208,27,062,,210,23,072,*62
$GPGSA,A,3,05,07,13,15,17,19,20,28,30,,,,3.0,1.5,2.6*30
$GNGSA,A,3,05,07,13,15,17,19,20,28,30,,,,3.0,1.5,2.6*2E
$GNGSA,A,3,65,66,72,75,76,84,85,86,,,,,3.0,1.5,2.6*25
$QZGSA,A,3,,,,,,,,,,,,,3.0,1.5,2.6*2D
$IMGSA,A,3,,,,,,,,,,,,,3.0,1.5,2.6*22
$BDGSA,A,3,,,,,,,,,,,,,3.0,1.5,2.6*20
$GPRMC,063410.00,A,3205.031442,N,03448.161687,E,000.0,,170616,,,A*77
$GPGGA,063411.00,3205.030217,N,03448.162621,E,1,17,1.2,19.8,M,19.2,M,,*5A
$GPGSV,3,1,11,13,64,314,23,28,60,027,39,17,47,138,35,30,38,072,25*7C
$GPGSV,3,2,11,15,29,314,26,19,28,169,25,05,23,235,30,20,16,282,22*70
$GPGSV,3,3,11,07,15,089,33,11,05,059,,24,03,290,*4C
$GLGSV,3,1,09,65,48,260,39,75,47,344,35,85,31,118,31,84,27,059,22*6B
$GLGSV,3,2,09,72,27,199,24,74,26,049,27,66,21,323,20,76,17,285,16*69
$GLGSV,3,3,09,86,05,165,19*5D
$BDGSV,2,1,06,214,33,226,31,205,45,140,,212,34,150,,202,29,118,*6C
$BDGSV,2,2,06,208,27,062,,210,23,072,*62
$GPGSA,A,3,05,07,13,15,17,19,20,28,30,,,,2.4,1.3,2.1*34
$GNGSA,A,3,05,07,13,15,17,19,20,28,30,,,,2.4,1.3,2.1*2A
$GNGSA,A,3,65,66,72,75,76,84,85,86,,,,,2.4,1.3,2.1*21
$QZGSA,A,3,,,,,,,,,,,,,2.4,1.3,2.1*29
$IMGSA,A,3,,,,,,,,,,,,,2.4,1.3,2.1*26
$BDGSA,A,3,,,,,,,,,,,,,2.4,1.3,2.1*24
$GPRMC,063411.00,A,3205.030217,N,03448.162621,E,000.0,,170616,,,A*7E
$GPGGA,063412.00,3205.030214,N,03448.162625,E,1,17,1.2,15.0,M,19.2,M,,*5A
$GPGSV,3,1,11,13,65,314,22,28,60,027,38,17,47,138,34,30,38,072,25*7C
$GPGSV,3,2,11,15,29,314,26,19,28,169,24,05,23,235,31,20,16,282,22*70
$GPGSV,3,3,11,07,15,089,31,11,05,059,,24,03,290,*4E
$GLGSV,3,1,09,65,48,260,39,75,47,344,34,85,31,118,30,84,27,059,22*6B
$GLGSV,3,2,09,72,27,199,24,74,26,049,27,66,21,323,23,76,17,285,16*6A
$GLGSV,3,3,09,86,05,165,19*5D
$BDGSV,2,1,06,214,33,226,31,205,45,140,,212,34,150,,202,29,118,*6C
$BDGSV,2,2,06,208,27,062,,210,23,072,*62
$GPGSA,A,3,05,07,13,15,17,19,20,28,30,,,,3.0,1.5,2.6*30
$GNGSA,A,3,05,07,13,15,17,19,20,28,30,,,,3.0,1.5,2.6*2E
$GNGSA,A,3,65,66,72,75,76,84,85,86,,,,,3.0,1.5,2.6*25
$QZGSA,A,3,,,,,,,,,,,,,3.0,1.5,2.6*2D
$IMGSA,A,3,,,,,,,,,,,,,3.0,1.5,2.6*22
$BDGSA,A,3,,,,,,,,,,,,,3.0,1.5,2.6*20
$GPRMC,063412.00,A,3205.030214,N,03448.162625,E,000.0,,170616,,,A*7A
$GPGGA,063413.00,3205.029824,N,03448.163683,E,1,17,0.8,12.8,M,19.2,M,,*53
$GPGSV,3,1,11,13,65,314,22,28,60,027,38,17,47,138,35,30,38,072,25*7D
$GPGSV,3,2,11,15,29,314,26,19,28,169,24,05,23,235,32,20,16,281,22*70
$GPGSV,3,3,11,07,15,089,30,11,05,059,,24,03,290,*4F
$GLGSV,3,1,09,65,48,260,39,75,47,344,34,85,31,118,29,84,27,059,21*60
$GLGSV,3,2,09,72,27,199,25,74,26,049,26,66,21,323,23,76,17,285,16*6A
$GLGSV,3,3,09,86,05,165,19*5D
$BDGSV,2,1,06,214,33,226,30,205,45,140,,212,34,150,,202,29,118,*6D
$BDGSV,2,2,06,208,27,062,,210,23,072,*62
$GPGSA,A,3,05,07,13,15,17,19,20,28,30,,,,3.0,1.5,2.6*30
$GNGSA,A,3,05,07,13,15,17,19,20,28,30,,,,3.0,1.5,2.6*2E
$GNGSA,A,3,65,66,72,75,76,84,85,86,,,,,3.0,1.5,2.6*25
$QZGSA,A,3,,,,,,,,,,,,,3.0,1.5,2.6*2D
$IMGSA,A,3,,,,,,,,,,,,,3.0,1.5,2.6*22
$BDGSA,A,3,,,,,,,,,,,,,3.0,1.5,2.6*20
$GPRMC,063413.00,A,3205.029824,N,03448.163683,E,000.0,,170616,,,A*77
$GPGGA,063414.00,3205.030005,N,03448.164198,E,1,16,0.8,11.7,M,19.2,M,,*50
$GPGSV,3,1,11,13,65,314,23,28,60,027,37,17,47,138,35,30,38,072,25*73
$GPGSV,3,2,11,15,29,314,26,19,28,169,24,05,23,235,32,20,16,281,22*70
$GPGSV,3,3,11,07,15,089,28,11,05,059,,24,03,290,*46
$GLGSV,3,1,09,65,48,260,39,75,47,344,34,85,31,118,28,84,27,059,20*60
$GLGSV,3,2,09,72,27,199,25,74,26,049,26,66,21,323,24,76,18,285,15*61
$GLGSV,3,3,09,86,05,165,19*5D
$BDGSV,2,1,06,214,33,226,30,205,45,140,,212,34,150,,202,29,118,*6D
$BDGSV,2,2,06,208,27,062,,210,23,072,*62
$GPGSA,A,3,05,13,15,17,19,20,28,30,,,,,3.0,1.5,2.6*37
$GNGSA,A,3,05,13,15,17,19,20,28,30,,,,,3.0,1.5,2.6*29
$GNGSA,A,3,65,66,72,75,76,84,85,86,,,,,3.0,1.5,2.6*25
$QZGSA,A,3,,,,,,,,,,,,,3.0,1.5,2.6*2D
$IMGSA,A,3,,,,,,,,,,,,,3.0,1.5,2.6*22
$BDGSA,A,3,,,,,,,,,,,,,3.0,1.5,2.6*20
$GPRMC,063414.00,A,3205.030005,N,03448.164198,E,000.0,,170616,,,A*79
$GPGGA,063415.00,3205.030270,N,03448.164523,E,1,16,1.2,11.6,M,19.2,M,,*5F
$GPGSV,3,1,11,13,65,314,22,28,60,027,37,17,47,138,35,30,38,072,25*72
$GPGSV,3,2,11,15,29,314,26,19,28,169,23,05,23,235,32,20,16,281,22*77
$GPGSV,3,3,11,07,15,089,26,11,05,059,,24,03,290,*48
$GLGSV,3,1,09,65,48,260,39,75,47,344,33,85,31,118,28,84,27,059,20*67
$GLGSV,3,2,09,72,27,199,24,74,26,049,26,66,21,323,26,76,18,285,15*62
$GLGSV,3,3,09,86,05,165,19*5D
$BDGSV,2,1,06,214,33,226,29,205,45,140,27,212,34,150,,202,29,118,*60
$BDGSV,2,2,06,208,27,062,,210,23,072,*62
$GPGSA,A,3,05,13,15,17,19,20,28,30,,,,,2.4,1.3,2.1*33
$GNGSA,A,3,05,13,15,17,19,20,28,30,,,,,2.4,1.3,2.1*2D
$GNGSA,A,3,65,66,72,75,76,84,85,86,,,,,2.4,1.3,2.1*21
$QZGSA,A,3,,,,,,,,,,,,,2.4,1.3,2.1*29
$IMGSA,A,3,,,,,,,,,,,,,2.4,1.3,2.1*26
$BDGSA,A,3,,,,,,,,,,,,,2.4,1.3,2.1*24
$GPRMC,063415.00,A,3205.030270,N,03448.164523,E,000.0,,170616,,,A*7C
$GPGGA,063416.00,3205.030495,N,03448.164927,E,1,16,1.2,9.1,M,19.2,M,,*67
$GPGSV,3,1,11,13,65,314,23,28,60,027,36,17,47,138,36,30,38,072,26*72
$GPGSV,3,2,11,15,29,314,30,19,28,169,23,05,23,235,33,20,16,281,22*71
$GPGSV,3,3,11,07,15,089,25,11,05,059,,24,03,290,*4B
$GLGSV,3,1,09,65,48,260,38,75,47,344,33,85,31,118,27,84,27,059,20*69
$GLGSV,3,2,09,72,27,199,24,74,26,049,27,66,21,323,31,76,18,285,15*65
$GLGSV,3,3,09,86,05,165,19*5D
$BDGSV,2,1,06,214,33,226,28,205,45,140,26,212,34,150,,202,29,118,*60
$BDGSV,2,2,06,208,27,062,,210,23,072,*62
$GPGSA,A,3,05,13,15,17,19,20,28,30,,,,,2.2,1.3,1.8*3F
$GNGSA,A,3,05,13,15,17,19,20,28,30,,,,,2.2,1.3,1.8*21
$GNGSA,A,3,65,66,72,75,76,84,85,86,,,,,2.2,1.3,1.8*2D
$QZGSA,A,3,,,,,,,,,,,,,2.2,1.3,1.8*25
$IMGSA,A,3,,,,,,,,,,,,,2.2,1.3,1.8*2A
$BDGSA,A,3,,,,,,,,,,,,,2.2,1.3,1.8*28
$GPRMC,063416.00,A,3205.030495,N,03448.164927,E,000.0,,170616,,,A*7A
$GPGGA,063417.00,3205.030748,N,03448.165267,E,1,16,1.2,7.2,M,19.2,M,,*66
$GPGSV,3,1,11,13,65,314,25,28,60,027,35,17,47,138,35,30,38,072,27*75
$GPGSV,3,2,11,15,29,314,30,19,28,169,23,05,23,235,33,20,16,281,21*72
$GPGSV,3,3,11,07,15,089,23,11,05,059,,24,03,290,*4D
$GLGSV,3,1,09,65,48,260,38,75,47,344,34,85,31,118,26,84,27,059,19*65
$GLGSV,3,2,09,72,27,199,24,74,26,049,27,66,21,323,34,76,18,285,15*60
$GLGSV,3,3,09,86,05,165,18*5C
$BDGSV,2,1,06,214,33,226,28,205,45,140,26,212,34,150,21,202,29,118,*63
$BDGSV,2,2,06,208,27,062,,210,23,072,*62
$GPGSA,A,3,05,13,15,17,19,20,28,30,,,,,2.2,1.2,1.8*3E
$GNGSA,A,3,05,13,15,17,19,20,28,30,,,,,2.2,1.2,1.8*20
$GNGSA,A,3,65,66,72,75,76,84,85,86,,,,,2.2,1.2,1.8*2C
$QZGSA,A,3,,,,,,,,,,,,,2.2,1.2,1.8*24
$IMGSA,A,3,,,,,,,,,,,,,2.2,1.2,1.8*2B
$BDGSA,A,3,,,,,,,,,,,,,2.2,1.2,1.8*29
$GPRMC,063417.00,A,3205.030748,N,03448.165267,E,000.0,,170616,,,A*76
$GPGGA,063418.00,3205.031607,N,03448.165028,E,1,16,1.2,4.7,M,19.2,M,,*6D
$GPGSV,3,1,11,13,65,314,25,28,60,027,34,17,47,138,35,30,38,072,30*72
$GPGSV,3,2,11,15,29,314,30,19,28,169,23,05,23,235,35,20,16,281,21*74
$GPGSV,3,3,11,07,15,089,22,11,05,059,,24,03,290,*4C
$GLGSV,3,1,09,65,48,260,37,75,47,344,34,85,31,118,26,84,27,059,19*6A
$GLGSV,3,2,09,72,27,199,24,74,26,049,28,66,21,323,34,76,18,285,15*6F
$GLGSV,3,3,09,86,05,165,18*5C
$BDGSV,2,1,06,214,33,226,27,205,45,140,25,212,34,150,20,202,29,118,*6E
$BDGSV,2,2,06,208,27,062,,210,23,072,*62
$GPGSA,A,3,05,13,15,17,19,20,28,30,,,,,2.2,1.3,1.8*3F
$GNGSA,A,3,05,13,15,17,19,20,28,30,,,,,2.2,1.3,1.8*21
$GNGSA,A,3,65,66,72,75,76,84,85,86,,,,,2.2,1.3,1.8*2D
$QZGSA,A,3,,,,,,,,,,,,,2.2,1.3,1.8*25
$IMGSA,A,3,,,,,,,,,,,,,2.2,1.3,1.8*2A
$BDGSA,A,3,,,,,,,,,,,,,2.2,1.3,1.8*28
$GPRMC,063418.00,A,3205.031607,N,03448.165028,E,000.0,,170616,,,A*7B
$GPGGA,063419.00,3205.031822,N,03448.165228,E,1,16,1.2,5.1,M,19.2,M,,*60
$GPGSV,3,1,11,13,65,314,28,28,60,027,34,17,47,138,35,30,38,072,30*7F
$GPGSV,3,2,11,15,29,314,30,19,28,169,23,05,23,235,35,20,16,281,22*77
$GPGSV,3,3,11,07,15,089,19,11,05,059,,24,03,290,*44
$GLGSV,3,1,09,65,48,260,37,75,47,344,34,85,31,118,26,84,27,059,19*6A
$GLGSV,3,2,09,72,27,199,24,74,26,049,28,66,21,323,33,76,18,285,14*69
$GLGSV,3,3,09,86,05,165,17*53
$BDGSV,2,1,06,214,33,226,27,205,45,140,25,212,34,150,19,202,29,118,*64
$BDGSV,2,2,06,208,27,062,,210,23,072,*62
$GPGSA,A,3,05,13,15,17,19,20,28,30,,,,,2.2,1.2,1.8*3E
$GNGSA,A,3,05,13,15,17,19,20,28,30,,,,,2.2,1.2,1.8*20
$GNGSA,A,3,65,66,72,75,76,84,85,86,,,,,2.2,1.2,1.8*2C
$QZGSA,A,3,,,,,,,,,,,,,2.2,1.2,1.8*24
$IMGSA,A,3,,,,,,,,,,,,,2.2,1.2,1.8*2B
$BDGSA,A,3,,,,,,,,,,,,,2.2,1.2,1.8*29
$GPRMC,063419.00,A,3205.031822,N,03448.165228,E,002.5,,170616,,,A*76
$GPGGA,063420.00,3205.032038,N,03448.164821,E,1,16,1.2,11.2,M,19.2,M,,*5E
$GPGSV,3,1,11,13,65,314,34,28,60,027,33,17,47,138,35,30,38,072,30*75
$GPGSV,3,2,11,15,29,314,32,19,28,169,22,05,23,235,35,20,16,281,22*74
$GPGSV,3,3,11,07,15,089,17,11,05,059,,24,03,290,*4A
$GLGSV,3,1,09,65,48,260,36,75,47,344,35,85,31,118,25,84,27,059,19*69
$GLGSV,3,2,09,72,27,199,24,74,26,049,28,66,21,323,33,76,18,285,14*69
$GLGSV,3,3,09,86,05,165,17*53
$BDGSV,2,1,06,214,33,226,28,205,45,140,24,212,34,150,19,202,29,118,*6A
$BDGSV,2,2,06,208,27,062,,210,23,072,*62
$GPGSA,A,3,05,13,15,17,19,20,28,30,,,,,2.2,1.2,1.8*3E
$GNGSA,A,3,05,13,15,17,19,20,28,30,,,,,2.2,1.2,1.8*20
$GNGSA,A,3,65,66,72,75,76,84,85,86,,,,,2.2,1.2,1.8*2C
$QZGSA,A,3,,,,,,,,,,,,,2.2,1.2,1.8*24
$IMGSA,A,3,,,,,,,,,,,,,2.2,1.2,1.8*2B
$BDGSA,A,3,,,,,,,,,,,,,2.2,1.2,1.8*29
$GPRMC,063420.00,A,3205.032038,N,03448.164821,E,000.0,,170616,,,A*79
$GPGGA,063421.00,3205.032000,N,03448.163113,E,1,16,1.2,13.5,M,19.2,M,,*5E
$GPGSV,3,1,11,13,65,314,37,28,60,027,32,17,47,138,35,30,38,072,30*77
$GPGSV,3,2,11,15,29,314,35,19,28,169,22,05,23,235,37,20,16,281,22*71
$GPGSV,3,3,11,07,15,089,17,11,05,059,,24,03,290,*4A
$GLGSV,3,1,09,65,48,260,36,75,47,344,35,85,31,118,26,84,27,059,19*6A
$GLGSV,3,2,09,72,27,199,24,74,26,049,28,66,21,323,33,76,18,285,14*69
$GLGSV,3,3,09,86,05,165,16*52
$BDGSV,2,1,06,214,33,226,30,205,45,140,23,212,34,150,19,202,29,118,*64
$BDGSV,2,2,06,208,27,062,,210,23,072,*62
$GPGSA,A,3,05,13,15,17,19,20,28,30,,,,,1.8,1.0,1.5*38
$GNGSA,A,3,05,13,15,17,19,20,28,30,,,,,1.8,1.0,1.5*26
$GNGSA,A,3,65,66,72,75,76,84,85,86,,,,,1.8,1.0,1.5*2A
$QZGSA,A,3,,,,,,,,,,,,,1.8,1.0,1.5*22
$IMGSA,A,3,,,,,,,,,,,,,1.8,1.0,1.5*2D
$BDGSA,A,3,,,,,,,,,,,,,1.8,1.0,1.5*2F
$GPRMC,063421.00,A,3205.032000,N,03448.163113,E,000.0,,170616,,,A*7C
$GPGGA,063422.00,3205.032068,N,03448.161537,E,1,16,1.2,20.1,M,19.2,M,,*57
$GPGSV,3,1,11,13,65,314,39,28,60,027,32,17,47,138,35,30,38,072,29*71
$GPGSV,3,2,11,15,29,314,35,19,28,169,22,05,23,235,37,20,16,281,22*71
$GPGSV,3,3,11,07,15,089,16,11,05,059,,24,03,290,*4B
$GLGSV,3,1,09,65,48,260,35,75,47,344,36,85,31,118,26,84,27,059,21*61
$GLGSV,3,2,09,72,27,199,24,74,26,049,28,66,21,323,33,76,18,285,14*69
$GLGSV,3,3,09,86,05,165,16*52
$BDGSV,2,1,06,214,33,226,34,205,45,140,23,212,34,150,20,202,29,118,*6A
$BDGSV,2,2,06,208,27,062,,210,23,072,*62
$GPGSA,A,3,05,07,13,15,17,19,20,28,30,,,,1.9,1.0,1.6*3D
$GNGSA,A,3,05,07,13,15,17,19,20,28,30,,,,1.9,1.0,1.6*23
$GNGSA,A,3,65,66,72,75,76,84,85,,,,,,1.9,1.0,1.6*26
$QZGSA,A,3,,,,,,,,,,,,,1.9,1.0,1.6*20
$IMGSA,A,3,,,,,,,,,,,,,1.9,1.0,1.6*2F
$BDGSA,A,3,,,,,,,,,,,,,1.9,1.0,1.6*2D
$GPRMC,063422.00,A,3205.032068,N,03448.161537,E,000.0,,170616,,,A*71
$GPGGA,063423.00,3205.032352,N,03448.160942,E,1,16,1.2,25.4,M,19.2,M,,*53
$GPGSV,3,1,11,13,65,314,39,28,60,027,31,17,47,137,34,30,38,072,29*7C
$GPGSV,3,2,11,15,29,314,36,19,28,169,22,05,23,235,37,20,16,281,22*72
$GPGSV,3,3,11,07,15,089,20,11,05,059,,24,03,290,*4E
$GLGSV,3,1,09,65,48,260,35,75,47,344,36,85,31,118,25,84,27,059,27*64
$GLGSV,3,2,09,72,27,199,24,74,26,049,27,66,21,323,32,76,18,285,14*67
$GLGSV,3,3,09,86,05,165,15*51
$BDGSV,2,1,06,214,33,226,34,205,45,140,23,212,34,150,21,202,29,118,*6B
$BDGSV,2,2,06,208,27,062,,210,23,072,*62
$GPGSA,A,3,05,07,13,15,17,19,20,28,30,,,,1.9,1.0,1.6*3D
$GNGSA,A,3,05,07,13,15,17,19,20,28,30,,,,1.9,1.0,1.6*23
$GNGSA,A,3,65,66,72,75,76,84,85,,,,,,1.9,1.0,1.6*26
$QZGSA,A,3,,,,,,,,,,,,,1.9,1.0,1.6*20
$IMGSA,A,3,,,,,,,,,,,,,1.9,1.0,1.6*2F
$BDGSA,A,3,,,,,,,,,,,,,1.9,1.0,1.6*2D
$GPRMC,063423.00,A,3205.032352,N,03448.160942,E,000.0,,170616,,,A*75
$GPGGA,063424.00,3205.032631,N,03448.159837,E,1,16,1.2,29.8,M,19.2,M,,*5D
$GPGSV,3,1,11,13,65,314,39,28,60,027,31,17,47,137,34,30,38,072,29*7C
$GPGSV,3,2,11,15,29,314,36,19,28,169,23,05,23,235,37,20,16,281,21*70
$GPGSV,3,3,11,07,15,089,20,11,05,059,,24,03,290,*4E
$GLGSV,3,1,09,65,48,260,34,75,47,344,36,85,31,118,25,84,27,059,28*6A
$GLGSV,3,2,09,72,27,199,23,74,26,049,27,66,21,323,32,76,18,285,14*60
$GLGSV,3,3,09,86,05,165,15*51
$BDGSV,2,1,06,214,33,226,34,205,45,140,22,212,34,150,22,202,29,118,*69
$BDGSV,2,2,06,208,27,062,,210,23,072,*62
$GPGSA,A,3,05,07,13,15,17,19,20,28,30,,,,1.9,1.0,1.6*3D
$GNGSA,A,3,05,07,13,15,17,19,20,28,30,,,,1.9,1.0,1.6*23
$GNGSA,A,3,65,66,72,75,76,84,85,,,,,,1.9,1.0,1.6*26
$QZGSA,A,3,,,,,,,,,,,,,1.9,1.0,1.6*20
$IMGSA,A,3,,,,,,,,,,,,,1.9,1.0,1.6*2F
$BDGSA,A,3,,,,,,,,,,,,,1.9,1.0,1.6*2D
$GPRMC,063424.00,A,3205.032631,N,03448.159837,E,000.0,,170616,,,A*7B
$GPGGA,063425.00,3205.033301,N,03448.159304,E,1,16,0.8,32.5,M,19.2,M,,*5C
$GPGSV,3,1,11,13,65,314,39,28,60,027,31,17,47,137,33,30,38,072,29*7B
$GPGSV,3,2,11,15,29,314,35,19,28,169,23,05,23,235,36,20,16,281,21*72
$GPGSV,3,3,11,07,15,089,22,11,05,059,,24,03,290,*4C
$GLGSV,3,1,09,65,48,260,34,75,47,344,36,85,31,118,24,84,27,059,28*6B
$GLGSV,3,2,09,72,27,199,23,74,26,049,27,66,21,323,32,76,18,285,14*60
$GLGSV,3,3,09,86,05,165,15*51
$BDGSV,2,1,06,214,33,226,35,205,45,140,20,212,34,150,21,202,29,118,*69
$BDGSV,2,2,06,208,27,062,,210,23,072,*62
$GPGSA,A,3,05,07,13,15,17,19,20,28,30,,,,2.5,1.4,2.0*33
$GNGSA,A,3,05,07,13,15,17,19,20,28,30,,,,2.5,1.4,2.0*2D
$GNGSA,A,3,65,66,72,75,76,84,85,,,,,,2.5,1.4,2.0*28
$QZGSA,A,3,,,,,,,,,,,,,2.5,1.4,2.0*2E
$IMGSA,A,3,,,,,,,,,,,,,2.5,1.4,2.0*21
$BDGSA,A,3,,,,,,,,,,,,,2.5,1.4,2.0*23
$GPRMC,063425.00,A,3205.033301,N,03448.159304,E,000.0,,170616,,,A*76
$GPGGA,063426.00,3205.033307,N,03448.159298,E,1,16,0.8,33.2,M,19.2,M,,*5B
$GPGSV,3,1,11,13,65,314,38,28,60,027,33,17,47,137,32,30,38,072,29*79
$GPGSV,3,2,11,15,29,314,37,19,28,169,23,05,23,235,36,20,16,281,21*70
$GPGSV,3,3,11,07,15,089,24,11,05,059,,24,03,290,*4A
$GLGSV,3,1,09,65,48,260,33,75,47,344,35,85,31,118,24,84,27,059,28*6F
$GLGSV,3,2,09,72,27,199,23,74,26,049,26,66,21,323,32,76,18,285,14*61
$GLGSV,3,3,09,86,05,165,14*50
$BDGSV,2,1,06,214,33,226,35,205,45,140,18,212,34,150,20,202,29,118,*63
$BDGSV,2,2,06,208,27,062,,210,23,072,*62
$GPGSA,A,3,05,07,13,15,17,19,20,28,30,,,,3.1,2.1,2.2*32
$GNGSA,A,3,05,07,13,15,17,19,20,28,30,,,,3.1,2.1,2.2*2C
$GNGSA,A,3,65,66,72,75,76,84,85,,,,,,3.1,2.1,2.2*29
$QZGSA,A,3,,,,,,,,,,,,,3.1,2.1,2.2*2F
$IMGSA,A,3,,,,,,,,,,,,,3.1,2.1,2.2*20
$BDGSA,A,3,,,,,,,,,,,,,3.1,2.1,2.2*22
$GPRMC,063426.00,A,3205.033307,N,03448.159298,E,000.0,,170616,,,A*77
$GPGGA,063427.00,3205.033307,N,03448.159297,E,1,16,2.4,33.7,M,19.2,M,,*5E
$GPGSV,3,1,11,13,65,314,38,28,60,027,33,17,47,137,31,30,38,072,29*7A
$GPGSV,3,2,11,15,29,314,37,19,28,169,23,05,23,235,36,20,16,281,21*70
$GPGSV,3,3,11,07,15,089,29,11,05,059,,24,03,290,*47
$GLGSV,3,1,09,65,48,260,32,75,47,344,35,85,31,118,24,84,27,059,27*61
$GLGSV,3,2,09,72,27,199,25,74,26,049,25,66,21,323,32,76,18,285,14*64
$GLGSV,3,3,09,86,05,165,14*50
$BDGSV,2,1,06,214,33,226,35,205,45,140,16,212,34,150,19,202,29,118,*67
$BDGSV,2,2,06,208,27,062,,210,23,072,*62
$GPGSA,A,3,05,07,13,15,17,19,20,28,30,,,,5.1,4.3,2.7*35
$GNGSA,A,3,05,07,13,15,17,19,20,28,30,,,,5.1,4.3,2.7*2B
$GNGSA,A,3,65,66,72,75,76,84,85,,,,,,5.1,4.3,2.7*2E
$QZGSA,A,3,,,,,,,,,,,,,5.1,4.3,2.7*28
$IMGSA,A,3,,,,,,,,,,,,,5.1,4.3,2.7*27
$BDGSA,A,3,,,,,,,,,,,,,5.1,4.3,2.7*25
$GPRMC,063427.00,A,3205.033307,N,03448.159297,E,000.0,,170616,,,A*79
$GPGGA,063428.00,3205.034166,N,03448.157028,E,1,16,2.4,34.1,M,19.2,M,,*5A
$GPGSV,3,1,11,13,65,314,38,28,60,027,35,17,47,137,30,30,38,072,28*7C
$GPGSV,3,2,11,15,29,314,37,19,28,169,23,05,23,235,35,20,16,281,21*73
$GPGSV,3,3,11,07,15,089,37,11,05,059,,24,03,290,*48
$GLGSV,3,1,09,65,48,260,31,75,47,344,35,85,31,118,24,84,27,059,27*62
$GLGSV,3,2,09,72,27,199,26,74,26,049,25,66,21,323,32,76,18,285,14*67
$GLGSV,3,3,09,86,05,165,13*57
$BDGSV,2,1,06,214,33,226,34,205,45,140,15,212,34,150,18,202,29,118,*64
$BDGSV,2,2,06,208,27,062,,210,23,072,*62
$GPGSA,A,3,05,07,13,15,17,19,20,28,30,,,,5.1,4.3,2.7*35
$GNGSA,A,3,05,07,13,15,17,19,20,28,30,,,,5.1,4.3,2.7*2B
$GNGSA,A,3,65,66,72,75,76,84,85,,,,,,5.1,4.3,2.7*2E
$QZGSA,A,3,,,,,,,,,,,,,5.1,4.3,2.7*28
$IMGSA,A,3,,,,,,,,,,,,,5.1,4.3,2.7*27
$BDGSA,A,3,,,,,,,,,,,,,5.1,4.3,2.7*25
$GPRMC,063428.00,A,3205.034166,N,03448.157028,E,000.0,,170616,,,A*7C
$GPGGA,063429.00,3205.034166,N,03448.157028,E,1,16,2.4,34.4,M,19.2,M,,*5E
$GPGSV,3,1,11,13,65,314,38,28,60,027,35,17,47,137,29,30,38,072,28*74
$GPGSV,3,2,11,15,29,314,37,19,28,169,22,05,23,235,34,20,16,281,20*72
$GPGSV,3,3,11,07,15,089,37,11,05,059,,24,03,290,*48
$GLGSV,3,1,09,65,48,260,30,75,47,344,35,85,31,118,24,84,27,059,26*62
$GLGSV,3,2,09,72,27,199,26,74,26,049,25,66,21,323,31,76,18,285,14*64
$GLGSV,3,3,09,86,05,165,13*57
$BDGSV,2,1,06,214,32,226,34,205,45,140,12,212,34,150,14,202,29,118,*6E
$BDGSV,2,2,06,208,27,062,,210,23,072,*62
$GPGSA,A,3,05,07,13,15,17,19,20,28,30,,,,5.1,4.3,2.7*35
$GNGSA,A,3,05,07,13,15,17,19,20,28,30,,,,5.1,4.3,2.7*2B
$GNGSA,A,3,65,66,72,75,76,84,85,,,,,,5.1,4.3,2.7*2E
$QZGSA,A,3,,,,,,,,,,,,,5.1,4.3,2.7*28
$IMGSA,A,3,,,,,,,,,,,,,5.1,4.3,2.7*27
$BDGSA,A,3,,,,,,,,,,,,,5.1,4.3,2.7*25
$GPRMC,063429.00,A,3205.034166,N,03448.157028,E,000.0,,170616,,,A*7D
$GPGGA,063430.00,3205.034166,N,03448.157028,E,1,15,2.4,35.2,M,19.2,M,,*52
$GPGSV,3,1,11,13,65,314,38,28,60,027,37,17,47,137,29,30,38,072,27*79
$GPGSV,3,2,11,15,29,314,37,19,28,169,22,05,23,235,33,20,16,281,20*75
$GPGSV,3,3,11,07,15,089,37,11,05,059,,24,03,290,*48
$GLGSV,3,1,09,65,48,260,29,75,47,344,36,85,31,118,23,84,27,059,25*6D
$GLGSV,3,2,09,72,27,199,26,74,26,049,25,66,21,323,31,76,18,285,14*64
$GLGSV,3,3,09,86,05,165,13*57
$BDGSV,2,1,06,214,32,226,33,205,45,140,08,212,34,150,10,202,29,118,*66
$BDGSV,2,2,06,208,27,062,,210,23,072,*62
$GPGSA,A,3,05,07,13,15,17,19,20,28,30,,,,5.1,4.3,2.7*35
$GNGSA,A,3,05,07,13,15,17,19,20,28,30,,,,5.1,4.3,2.7*2B
$GNGSA,A,3,65,66,72,75,84,85,,,,,,,5.1,4.3,2.7*2F
$QZGSA,A,3,,,,,,,,,,,,,5.1,4.3,2.7*28
$IMGSA,A,3,,,,,,,,,,,,,5.1,4.3,2.7*27
$BDGSA,A,3,,,,,,,,,,,,,5.1,4.3,2.7*25
$GPRMC,063430.00,A,3205.034166,N,03448.157028,E,000.0,,170616,,,A*75
$GPGGA,063431.00,3205.034166,N,03448.157028,E,1,16,1.2,35.5,M,19.2,M,,*52
$GPGSV,3,1,11,13,65,314,38,28,60,027,39,17,47,137,28,30,38,072,27*76
$GPGSV,3,2,11,15,29,314,38,19,28,169,22,05,23,235,32,20,16,281,19*71
$GPGSV,3,3,11,07,15,089,36,11,05,059,,24,03,291,*48
$GLGSV,3,1,09,65,48,260,28,75,47,344,36,85,31,118,23,84,27,059,24*6D
$GLGSV,3,2,09,72,27,199,25,74,26,049,24,66,21,323,31,76,18,285,13*61
$GLGSV,3,3,09,86,05,165,13*57
$BDGSV,2,1,06,214,32,226,33,205,45,140,,212,34,150,,202,29,118,*6F
$BDGSV,2,2,06,208,27,062,,210,23,072,*62
$GPGSA,A,3,05,07,13,15,17,19,20,28,30,,,,2.5,1.4,2.0*33
$GNGSA,A,3,05,07,13,15,17,19,20,28,30,,,,2.5,1.4,2.0*2D
$GNGSA,A,3,65,66,72,75,76,84,85,,,,,,2.5,1.4,2.0*28
$QZGSA,A,3,,,,,,,,,,,,,2.5,1.4,2.0*2E
$IMGSA,A,3,,,,,,,,,,,,,2.5,1.4,2.0*21
$BDGSA,A,3,,,,,,,,,,,,,2.5,1.4,2.0*23
$GPRMC,063431.00,A,3205.034166,N,03448.157028,E,000.0,,170616,,,A*74
$GPGGA,063432.00,3205.034166,N,03448.157028,E,1,15,1.2,36.6,M,19.2,M,,*52
$GPGSV,3,1,11,13,65,314,37,28,60,027,41,17,47,137,27,30,38,072,26*78
$GPGSV,3,2,11,15,29,314,38,19,28,169,22,05,23,235,31,20,16,281,20*78
$GPGSV,3,3,11,07,15,089,35,11,05,059,,24,03,291,*4B
$GLGSV,3,1,09,65,48,260,27,75,47,344,35,85,31,118,23,84,27,059,23*66
$GLGSV,3,2,09,72,27,199,25,74,26,049,24,66,21,323,30,76,18,285,13*60
$GLGSV,3,3,09,86,05,165,12*56
$BDGSV,2,1,06,214,32,226,32,212,34,150,09,205,45,140,,202,29,118,*67
$BDGSV,2,2,06,208,27,062,,210,23,072,*62
$GPGSA,A,3,05,07,13,15,17,19,20,28,30,,,,2.5,1.4,2.0*33
$GNGSA,A,3,05,07,13,15,17,19,20,28,30,,,,2.5,1.4,2.0*2D
$GNGSA,A,3,65,66,72,75,84,85,,,,,,,2.5,1.4,2.0*29
$QZGSA,A,3,,,,,,,,,,,,,2.5,1.4,2.0*2E
$IMGSA,A,3,,,,,,,,,,,,,2.5,1.4,2.0*21
$BDGSA,A,3,,,,,,,,,,,,,2.5,1.4,2.0*23
$GPRMC,063432.00,A,3205.034166,N,03448.157028,E,000.0,,170616,,,A*77
$GPGGA,063433.00,3205.036586,N,03448.155368,E,1,16,1.2,36.6,M,19.2,M,,*5D
$GPGSV,3,1,11,13,65,314,37,28,60,027,41,17,47,137,27,30,38,072,26*78
$GPGSV,3,2,11,15,29,314,38,19,28,169,23,05,23,235,30,20,16,281,23*7B
$GPGSV,3,3,11,07,15,089,34,11,05,059,,24,03,291,*4A
$GLGSV,3,1,09,65,48,260,27,75,47,344,35,85,31,118,23,84,27,059,23*66
$GLGSV,3,2,09,72,27,198,25,74,26,049,24,66,21,323,29,76,18,285,13*69
$GLGSV,3,3,09,86,05,165,13*57
$BDGSV,2,1,06,214,32,226,31,212,34,150,08,205,45,140,,202,29,118,*65
$BDGSV,2,2,06,208,27,062,,210,23,072,*62
$GPGSA,A,3,05,07,13,15,17,19,20,28,30,,,,2.5,1.4,2.0*33
$GNGSA,A,3,05,07,13,15,17,19,20,28,30,,,,2.5,1.4,2.0*2D
$GNGSA,A,3,65,66,72,75,84,85,86,,,,,,2.5,1.4,2.0*27
$QZGSA,A,3,,,,,,,,,,,,,2.5,1.4,2.0*2E
$IMGSA,A,3,,,,,,,,,,,,,2.5,1.4,2.0*21
$BDGSA,A,3,,,,,,,,,,,,,2.5,1.4,2.0*23
$GPRMC,063433.00,A,3205.036586,N,03448.155368,E,000.0,,170616,,,A*7B
$GPGGA,063434.00,3205.036586,N,03448.155368,E,1,16,2.4,36.6,M,19.2,M,,*5F
$GPGSV,3,1,11,13,65,314,37,28,60,027,41,17,47,137,27,30,38,072,26*78
$GPGSV,3,2,11,15,29,314,38,19,28,169,23,05,23,235,29,20,16,281,23*73
$GPGSV,3,3,11,07,15,089,33,11,05,059,,24,03,291,*4D
$GLGSV,3,1,09,65,48,260,26,75,47,344,34,85,31,118,23,84,27,059,23*66
$GLGSV,3,2,09,72,27,198,27,74,26,049,23,66,21,323,29,76,18,285,13*6C
$GLGSV,3,3,09,86,05,165,15*51
$BDGSV,2,1,06,214,32,226,30,205,45,140,,212,34,150,,202,29,118,*6C
$BDGSV,2,2,06,208,27,062,,210,23,072,*62
$GPGSA,A,3,05,07,13,15,17,19,20,28,30,,,,5.1,4.3,2.7*35
$GNGSA,A,3,05,07,13,15,17,19,20,28,30,,,,5.1,4.3,2.7*2B
$GNGSA,A,3,65,66,72,75,84,85,86,,,,,,5.1,4.3,2.7*21
$QZGSA,A,3,,,,,,,,,,,,,5.1,4.3,2.7*28
$IMGSA,A,3,,,,,,,,,,,,,5.1,4.3,2.7*27
$BDGSA,A,3,,,,,,,,,,,,,5.1,4.3,2.7*25
$GPRMC,063434.00,A,3205.036586,N,03448.155368,E,000.6,,170616,,,A*7A
$GPGGA,063435.00,3205.036586,N,03448.155368,E,1,16,2.4,36.6,M,19.2,M,,*5E
$GPGSV,3,1,11,13,65,314,37,28,60,027,40,17,47,137,26,30,38,072,25*7B
$GPGSV,3,2,11,15,29,314,37,19,28,169,24,05,23,235,28,20,16,281,23*7A
$GPGSV,3,3,11,07,15,089,33,11,05,059,,24,03,291,*4D
$GLGSV,3,1,09,65,48,260,26,75,47,344,34,85,31,118,23,84,27,059,22*67
$GLGSV,3,2,09,72,27,198,27,74,26,049,26,66,21,323,29,76,18,285,13*69
$GLGSV,3,3,09,86,05,165,18*5C
$BDGSV,2,1,06,214,32,226,29,205,45,140,,212,34,150,,202,29,118,*64
$BDGSV,2,2,06,208,27,062,,210,23,072,*62
$GPGSA,A,3,05,07,13,15,17,19,20,28,30,,,,2.6,1.7,2.0*33
$GNGSA,A,3,05,07,13,15,17,19,20,28,30,,,,2.6,1.7,2.0*2D
$GNGSA,A,3,65,66,72,75,84,85,86,,,,,,2.6,1.7,2.0*27
$QZGSA,A,3,,,,,,,,,,,,,2.6,1.7,2.0*2E
$IMGSA,A,3,,,,,,,,,,,,,2.6,1.7,2.0*21
$BDGSA,A,3,,,,,,,,,,,,,2.6,1.7,2.0*23
$GPRMC,063435.00,A,3205.036586,N,03448.155368,E,000.0,,170616,,,A*7D
$GPGGA,063436.00,3205.037146,N,03448.155470,E,1,16,1.6,36.7,M,19.2,M,,*5A
$GPGSV,3,1,11,13,65,314,39,28,60,027,39,17,47,137,26,30,38,072,25*7B
$GPGSV,3,2,11,15,29,314,37,19,28,169,24,05,23,235,27,20,16,281,23*75
$GPGSV,3,3,11,07,15,089,32,11,05,059,,24,03,291,*4C
$GLGSV,3,1,09,65,48,260,25,75,47,344,34,85,31,118,23,84,27,059,22*64
$GLGSV,3,2,09,72,27,198,27,74,26,049,27,66,21,323,29,76,18,285,13*68
$GLGSV,3,3,09,86,05,165,20*57
$BDGSV,2,1,06,214,32,226,28,212,34,150,10,205,45,140,,202,29,118,*64
$BDGSV,2,2,06,208,27,062,,210,23,072,*62
$GPGSA,A,3,05,07,13,15,17,19,20,28,30,,,,3.0,2.2,1.9*38
$GNGSA,A,3,05,07,13,15,17,19,20,28,30,,,,3.0,2.2,1.9*26
$GNGSA,A,3,65,66,72,75,84,85,86,,,,,,3.0,2.2,1.9*2C
$QZGSA,A,3,,,,,,,,,,,,,3.0,2.2,1.9*25
$IMGSA,A,3,,,,,,,,,,,,,3.0,2.2,1.9*2A
$BDGSA,A,3,,,,,,,,,,,,,3.0,2.2,1.9*28
$GPRMC,063436.00,A,3205.037146,N,03448.155470,E,001.5,,170616,,,A*7D
$GPGGA,063437.00,3205.037886,N,03448.155576,E,1,16,1.6,36.8,M,19.2,M,,*56
$GPGSV,3,1,11,13,65,314,39,28,60,027,39,17,47,137,28,30,38,072,25*75
$GPGSV,3,2,11,15,29,314,41,19,28,169,24,05,23,235,27,20,16,281,22*75
$GPGSV,3,3,11,07,15,089,32,11,05,059,,24,03,291,*4C
$GLGSV,3,1,09,65,48,260,25,75,47,344,33,85,31,118,23,84,27,059,21*60
$GLGSV,3,2,09,72,27,198,27,74,26,049,27,66,21,323,28,76,18,285,12*68
$GLGSV,3,3,09,86,05,165,20*57
$BDGSV,2,1,06,214,32,226,27,212,34,150,11,205,45,140,,202,29,118,*6A
$BDGSV,2,2,06,208,27,062,,210,23,072,*62
$GPGSA,A,3,05,07,13,15,17,19,20,28,30,,,,3.1,2.4,2.0*35
$GNGSA,A,3,05,07,13,15,17,19,20,28,30,,,,3.1,2.4,2.0*2B
$GNGSA,A,3,65,66,72,75,84,85,86,,,,,,3.1,2.4,2.0*21
$QZGSA,A,3,,,,,,,,,,,,,3.1,2.4,2.0*28
$IMGSA,A,3,,,,,,,,,,,,,3.1,2.4,2.0*27
$BDGSA,A,3,,,,,,,,,,,,,3.1,2.4,2.0*25
$GPRMC,063437.00,A,3205.037886,N,03448.155576,E,000.9,,170616,,,A*73
$GPGGA,063438.00,3205.040360,N,03448.155986,E,1,16,1.6,36.9,M,19.2,M,,*58
$GPGSV,3,1,11,13,65,314,39,28,60,027,38,17,47,137,31,30,38,072,24*7D
$GPGSV,3,2,11,15,29,314,42,19,28,169,24,05,23,235,26,20,16,281,22*77
$GPGSV,3,3,11,07,15,089,32,11,05,059,,24,03,291,*4C
$GLGSV,3,1,09,65,48,260,25,75,47,344,33,85,31,118,23,84,27,059,21*60
$GLGSV,3,2,09,72,27,198,28,74,26,049,27,66,21,323,28,76,18,285,12*67
$GLGSV,3,3,09,86,05,165,20*57
$BDGSV,2,1,06,214,32,226,26,212,34,150,10,205,45,140,,202,29,118,*6A
$BDGSV,2,2,06,208,27,062,,210,23,072,*62
$GPGSA,A,3,05,07,13,15,17,19,20,28,30,,,,3.0,2.0,2.2*32
$GNGSA,A,3,05,07,13,15,17,19,20,28,30,,,,3.0,2.0,2.2*2C
$GNGSA,A,3,65,66,72,75,84,85,86,,,,,,3.0,2.0,2.2*26
$QZGSA,A,3,,,,,,,,,,,,,3.0,2.0,2.2*2F
$IMGSA,A,3,,,,,,,,,,,,,3.0,2.0,2.2*20
$BDGSA,A,3,,,,,,,,,,,,,3.0,2.0,2.2*22
$GPRMC,063438.00,A,3205.040360,N,03448.155986,E,001.3,,170616,,,A*77
$GPGGA,063439.00,3205.042870,N,03448.156371,E,1,16,1.6,37.0,M,19.2,M,,*58
$GPGSV,3,1,11,13,65,314,39,28,60,027,38,17,47,137,33,30,38,072,24*7F
$GPGSV,3,2,11,15,29,314,42,19,28,169,24,05,23,235,26,20,16,281,22*77
$GPGSV,3,3,11,07,15,089,32,11,05,059,,24,03,291,*4C
$GLGSV,3,1,09,65,48,260,25,75,47,344,33,85,31,118,24,84,27,059,21*67
$GLGSV,3,2,09,72,27,198,28,74,26,049,27,66,21,323,28,76,18,285,12*67
$GLGSV,3,3,09,86,05,165,19*5D
$BDGSV,2,1,06,214,32,226,26,212,34,150,09,205,45,140,,202,29,118,*62
$BDGSV,2,2,06,208,27,062,,210,23,072,*62
$GPGSA,A,3,05,07,13,15,17,19,20,28,30,,,,2.7,1.5,2.2*32
$GNGSA,A,3,05,07,13,15,17,19,20,28,30,,,,2.7,1.5,2.2*2C
$GNGSA,A,3,65,66,72,75,84,85,86,,,,,,2.7,1.5,2.2*26
$QZGSA,A,3,,,,,,,,,,,,,2.7,1.5,2.2*2F
$IMGSA,A,3,,,,,,,,,,,,,2.7,1.5,2.2*20
$BDGSA,A,3,,,,,,,,,,,,,2.7,1.5,2.2*22
$GPRMC,063439.00,A,3205.042870,N,03448.156371,E,001.5,,170616,,,A*79
$GPGGA,063440.00,3205.045295,N,03448.156716,E,1,16,1.6,37.1,M,19.2,M,,*54
$GPGSV,3,1,11,13,65,314,39,28,60,027,38,17,47,137,35,30,38,072,24*79
$GPGSV,3,2,11,15,29,314,42,19,28,169,24,05,23,235,25,20,16,281,22*74
$GPGSV,3,3,11,07,15,089,32,11,05,059,,24,03,291,*4C
$GLGSV,3,1,09,65,48,260,25,75,47,344,33,85,31,118,24,84,27,059,20*66
$GLGSV,3,2,09,72,27,198,28,74,26,049,27,66,21,323,27,76,18,285,12*68
$GLGSV,3,3,09,86,05,165,19*5D
$BDGSV,2,1,06,214,32,226,25,212,34,150,09,205,45,140,,202,29,118,*61
$BDGSV,2,2,06,208,27,062,,210,23,072,*62
$GPGSA,A,3,05,07,13,15,17,19,20,28,30,,,,2.8,2.0,1.9*33
$GNGSA,A,3,05,07,13,15,17,19,20,28,30,,,,2.8,2.0,1.9*2D
$GNGSA,A,3,65,66,72,75,84,85,86,,,,,,2.8,2.0,1.9*27
$QZGSA,A,3,,,,,,,,,,,,,2.8,2.0,1.9*2E
$IMGSA,A,3,,,,,,,,,,,,,2.8,2.0,1.9*21
$BDGSA,A,3,,,,,,,,,,,,,2.8,2.0,1.9*23
$GPRMC,063440.00,A,3205.045295,N,03448.156716,E,001.6,,170616,,,A*77
$GPGGA,063441.00,3205.044624,N,03448.154274,E,1,16,0.8,37.1,M,19.2,M,,*56
$GPGSV,3,1,11,13,65,314,38,28,60,027,37,17,47,137,34,30,38,072,23*71
$GPGSV,3,2,11,15,29,314,41,19,28,169,24,05,23,235,25,20,16,281,21*74
$GPGSV,3,3,11,07,15,089,31,11,05,059,,24,03,291,*4F
$GLGSV,3,1,09,65,48,260,24,75,47,344,32,85,32,118,23,84,27,059,20*62
$GLGSV,3,2,09,72,27,198,27,74,26,049,26,66,21,323,27,76,18,285,12*66
$GLGSV,3,3,09,86,05,165,18*5C
$BDGSV,2,1,06,214,32,226,24,212,34,150,09,205,45,140,,202,29,118,*60
$BDGSV,2,2,06,208,27,062,,210,23,072,*62
$GPGSA,A,3,05,07,13,15,17,19,20,28,30,,,,2.6,1.6,2.0*32
$GNGSA,A,3,05,07,13,15,17,19,20,28,30,,,,2.6,1.6,2.0*2C
$GNGSA,A,3,65,66,72,75,84,85,86,,,,,,2.6,1.6,2.0*26
$QZGSA,A,3,,,,,,,,,,,,,2.6,1.6,2.0*2F
$IMGSA,A,3,,,,,,,,,,,,,2.6,1.6,2.0*20
$BDGSA,A,3,,,,,,,,,,,,,2.6,1.6,2.0*22
$GPRMC,063441.00,A,3205.044624,N,03448.154274,E,001.7,,170616,,,A*7B
$GPGGA,063442.00,3205.044629,N,03448.154270,E,1,16,1.2,37.2,M,19.2,M,,*54
$GPGSV,3,1,11,13,65,314,38,28,60,027,36,17,47,137,34,30,38,072,22*71
$GPGSV,3,2,11,15,29,314,40,19,28,169,23,05,23,235,24,20,16,281,20*72
$GPGSV,3,3,11,07,15,089,31,11,05,059,,24,03,291,*4F
$GLGSV,3,1,09,65,48,260,24,75,47,344,32,85,32,118,23,84,27,059,19*68
$GLGSV,3,2,09,72,27,198,27,74,26,049,25,66,21,323,26,76,18,285,11*67
$GLGSV,3,3,09,86,05,165,18*5C
$BDGSV,2,1,06,214,32,226,24,212,34,150,11,205,45,140,,202,29,118,*69
$BDGSV,2,2,06,208,27,062,,210,23,072,*62
$GPGSA,A,3,05,07,13,15,17,19,20,28,30,,,,2.6,1.6,2.0*32
$GNGSA,A,3,05,07,13,15,17,19,20,28,30,,,,2.6,1.6,2.0*2C
$GNGSA,A,3,65,66,72,75,84,85,86,,,,,,2.6,1.6,2.0*26
$QZGSA,A,3,,,,,,,,,,,,,2.6,1.6,2.0*2F
$IMGSA,A,3,,,,,,,,,,,,,2.6,1.6,2.0*20
$BDGSA,A,3,,,,,,,,,,,,,2.6,1.6,2.0*22
$GPRMC,063442.00,A,3205.044629,N,03448.154270,E,000.7,,170616,,,A*70
$GPGGA,063443.00,3205.044629,N,03448.154270,E,1,16,1.2,37.2,M,19.2,M,,*55
$GPGSV,3,1,11,13,65,314,38,28,60,027,36,17,47,137,34,30,38,072,23*70
$GPGSV,3,2,11,15,29,314,40,19,28,169,26,05,23,235,24,20,16,281,20*77
$GPGSV,3,3,11,07,15,089,31,11,05,059,,24,03,291,*4F
$GLGSV,3,1,09,65,48,260,24,75,47,344,33,85,32,118,23,84,27,059,19*69
$GLGSV,3,2,09,72,27,198,30,74,26,049,25,66,21,323,26,76,18,285,11*61
$GLGSV,3,3,09,86,05,165,17*53
$BDGSV,2,1,06,214,32,225,25,212,34,150,11,205,45,140,,202,29,118,*6B
$BDGSV,2,2,06,208,27,062,,210,23,072,*62
$GPGSA,A,3,05,07,13,15,17,19,20,28,30,,,,2.2,1.3,1.8*38
$GNGSA,A,3,05,07,13,15,17,19,20,28,30,,,,2.2,1.3,1.8*26
$GNGSA,A,3,65,66,72,75,84,85,86,,,,,,2.2,1.3,1.8*2C
$QZGSA,A,3,,,,,,,,,,,,,2.2,1.3,1.8*25
$IMGSA,A,3,,,,,,,,,,,,,2.2,1.3,1.8*2A
$BDGSA,A,3,,,,,,,,,,,,,2.2,1.3,1.8*28
$GPRMC,063443.00,A,3205.044629,N,03448.154270,E,000.0,,170616,,,A*76
$GPGGA,063444.00,3205.044629,N,03448.154270,E,1,16,1.2,37.2,M,19.2,M,,*52
$GPGSV,3,1,11,13,65,314,38,28,60,027,37,17,47,137,38,30,38,072,25*7B
$GPGSV,3,2,11,15,29,314,40,19,28,169,26,05,23,235,25,20,16,281,22*74
$GPGSV,3,3,11,07,15,089,32,11,05,059,,24,03,291,*4C
$GLGSV,3,1,09,65,48,260,24,75,47,344,35,85,32,118,23,84,27,059,21*64
$GLGSV,3,2,09,72,27,198,32,74,26,049,26,66,21,323,26,76,18,285,11*60
$GLGSV,3,3,09,86,05,165,17*53
$BDGSV,2,1,06,214,32,225,25,212,34,150,13,205,45,140,,202,29,118,*69
$BDGSV,2,2,06,208,27,062,,210,23,072,*62
$GPGSA,A,3,05,07,13,15,17,19,20,28,30,,,,1.9,1.0,1.6*3D
$GNGSA,A,3,05,07,13,15,17,19,20,28,30,,,,1.9,1.0,1.6*23
$GNGSA,A,3,65,66,72,75,84,85,86,,,,,,1.9,1.0,1.6*29
$QZGSA,A,3,,,,,,,,,,,,,1.9,1.0,1.6*20
$IMGSA,A,3,,,,,,,,,,,,,1.9,1.0,1.6*2F
$BDGSA,A,3,,,,,,,,,,,,,1.9,1.0,1.6*2D
$GPRMC,063444.00,A,3205.044629,N,03448.154270,E,000.0,,170616,,,A*71
$GPGGA,063445.00,3205.044629,N,03448.154270,E,1,16,1.2,37.2,M,19.2,M,,*53
$GPGSV,3,1,11,13,65,314,38,28,60,027,37,17,47,137,38,30,38,072,25*7B
$GPGSV,3,2,11,15,29,314,39,19,28,169,26,05,23,235,25,20,16,281,23*7B
$GPGSV,3,3,11,07,15,089,32,11,05,059,,24,03,291,*4C
$GLGSV,3,1,09,65,48,260,25,75,47,344,34,85,32,118,25,72,27,198,41*61
$GLGSV,3,2,09,84,27,059,27,74,26,049,30,66,21,323,26,76,18,285,09*6F
$GLGSV,3,3,09,86,05,165,17*53
$BDGSV,2,1,06,214,32,225,25,212,34,150,17,205,45,140,,202,29,118,*6D
$BDGSV,2,2,06,208,27,062,,210,23,072,*62
$GPGSA,A,3,05,07,13,15,17,19,20,28,30,,,,2.4,1.3,2.0*35
$GNGSA,A,3,05,07,13,15,17,19,20,28,30,,,,2.4,1.3,2.0*2B
$GNGSA,A,3,65,66,72,75,84,85,86,,,,,,2.4,1.3,2.0*21
$QZGSA,A,3,,,,,,,,,,,,,2.4,1.3,2.0*28
$IMGSA,A,3,,,,,,,,,,,,,2.4,1.3,2.0*27
$BDGSA,A,3,,,,,,,,,,,,,2.4,1.3,2.0*25
$GPRMC,063445.00,A,3205.044629,N,03448.154270,E,000.9,,170616,,,A*79
$GPGGA,063446.00,3205.044551,N,03448.153641,E,1,16,0.8,37.2,M,19.2,M,,*56
$GPGSV,3,1,11,13,65,314,37,28,60,027,40,17,47,137,39,30,38,072,25*75
$GPGSV,3,2,11,15,29,314,38,19,28,169,26,05,23,235,25,20,16,281,27*7E
$GPGSV,3,3,11,07,15,089,32,11,05,059,,24,03,291,*4C
$GLGSV,3,1,09,65,48,260,25,75,47,344,34,85,32,118,25,84,27,059,27*64
$GLGSV,3,2,09,72,27,198,41,74,26,049,31,66,21,323,25,76,18,285,09*68
$GLGSV,3,3,09,86,05,165,17*53
$BDGSV,2,1,06,214,32,225,25,212,34,150,18,205,45,140,,202,29,118,*62
$BDGSV,2,2,06,208,27,062,,210,23,072,*62
$GPGSA,A,3,05,07,13,15,17,19,20,28,30,,,,3.1,1.8,2.6*3C
$GNGSA,A,3,05,07,13,15,17,19,20,28,30,,,,3.1,1.8,2.6*22
$GNGSA,A,3,65,66,72,75,84,85,86,,,,,,3.1,1.8,2.6*28
$QZGSA,A,3,,,,,,,,,,,,,3.1,1.8,2.6*21
$IMGSA,A,3,,,,,,,,,,,,,3.1,1.8,2.6*2E
$BDGSA,A,3,,,,,,,,,,,,,3.1,1.8,2.6*2C
$GPRMC,063446.00,A,3205.044551,N,03448.153641,E,001.4,,170616,,,A*7B
$GPGGA,063447.00,3205.044522,N,03448.152710,E,1,16,0.8,37.2,M,19.2,M,,*57
$GPGSV,3,1,11,13,65,314,37,28,60,027,39,17,47,137,43,30,38,072,24*77
$GPGSV,3,2,11,15,29,314,37,19,28,169,26,05,23,235,24,20,16,281,27*70
$GPGSV,3,3,11,07,15,089,31,11,05,059,,24,03,291,*4F
$GLGSV,3,1,09,65,48,260,25,75,47,344,34,85,32,118,25,84,27,059,27*64
$GLGSV,3,2,09,72,27,198,40,74,26,049,30,66,21,323,25,76,18,285,10*60
$GLGSV,3,3,09,86,05,165,18*5C
$BDGSV,2,1,06,214,32,225,25,212,34,150,22,205,45,140,,202,29,118,*6B
$BDGSV,2,2,06,208,27,062,,210,23,072,*62
$GPGSA,A,3,05,07,13,15,17,19,20,28,30,,,,3.1,1.8,2.6*3C
$GNGSA,A,3,05,07,13,15,17,19,20,28,30,,,,3.1,1.8,2.6*22
$GNGSA,A,3,65,66,72,75,84,85,86,,,,,,3.1,1.8,2.6*28
$QZGSA,A,3,,,,,,,,,,,,,3.1,1.8,2.6*21
$IMGSA,A,3,,,,,,,,,,,,,3.1,1.8,2.6*2E
$BDGSA,A,3,,,,,,,,,,,,,3.1,1.8,2.6*2C
$GPRMC,063447.00,A,3205.044522,N,03448.152710,E,001.7,,170616,,,A*79
$GPGGA,063448.00,3205.044260,N,03448.152398,E,1,16,1.2,37.2,M,19.2,M,,*56
$GPGSV,3,1,11,13,65,314,37,28,60,027,39,17,47,137,43,30,38,072,24*77
$GPGSV,3,2,11,15,29,314,36,19,28,169,27,05,23,235,24,20,16,281,27*70
$GPGSV,3,3,11,07,15,089,31,11,05,059,,24,03,291,*4F
$GLGSV,3,1,09,65,48,260,25,75,47,344,34,85,32,118,24,84,27,059,27*65
$GLGSV,3,2,09,72,27,198,39,74,26,049,30,66,21,323,25,76,18,285,10*6E
$GLGSV,3,3,09,86,05,165,18*5C
$BDGSV,2,1,06,214,32,225,24,212,34,150,22,205,45,140,,202,29,118,*6A
$BDGSV,2,2,06,208,27,062,,210,23,072,*62
$GPGSA,A,3,05,07,13,15,17,19,20,28,30,,,,2.6,1.7,2.0*33
$GNGSA,A,3,05,07,13,15,17,19,20,28,30,,,,2.6,1.7,2.0*2D
$GNGSA,A,3,65,66,72,75,84,85,86,,,,,,2.6,1.7,2.0*27
$QZGSA,A,3,,,,,,,,,,,,,2.6,1.7,2.0*2E
$IMGSA,A,3,,,,,,,,,,,,,2.6,1.7,2.0*21
$BDGSA,A,3,,,,,,,,,,,,,2.6,1.7,2.0*23
$GPRMC,063448.00,A,3205.044260,N,03448.152398,E,001.9,,170616,,,A*7D
$GPGGA,063449.00,3205.043959,N,03448.152194,E,1,16,1.2,37.2,M,19.2,M,,*5F
$GPGSV,3,1,11,13,65,314,37,28,60,027,39,17,47,137,43,30,38,072,24*77
$GPGSV,3,2,11,15,29,314,35,19,28,169,27,05,23,235,24,20,16,281,26*72
$GPGSV,3,3,11,07,15,089,31,11,05,059,,24,04,291,*48
$GLGSV,3,1,09,65,48,260,24,75,47,344,34,85,32,118,24,84,27,059,26*65
$GLGSV,3,2,09,72,27,198,38,74,26,049,30,66,21,323,24,76,18,285,10*6E
$GLGSV,3,3,09,86,05,165,18*5C
$BDGSV,2,1,06,214,32,225,24,212,34,150,22,205,45,140,,202,29,118,*6A
$BDGSV,2,2,06,208,27,062,,210,23,072,*62
$GPGSA,A,3,05,07,13,15,17,19,20,28,30,,,,3.1,1.8,2.6*3C
$GNGSA,A,3,05,07,13,15,17,19,20,28,30,,,,3.1,1.8,2.6*22
$GNGSA,A,3,65,66,72,75,84,85,86,,,,,,3.1,1.8,2.6*28
$QZGSA,A,3,,,,,,,,,,,,,3.1,1.8,2.6*21
$IMGSA,A,3,,,,,,,,,,,,,3.1,1.8,2.6*2E
$BDGSA,A,3,,,,,,,,,,,,,3.1,1.8,2.6*2C
$GPRMC,063449.00,A,3205.043959,N,03448.152194,E,002.0,,170616,,,A*7E
$GPGGA,063450.00,3205.043587,N,03448.152162,E,1,16,0.8,37.3,M,19.2,M,,*5B
$GPGSV,3,1,11,13,65,314,37,28,60,027,39,17,47,137,43,30,38,072,24*77
$GPGSV,3,2,11,15,29,314,34,19,28,169,27,05,23,235,24,20,16,281,26*73
$GPGSV,3,3,11,07,15,089,31,11,05,059,,24,04,291,*48
$GLGSV,3,1,09,65,48,260,24,75,47,344,33,85,32,118,24,84,27,059,26*62
$GLGSV,3,2,09,72,27,198,38,74,26,049,30,66,21,323,24,76,18,285,10*6E
$GLGSV,3,3,09,86,05,165,21*56
$BDGSV,2,1,06,214,32,225,24,212,34,150,22,205,45,140,,202,29,118,*6A
$BDGSV,2,2,06,208,27,062,,210,23,072,*62
$GPGSA,A,3,05,07,13,15,17,19,20,28,30,,,,2.4,1.3,2.0*35
$GNGSA,A,3,05,07,13,15,17,19,20,28,30,,,,2.4,1.3,2.0*2B
$GNGSA,A,3,65,66,72,75,84,85,86,,,,,,2.4,1.3,2.0*21
$QZGSA,A,3,,,,,,,,,,,,,2.4,1.3,2.0*28
$IMGSA,A,3,,,,,,,,,,,,,2.4,1.3,2.0*27
$BDGSA,A,3,,,,,,,,,,,,,2.4,1.3,2.0*25
$GPRMC,063450.00,A,3205.043587,N,03448.152162,E,002.0,,170616,,,A*70
$GPGGA,063451.00,3205.043109,N,03448.152254,E,1,16,1.2,37.4,M,19.2,M,,*52
$GPGSV,3,1,11,13,65,314,38,28,60,027,39,17,47,137,42,30,38,072,25*78
$GPGSV,3,2,11,15,29,314,33,19,28,169,27,05,23,235,24,20,16,281,26*74
$GPGSV,3,3,11,07,15,089,30,11,05,059,,24,04,291,*49
$GLGSV,3,1,09,65,48,260,24,75,47,344,33,85,32,118,28,84,27,059,29*61
$GLGSV,3,2,09,72,27,198,37,74,26,049,30,66,21,323,24,76,18,285,10*61
$GLGSV,3,3,09,86,05,165,24*53
$BDGSV,2,1,06,214,32,225,24,212,34,150,20,205,45,140,,202,29,118,*68
$BDGSV,2,2,06,208,27,062,,210,23,072,*62
$GPGSA,A,3,05,07,13,15,17,19,20,28,30,,,,2.4,1.3,2.0*35
$GNGSA,A,3,05,07,13,15,17,19,20,28,30,,,,2.4,1.3,2.0*2B
$GNGSA,A,3,65,66,72,75,84,85,86,,,,,,2.4,1.3,2.0*21
$QZGSA,A,3,,,,,,,,,,,,,2.4,1.3,2.0*28
$IMGSA,A,3,,,,,,,,,,,,,2.4,1.3,2.0*27
$BDGSA,A,3,,,,,,,,,,,,,2.4,1.3,2.0*25
$GPRMC,063451.00,A,3205.043109,N,03448.152254,E,002.1,161.8,170616,,,A*54
$GPGGA,063452.00,3205.042511,N,03448.152381,E,1,16,1.2,37.6,M,19.2,M,,*56
$GPGSV,3,1,11,13,65,314,37,28,60,027,39,17,47,137,41,30,38,072,25*74
$GPGSV,3,2,11,15,29,314,33,19,28,169,26,05,23,235,25,20,16,281,26*74
$GPGSV,3,3,11,07,15,089,29,11,05,059,,24,04,291,*41
$GLGSV,3,1,09,65,48,260,24,75,47,345,33,85,32,118,29,84,27,059,34*6D
$GLGSV,3,2,09,72,27,198,36,74,26,049,30,66,21,323,24,76,18,285,10*60
$GLGSV,3,3,09,86,05,165,24*53
$BDGSV,2,1,06,214,32,225,23,212,34,150,18,205,45,140,,202,29,118,*64
$BDGSV,2,2,06,208,27,062,,210,23,072,*62
$GPGSA,A,3,05,07,13,15,17,19,20,28,30,,,,2.1,1.2,1.8*3A
$GNGSA,A,3,05,07,13,15,17,19,20,28,30,,,,2.1,1.2,1.8*24
$GNGSA,A,3,65,66,72,75,84,85,86,,,,,,2.1,1.2,1.8*2E
$QZGSA,A,3,,,,,,,,,,,,,2.1,1.2,1.8*27
$IMGSA,A,3,,,,,,,,,,,,,2.1,1.2,1.8*28
$BDGSA,A,3,,,,,,,,,,,,,2.1,1.2,1.8*2A
$GPRMC,063452.00,A,3205.042511,N,03448.152381,E,002.1,161.4,170616,,,A*5E
$GPGGA,063453.00,3205.041905,N,03448.152495,E,1,16,1.6,37.8,M,19.2,M,,*55
$GPGSV,3,1,11,13,65,314,38,28,60,027,39,17,47,137,41,30,38,072,25*7B
$GPGSV,3,2,11,15,29,314,33,19,28,169,26,05,23,235,28,20,16,281,25*7A
$GPGSV,3,3,11,07,15,089,28,11,05,059,,24,04,291,*40
$GLGSV,3,1,09,65,48,260,24,75,47,345,33,85,32,118,29,84,27,059,34*6D
$GLGSV,3,2,09,72,27,198,35,74,26,049,29,66,21,323,24,76,18,285,11*6A
$GLGSV,3,3,09,86,05,165,23*54
$BDGSV,2,1,06,214,32,225,23,212,34,150,15,205,45,140,,202,29,118,*69
$BDGSV,2,2,06,208,27,062,,210,23,072,*62
$GPGSA,A,3,05,07,13,15,17,19,20,28,30,,,,2.1,1.1,1.8*39
$GNGSA,A,3,05,07,13,15,17,19,20,28,30,,,,2.1,1.1,1.8*27
$GNGSA,A,3,65,66,72,75,84,85,86,,,,,,2.1,1.1,1.8*2D
$QZGSA,A,3,,,,,,,,,,,,,2.1,1.1,1.8*24
$IMGSA,A,3,,,,,,,,,,,,,2.1,1.1,1.8*2B
$BDGSA,A,3,,,,,,,,,,,,,2.1,1.1,1.8*29
$GPRMC,063453.00,A,3205.041905,N,03448.152495,E,002.1,166.2,170616,,,A*56
$GPGGA,063454.00,3205.041171,N,03448.152455,E,1,16,1.6,38.1,M,19.2,M,,*53
$GPGSV,3,1,11,13,65,314,38,28,60,027,38,17,47,137,40,30,38,072,26*78
$GPGSV,3,2,11,15,29,314,33,19,28,169,26,05,23,235,28,20,16,281,25*7A
$GPGSV,3,3,11,07,15,089,28,11,05,059,,24,04,291,*40
$GLGSV,3,1,09,65,48,260,24,75,47,345,33,85,32,118,29,84,27,059,34*6D
$GLGSV,3,2,09,74,26,049,29,72,26,198,35,66,21,323,23,76,18,285,11*6C
$GLGSV,3,3,09,86,05,165,23*54
$BDGSV,2,1,06,214,32,225,25,212,34,150,10,205,45,140,,202,29,118,*6A
$BDGSV,2,2,06,208,27,062,,210,23,072,*62
$GPGSA,A,3,05,07,13,15,17,19,20,28,30,,,,2.2,1.3,1.8*38
$GNGSA,A,3,05,07,13,15,17,19,20,28,30,,,,2.2,1.3,1.8*26
$GNGSA,A,3,65,66,72,75,84,85,86,,,,,,2.2,1.3,1.8*2C
$QZGSA,A,3,,,,,,,,,,,,,2.2,1.3,1.8*25
$IMGSA,A,3,,,,,,,,,,,,,2.2,1.3,1.8*2A
$BDGSA,A,3,,,,,,,,,,,,,2.2,1.3,1.8*28
$GPRMC,063454.00,A,3205.041171,N,03448.152455,E,002.2,181.8,170616,,,A*56
$GPGGA,063455.00,3205.040342,N,03448.152332,E,1,16,1.6,38.4,M,19.2,M,,*52
$GPGSV,3,1,11,13,65,314,39,28,60,027,39,17,47,137,40,30,38,072,26*78
$GPGSV,3,2,11,15,29,314,33,19,28,169,26,05,23,235,27,20,16,281,28*78
$GPGSV,3,3,11,07,15,089,27,11,05,059,,24,04,291,*4F
$GLGSV,3,1,09,65,48,260,25,75,47,345,33,85,32,118,29,84,27,059,34*6C
$GLGSV,3,2,09,74,26,049,29,72,26,198,34,66,21,323,23,76,18,285,12*6E
$GLGSV,3,3,09,86,05,165,23*54
$BDGSV,2,1,06,214,32,225,26,205,45,140,,212,34,150,,202,29,118,*68
$BDGSV,2,2,06,208,27,062,,210,23,072,*62
$GPGSA,A,3,05,07,13,15,17,19,20,28,30,,,,2.6,1.5,2.2*33
$GNGSA,A,3,05,07,13,15,17,19,20,28,30,,,,2.6,1.5,2.2*2D
$GNGSA,A,3,65,66,72,75,84,85,86,,,,,,2.6,1.5,2.2*27
$QZGSA,A,3,,,,,,,,,,,,,2.6,1.5,2.2*2E
$IMGSA,A,3,,,,,,,,,,,,,2.6,1.5,2.2*21
$BDGSA,A,3,,,,,,,,,,,,,2.6,1.5,2.2*23
$GPRMC,063455.00,A,3205.040342,N,03448.152332,E,002.2,184.2,170616,,,A*5D
$GPGGA,063456.00,3205.039464,N,03448.152372,E,1,16,0.8,38.8,M,19.2,M,,*5B
$GPGSV,3,1,11,13,65,314,39,28,60,027,39,17,47,137,41,30,38,072,26*79
$GPGSV,3,2,11,15,29,314,34,19,28,169,28,05,23,235,29,20,16,281,27*70
$GPGSV,3,3,11,07,15,089,26,11,05,059,,24,04,291,*4E
$GLGSV,3,1,09,65,48,260,26,75,47,345,33,85,32,118,29,84,27,059,33*68
$GLGSV,3,2,09,74,26,049,30,72,26,198,35,66,21,323,23,76,18,285,12*67
$GLGSV,3,3,09,86,05,165,22*55
$BDGSV,2,1,06,214,32,225,32,205,45,140,,212,34,150,,202,29,118,*6D
$BDGSV,2,2,06,208,27,062,,210,23,072,*62
$GPGSA,A,3,05,07,13,15,17,19,20,28,30,,,,2.2,1.3,1.8*38
$GNGSA,A,3,05,07,13,15,17,19,20,28,30,,,,2.2,1.3,1.8*26
$GNGSA,A,3,65,66,72,75,84,85,86,,,,,,2.2,1.3,1.8*2C
$QZGSA,A,3,,,,,,,,,,,,,2.2,1.3,1.8*25
$IMGSA,A,3,,,,,,,,,,,,,2.2,1.3,1.8*2A
$BDGSA,A,3,,,,,,,,,,,,,2.2,1.3,1.8*28
$GPRMC,063456.00,A,3205.039464,N,03448.152372,E,002.2,176.6,170616,,,A*5E
$GPGGA,063457.00,3205.038503,N,03448.152479,E,1,17,0.8,39.0,M,19.2,M,,*5F
$GPGSV,3,1,11,13,65,314,40,28,60,027,38,17,47,137,41,30,38,072,26*76
$GPGSV,3,2,11,15,29,314,34,19,28,169,27,05,23,235,30,20,16,281,27*77
$GPGSV,3,3,11,07,15,089,25,11,05,059,,24,04,291,*4D
$GLGSV,3,1,09,65,48,260,26,75,47,345,33,85,32,118,30,84,27,059,33*60
$GLGSV,3,2,09,74,26,049,30,72,26,198,35,66,21,323,24,76,18,285,12*60
$GLGSV,3,3,09,86,05,165,22*55
$BDGSV,2,1,06,214,32,225,34,212,34,150,14,205,45,140,,202,29,118,*6E
$BDGSV,2,2,06,208,27,062,,210,23,072,*62
$GPGSA,A,3,05,07,13,15,17,19,20,28,30,,,,3.0,1.6,2.5*30
$GNGSA,A,3,05,07,13,15,17,19,20,28,30,,,,3.0,1.6,2.5*2E
$GNGSA,A,3,65,66,72,75,76,84,85,86,,,,,3.0,1.6,2.5*25
$QZGSA,A,3,,,,,,,,,,,,,3.0,1.6,2.5*2D
$IMGSA,A,3,,,,,,,,,,,,,3.0,1.6,2.5*22
$BDGSA,A,3,,,,,,,,,,,,,3.0,1.6,2.5*20
$GPRMC,063457.00,A,3205.038503,N,03448.152479,E,002.2,174.2,170616,,,A*54
$GPGGA,063458.00,3205.037692,N,03448.152667,E,1,17,0.8,39.2,M,19.2,M,,*5B
$GPGSV,3,1,11,13,65,314,39,28,60,027,38,17,47,137,41,30,38,072,26*78
$GPGSV,3,2,11,15,29,314,34,19,28,169,27,05,23,235,34,20,16,281,27*73
$GPGSV,3,3,11,07,15,089,24,11,05,059,,24,04,291,*4C
$GLGSV,3,1,09,65,48,260,26,75,47,345,33,85,32,118,30,84,27,059,32*61
$GLGSV,3,2,09,74,26,049,29,72,26,198,34,66,21,323,26,76,18,285,13*6A
$GLGSV,3,3,09,86,05,165,22*55
$BDGSV,2,1,06,214,32,225,34,212,34,150,14,205,45,140,,202,29,118,*6E
$BDGSV,2,2,06,208,27,062,,210,23,072,*62
$GPGSA,A,3,05,07,13,15,17,19,20,28,30,,,,3.0,1.6,2.5*30
$GNGSA,A,3,05,07,13,15,17,19,20,28,30,,,,3.0,1.6,2.5*2E
$GNGSA,A,3,65,66,72,75,76,84,85,86,,,,,3.0,1.6,2.5*25
$QZGSA,A,3,,,,,,,,,,,,,3.0,1.6,2.5*2D
$IMGSA,A,3,,,,,,,,,,,,,3.0,1.6,2.5*22
$BDGSA,A,3,,,,,,,,,,,,,3.0,1.6,2.5*20
$GPRMC,063458.00,A,3205.037692,N,03448.152667,E,002.2,159.6,170616,,,A*59
$GPGGA,063459.00,3205.037689,N,03448.152665,E,1,17,0.8,39.2,M,19.2,M,,*52
$GPGSV,3,1,11,13,65,314,39,28,60,027,37,17,47,137,40,30,38,072,26*76
$GPGSV,3,2,11,15,29,314,34,19,28,169,27,05,23,235,39,20,16,281,27*7E
$GPGSV,3,3,11,07,15,089,23,11,05,059,,24,04,291,*4B
$GLGSV,3,1,09,65,48,260,26,75,47,345,33,85,32,118,30,84,27,058,31*63
$GLGSV,3,2,09,74,26,049,29,72,26,198,35,66,21,323,26,76,18,285,13*6B
$GLGSV,3,3,09,86,05,165,22*55
$BDGSV,2,1,06,214,32,225,33,212,34,150,14,205,45,140,,202,29,118,*69
$BDGSV,2,2,06,208,27,062,,210,23,072,*62
$GPGSA,A,3,05,07,13,15,17,19,20,28,30,,,,2.5,1.5,2.0*32
$GNGSA,A,3,05,07,13,15,17,19,20,28,30,,,,2.5,1.5,2.0*2C
$GNGSA,A,3,65,66,72,75,76,84,85,86,,,,,2.5,1.5,2.0*27
$QZGSA,A,3,,,,,,,,,,,,,2.5,1.5,2.0*2F
$IMGSA,A,3,,,,,,,,,,,,,2.5,1.5,2.0*20
$BDGSA,A,3,,,,,,,,,,,,,2.5,1.5,2.0*22
$GPRMC,063459.00,A,3205.037689,N,03448.152665,E,000.9,159.6,170616,,,A*59
$GPGGA,063500.00,3205.037378,N,03448.152938,E,1,17,1.6,39.1,M,19.2,M,,*5F
$GPGSV,3,1,11,13,65,314,39,28,60,027,36,17,47,137,41,30,38,072,28*78
$GPGSV,3,2,11,15,29,314,34,19,28,169,26,05,23,235,39,20,16,281,26*7E
$GPGSV,3,3,11,07,15,089,23,11,05,059,,24,04,291,*4B
$GLGSV,3,1,09,65,48,260,30,75,47,345,32,85,32,118,29,84,27,058,31*6D
$GLGSV,3,2,09,74,26,049,29,72,26,198,35,66,21,323,26,76,18,285,13*6B
$GLGSV,3,3,09,86,05,165,21*56
$BDGSV,2,1,06,214,32,225,33,212,34,150,17,205,45,140,,202,29,118,*6A
$BDGSV,2,2,06,208,27,062,,210,23,072,*62
$GPGSA,A,3,05,07,13,15,17,19,20,28,30,,,,3.0,1.6,2.5*30
$GNGSA,A,3,05,07,13,15,17,19,20,28,30,,,,3.0,1.6,2.5*2E
$GNGSA,A,3,65,66,72,75,76,84,85,86,,,,,3.0,1.6,2.5*25
$QZGSA,A,3,,,,,,,,,,,,,3.0,1.6,2.5*2D
$IMGSA,A,3,,,,,,,,,,,,,3.0,1.6,2.5*22
$BDGSA,A,3,,,,,,,,,,,,,3.0,1.6,2.5*20
$GPRMC,063500.00,A,3205.037378,N,03448.152938,E,001.3,159.6,170616,,,A*53
$GPGGA,063501.00,3205.036880,N,03448.153123,E,1,17,1.6,39.0,M,19.2,M,,*51
$GPGSV,3,1,11,13,65,314,38,28,60,027,35,17,47,137,41,30,38,072,29*7B
$GPGSV,3,2,11,15,29,314,34,19,28,169,26,05,23,235,39,20,16,281,26*7E
$GPGSV,3,3,11,07,15,089,22,11,05,059,,24,04,291,*4A
$GLGSV,3,1,09,65,48,260,29,75,47,345,32,85,32,118,29,84,27,058,30*64
$GLGSV,3,2,09,74,26,049,30,72,26,198,34,66,21,323,27,76,18,285,13*63
$GLGSV,3,3,09,86,05,165,21*56
$BDGSV,2,1,06,214,32,225,32,212,34,150,17,205,45,140,,202,29,118,*6B
$BDGSV,2,2,06,208,27,062,,210,23,072,*62
$GPGSA,A,3,05,07,13,15,17,19,20,28,30,,,,2.5,1.5,2.0*32
$GNGSA,A,3,05,07,13,15,17,19,20,28,30,,,,2.5,1.5,2.0*2C
$GNGSA,A,3,65,66,72,75,76,84,85,86,,,,,2.5,1.5,2.0*27
$QZGSA,A,3,,,,,,,,,,,,,2.5,1.5,2.0*2F
$IMGSA,A,3,,,,,,,,,,,,,2.5,1.5,2.0*20
$BDGSA,A,3,,,,,,,,,,,,,2.5,1.5,2.0*22
$GPRMC,063501.00,A,3205.036880,N,03448.153123,E,001.3,159.6,170616,,,A*5C
$GPGGA,063502.00,3205.034781,N,03448.153955,E,1,17,1.6,38.8,M,19.2,M,,*5E
$GPGSV,3,1,11,13,65,314,38,28,60,027,34,17,47,137,41,30,38,072,29*7A
$GPGSV,3,2,11,15,29,314,34,19,28,169,25,05,23,235,39,20,16,281,26*7D
$GPGSV,3,3,11,07,15,089,22,11,05,059,,24,04,291,*4A
$GLGSV,3,1,09,65,48,260,30,75,47,345,32,85,32,118,28,84,27,058,29*65
$GLGSV,3,2,09,74,26,049,30,72,26,198,34,66,21,323,29,76,18,285,13*6D
$GLGSV,3,3,09,86,05,165,21*56
$BDGSV,2,1,06,214,32,225,32,212,34,150,17,205,45,140,,202,29,118,*6B
$BDGSV,2,2,06,208,27,062,,210,23,072,*62
$GPGSA,A,3,05,07,13,15,17,19,20,28,30,,,,2.8,1.6,2.4*38
$GNGSA,A,3,05,07,13,15,17,19,20,28,30,,,,2.8,1.6,2.4*26
$GNGSA,A,3,65,66,72,75,76,84,85,86,,,,,2.8,1.6,2.4*2D
$QZGSA,A,3,,,,,,,,,,,,,2.8,1.6,2.4*25
$IMGSA,A,3,,,,,,,,,,,,,2.8,1.6,2.4*2A
$BDGSA,A,3,,,,,,,,,,,,,2.8,1.6,2.4*28
$GPRMC,063502.00,A,3205.034781,N,03448.153955,E,001.5,159.6,170616,,,A*5C
$GPGGA,063503.00,3205.032508,N,03448.154652,E,1,17,1.6,38.6,M,19.2,M,,*5B
$GPGSV,3,1,11,13,65,314,37,28,60,027,34,17,47,137,40,30,38,072,30*7C
$GPGSV,3,2,11,15,29,314,36,19,28,169,25,05,23,235,38,20,16,281,26*7E
$GPGSV,3,3,11,07,15,089,21,11,05,059,,24,04,291,*49
$GLGSV,3,1,09,65,48,260,33,75,47,345,33,85,32,118,28,84,27,058,28*66
$GLGSV,3,2,09,74,26,050,31,72,26,198,34,66,21,323,29,76,18,285,13*64
$GLGSV,3,3,09,86,05,165,21*56
$BDGSV,2,1,06,214,32,225,32,212,34,150,16,205,45,140,,202,29,118,*6A
$BDGSV,2,2,06,208,27,062,,210,23,072,*62
$GPGSA,A,3,05,07,13,15,17,19,20,28,30,,,,2.8,1.6,2.4*38
$GNGSA,A,3,05,07,13,15,17,19,20,28,30,,,,2.8,1.6,2.4*26
$GNGSA,A,3,65,66,72,75,76,84,85,86,,,,,2.8,1.6,2.4*2D
$QZGSA,A,3,,,,,,,,,,,,,2.8,1.6,2.4*25
$IMGSA,A,3,,,,,,,,,,,,,2.8,1.6,2.4*2A
$BDGSA,A,3,,,,,,,,,,,,,2.8,1.6,2.4*28
$GPRMC,063503.00,A,3205.032508,N,03448.154652,E,002.1,157.9,170616,,,A*51
$GPGGA,063504.00,3205.030422,N,03448.155417,E,1,17,1.6,38.3,M,19.2,M,,*50
$GPGSV,3,1,11,13,65,314,36,28,60,027,33,17,47,137,40,30,38,072,30*7A
$GPGSV,3,2,11,15,29,314,35,19,28,169,25,05,23,235,38,20,16,281,26*7D
$GPGSV,3,3,11,07,15,089,21,11,05,059,,24,04,291,*49
$GLGSV,3,1,09,65,48,260,33,75,47,345,33,85,32,118,28,84,27,058,28*66
$GLGSV,3,2,09,74,26,050,31,72,26,198,35,66,21,323,28,76,18,285,13*64
$GLGSV,3,3,09,86,05,165,21*56
$BDGSV,2,1,06,214,32,225,31,212,34,150,17,205,45,140,,202,29,118,*68
$BDGSV,2,2,06,208,27,062,,210,23,072,*62
$GPGSA,A,3,05,07,13,15,17,19,20,28,30,,,,3.1,1.7,2.6*33
$GNGSA,A,3,05,07,13,15,17,19,20,28,30,,,,3.1,1.7,2.6*2D
$GNGSA,A,3,65,66,72,75,76,84,85,86,,,,,3.1,1.7,2.6*26
$QZGSA,A,3,,,,,,,,,,,,,3.1,1.7,2.6*2E
$IMGSA,A,3,,,,,,,,,,,,,3.1,1.7,2.6*21
$BDGSA,A,3,,,,,,,,,,,,,3.1,1.7,2.6*23
$GPRMC,063504.00,A,3205.030422,N,03448.155417,E,001.5,157.9,170616,,,A*58
