$GPGGA,064215.00,,,,,0,16,6.4,,M,,M,,*67
$GPGSV,3,1,11,13,68,310,27,28,57,028,40,17,50,134,40,30,36,076,26*74
$GPGSV,3,2,11,15,32,313,40,19,31,167,15,05,21,232,35,20,16,278,23*7C
$GPGSV,3,3,11,07,13,092,17,24,06,293,15,11,04,056,*4A
$GLGSV,3,1,09,75,47,350,36,65,46,254,34,85,34,114,28,84,26,054,26*60
$GLGSV,3,2,09,74,24,053,34,66,23,320,25,72,23,197,25,76,19,289,*68
$GLGSV,3,3,09,86,09,163,*5F
$BDGSV,2,1,07,205,45,140,27,202,29,118,25,212,37,148,,214,30,223,*61
$BDGSV,2,2,07,208,28,060,,210,22,073,,211,02,190,*66
$GPGSA,A,1,,,,,,,,,,,,,2.0,0.9,1.8*32
$GNGSA,A,1,,,,,,,,,,,,,2.0,0.9,1.8*2C
$GNGSA,A,1,,,,,,,,,,,,,2.0,0.9,1.8*2C
$QZGSA,A,1,,,,,,,,,,,,,2.0,0.9,1.8*2E
$IMGSA,A,1,,,,,,,,,,,,,2.0,0.9,1.8*21
$BDGSA,A,1,,,,,,,,,,,,,2.0,0.9,1.8*23
$GPRMC,064215.00,V,,,,,,,170616,,,N*7E
$GPGGA,064216.00,,,,,0,16,6.4,,M,,M,,*64
$GPGSV,3,1,11,13,68,310,27,28,57,028,40,17,50,134,40,30,36,076,26*74
$GPGSV,3,2,11,15,32,313,40,19,31,167,20,05,21,232,35,20,16,278,23*7A
$GPGSV,3,3,11,07,13,092,17,24,06,293,15,11,04,056,*4A
$GLGSV,3,1,09,75,47,350,36,65,46,254,34,85,34,114,28,84,26,054,26*60
$GLGSV,3,2,09,74,24,053,34,66,23,320,24,72,23,197,26,76,19,289,*6A
$GLGSV,3,3,09,86,09,163,*5F
$BDGSV,2,1,07,205,45,140,27,202,29,118,24,212,37,148,,214,30,223,*60
$BDGSV,2,2,07,208,28,060,,210,22,073,,211,02,190,*66
$GPGSA,A,1,,,,,,,,,,,,,2.0,0.8,1.8*33
$GNGSA,A,1,,,,,,,,,,,,,2.0,0.8,1.8*2D
$GNGSA,A,1,,,,,,,,,,,,,2.0,0.8,1.8*2D
$QZGSA,A,1,,,,,,,,,,,,,2.0,0.8,1.8*2F
$IMGSA,A,1,,,,,,,,,,,,,2.0,0.8,1.8*20
$BDGSA,A,1,,,,,,,,,,,,,2.0,0.8,1.8*22
$GPRMC,064216.00,V,,,,,,,170616,,,N*7D
$GPGGA,064217.00,3205.003286,N,03448.171954,E,1,15,6.4,307.8,M,19.2,M,,*65
$GPGSV,3,1,11,13,68,310,27,28,57,028,40,17,50,134,41,30,36,076,26*75
$GPGSV,3,2,11,15,32,313,39,19,31,167,22,05,21,232,35,20,16,278,23*76
$GPGSV,3,3,11,07,13,092,17,24,06,293,14,11,04,056,*4B
$GLGSV,3,1,09,75,47,350,36,65,46,254,33,85,34,114,28,84,26,054,26*67
$GLGSV,3,2,09,74,24,053,33,66,23,320,25,72,23,197,26,76,19,289,*6C
$GLGSV,3,3,09,86,09,163,*5F
$BDGSV,2,1,07,205,45,140,26,202,29,118,23,212,37,148,,214,30,223,*66
$BDGSV,2,2,07,208,28,060,,210,22,073,,211,02,190,*66
$GPGSA,A,3,05,07,13,15,17,19,20,28,30,,,,1.9,0.9,1.7*34
$GNGSA,A,3,05,07,13,15,17,19,20,28,30,,,,1.9,0.9,1.7*2A
$GNGSA,A,3,65,66,72,75,84,85,,,,,,,1.9,0.9,1.7*2E
$QZGSA,A,3,,,,,,,,,,,,,1.9,0.9,1.7*29
$IMGSA,A,3,,,,,,,,,,,,,1.9,0.9,1.7*26
$BDGSA,A,3,,,,,,,,,,,,,1.9,0.9,1.7*24
$GPRMC,064217.00,A,3205.003286,N,03448.171954,E,000.0,,170616,,,A*7E
$GPGGA,064218.00,3205.003286,N,03448.171954,E,1,15,6.4,281.9,M,19.2,M,,*64
$GPGSV,3,1,11,13,68,310,26,28,57,028,40,17,50,133,41,30,36,076,26*73
$GPGSV,3,2,11,15,32,313,39,19,31,167,23,05,21,232,34,20,16,278,22*77
$GPGSV,3,3,11,07,13,092,17,24,06,293,14,11,04,056,*4B
$GLGSV,3,1,09,75,47,350,36,65,46,254,33,85,34,114,27,84,26,054,25*6B
$GLGSV,3,2,09,74,24,053,33,66,23,320,29,72,23,197,25,76,19,289,09*6A
$GLGSV,3,3,09,86,09,163,*5F
$BDGSV,2,1,07,205,45,140,26,202,29,118,21,212,37,148,,214,30,223,*64
$BDGSV,2,2,07,208,28,060,,210,22,073,,211,02,190,*66
$GPGSA,A,3,05,07,13,15,17,19,20,28,30,,,,1.9,0.9,1.7*34
$GNGSA,A,3,05,07,13,15,17,19,20,28,30,,,,1.9,0.9,1.7*2A
$GNGSA,A,3,65,66,72,75,84,85,,,,,,,1.9,0.9,1.7*2E
$QZGSA,A,3,,,,,,,,,,,,,1.9,0.9,1.7*29
$IMGSA,A,3,,,,,,,,,,,,,1.9,0.9,1.7*26
$BDGSA,A,3,,,,,,,,,,,,,1.9,0.9,1.7*24
$GPRMC,064218.00,A,3205.003286,N,03448.171954,E,000.0,,170616,,,A*71
$GPGGA,064219.00,3205.003286,N,03448.171954,E,1,15,4.8,246.3,M,19.2,M,,*6A
$GPGSV,3,1,11,13,68,310,26,28,57,028,40,17,50,133,40,30,36,076,26*72
$GPGSV,3,2,11,15,32,313,39,19,31,167,24,05,21,232,34,20,16,278,22*70
$GPGSV,3,3,11,07,13,092,17,24,06,293,14,11,04,056,*4B
$GLGSV,3,1,09,75,47,350,36,65,46,254,33,85,34,114,27,84,26,054,24*6A
$GLGSV,3,2,09,74,24,053,33,66,23,320,30,72,23,197,25,76,19,289,10*6A
$GLGSV,3,3,09,86,09,163,*5F
$BDGSV,2,1,07,214,30,223,24,205,45,140,25,202,29,118,19,212,37,148,*6A
$BDGSV,2,2,07,208,28,060,,210,22,073,,211,02,190,*66
$GPGSA,A,3,05,07,13,15,17,19,20,28,30,,,,2.3,1.1,2.0*30
$GNGSA,A,3,05,07,13,15,17,19,20,28,30,,,,2.3,1.1,2.0*2E
$GNGSA,A,3,65,66,72,75,84,85,,,,,,,2.3,1.1,2.0*2A
$QZGSA,A,3,,,,,,,,,,,,,2.3,1.1,2.0*2D
$IMGSA,A,3,,,,,,,,,,,,,2.3,1.1,2.0*22
$BDGSA,A,3,,,,,,,,,,,,,2.3,1.1,2.0*20
$GPRMC,064219.00,A,3205.003286,N,03448.171954,E,000.0,,170616,,,A*70
$GPGGA,064220.00,3205.003286,N,03448.171954,E,1,15,3.2,229.9,M,19.2,M,,*6E
$GPGSV,3,1,11,13,68,310,26,28,57,028,40,17,50,133,40,30,36,076,25*71
$GPGSV,3,2,11,15,32,313,39,19,31,167,25,05,21,232,34,20,16,278,22*71
$GPGSV,3,3,11,07,13,092,17,24,06,293,13,11,04,056,*4C
$GLGSV,3,1,09,75,47,350,35,65,46,254,33,85,34,114,28,84,26,054,23*61
$GLGSV,3,2,09,74,24,053,32,66,23,320,30,72,23,197,25,76,19,289,10*6B
$GLGSV,3,3,09,86,09,163,*5F
$BDGSV,2,1,07,214,30,223,24,205,45,140,25,202,29,118,15,212,37,148,*66
$BDGSV,2,2,07,208,28,060,,210,22,073,,211,02,190,*66
$GPGSA,A,3,05,07,13,15,17,19,20,28,30,,,,2.4,1.2,2.0*34
$GNGSA,A,3,05,07,13,15,17,19,20,28,30,,,,2.4,1.2,2.0*2A
$GNGSA,A,3,65,66,72,75,84,85,,,,,,,2.4,1.2,2.0*2E
$QZGSA,A,3,,,,,,,,,,,,,2.4,1.2,2.0*29
$IMGSA,A,3,,,,,,,,,,,,,2.4,1.2,2.0*26
$BDGSA,A,3,,,,,,,,,,,,,2.4,1.2,2.0*24
$GPRMC,064220.00,A,3205.003286,N,03448.171954,E,000.0,,170616,,,A*7A
$GPGGA,064221.00,3205.003286,N,03448.171954,E,1,15,3.2,208.9,M,19.2,M,,*6C
$GPGSV,3,1,11,13,68,310,25,28,57,028,40,17,50,133,40,30,36,076,25*72
$GPGSV,3,2,11,15,32,313,40,19,31,167,25,05,21,232,33,20,16,278,26*7C
$GPGSV,3,3,11,07,13,092,16,24,06,293,13,11,04,056,*4D
$GLGSV,3,1,09,75,47,350,36,65,46,254,33,85,34,114,28,84,26,054,23*62
$GLGSV,3,2,09,74,24,053,31,66,23,320,29,72,23,197,25,76,19,289,11*61
$GLGSV,3,3,09,86,09,163,*5F
$BDGSV,2,1,07,214,30,223,24,205,45,140,25,202,29,118,11,212,37,148,*62
$BDGSV,2,2,07,208,28,060,,210,22,073,,211,02,190,*66
$GPGSA,A,3,05,07,13,15,17,19,20,28,30,,,,2.6,1.2,2.3*35
$GNGSA,A,3,05,07,13,15,17,19,20,28,30,,,,2.6,1.2,2.3*2B
$GNGSA,A,3,65,66,72,75,84,85,,,,,,,2.6,1.2,2.3*2F
$QZGSA,A,3,,,,,,,,,,,,,2.6,1.2,2.3*28
$IMGSA,A,3,,,,,,,,,,,,,2.6,1.2,2.3*27
$BDGSA,A,3,,,,,,,,,,,,,2.6,1.2,2.3*25
$GPRMC,064221.00,A,3205.003286,N,03448.171954,E,000.0,,170616,,,A*7B
$GPGGA,064222.00,3205.003286,N,03448.171954,E,1,15,3.2,194.1,M,19.2,M,,*61
$GPGSV,3,1,11,13,68,310,28,28,57,028,40,17,50,133,40,30,36,076,25*7F
$GPGSV,3,2,11,15,32,313,40,19,31,167,26,05,21,232,33,20,16,278,27*7E
$GPGSV,3,3,11,07,13,092,17,24,06,293,13,11,04,056,*4C
$GLGSV,3,1,09,75,47,350,38,65,46,254,33,85,34,114,28,84,26,054,23*6C
$GLGSV,3,2,09,74,24,053,31,66,23,320,29,72,23,197,24,76,19,289,12*63
$GLGSV,3,3,09,86,09,163,*5F
$BDGSV,2,1,07,214,30,223,24,205,45,140,25,212,37,148,,202,29,118,*62
$BDGSV,2,2,07,208,28,060,,210,22,073,,211,02,190,*66
$GPGSA,A,3,05,07,13,15,17,19,20,28,30,,,,3.5,1.4,3.2*31
$GNGSA,A,3,05,07,13,15,17,19,20,28,30,,,,3.5,1.4,3.2*2F
$GNGSA,A,3,65,66,72,75,84,85,,,,,,,3.5,1.4,3.2*2B
$QZGSA,A,3,,,,,,,,,,,,,3.5,1.4,3.2*2C
$IMGSA,A,3,,,,,,,,,,,,,3.5,1.4,3.2*23
$BDGSA,A,3,,,,,,,,,,,,,3.5,1.4,3.2*21
$GPRMC,064222.00,A,3205.003286,N,03448.171954,E,000.0,,170616,,,A*78
$GPGGA,064223.00,3205.003286,N,03448.171954,E,1,16,1.6,192.6,M,19.2,M,,*64
$GPGSV,3,1,11,13,68,310,29,28,57,028,39,17,50,133,40,30,36,076,25*70
$GPGSV,3,2,11,15,32,313,41,19,31,167,25,05,21,232,33,20,16,278,27*7C
$GPGSV,3,3,11,07,13,092,18,24,06,293,12,11,04,056,*42
$GLGSV,3,1,09,75,47,350,38,65,46,254,33,85,34,114,27,84,26,054,23*63
$GLGSV,3,2,09,74,24,053,30,72,23,197,24,66,23,320,29,76,19,289,12*62
$GLGSV,3,3,09,86,09,163,18*56
$BDGSV,2,1,07,214,30,223,24,205,45,140,24,212,37,148,,202,29,118,*63
$BDGSV,2,2,07,208,28,060,,210,22,073,,211,02,190,*66
$GPGSA,A,3,05,07,13,15,17,19,20,28,30,,,,4.6,1.4,4.3*33
$GNGSA,A,3,05,07,13,15,17,19,20,28,30,,,,4.6,1.4,4.3*2D
$GNGSA,A,3,65,66,72,75,84,85,86,,,,,,4.6,1.4,4.3*27
$QZGSA,A,3,,,,,,,,,,,,,4.6,1.4,4.3*2E
$IMGSA,A,3,,,,,,,,,,,,,4.6,1.4,4.3*21
$BDGSA,A,3,,,,,,,,,,,,,4.6,1.4,4.3*23
$GPRMC,064223.00,A,3205.003286,N,03448.171954,E,000.0,,170616,,,A*79
$GPGGA,064224.00,3205.003286,N,03448.171954,E,1,17,3.2,184.9,M,19.2,M,,*6C
$GPGSV,3,1,11,13,68,310,31,28,57,028,39,17,50,133,40,30,36,076,25*79
$GPGSV,3,2,11,15,32,313,41,19,31,167,25,05,21,232,34,20,16,278,27*7B
$GPGSV,3,3,11,07,13,092,19,24,06,293,12,11,04,056,*43
$GLGSV,3,1,09,75,47,350,39,65,46,254,37,85,34,114,27,84,26,054,24*61
$GLGSV,3,2,09,74,24,053,30,72,23,197,26,66,23,320,28,76,19,289,13*60
$GLGSV,3,3,09,86,09,163,18*56
$BDGSV,2,1,07,214,30,223,24,205,45,140,24,212,37,148,,202,29,118,*63
$BDGSV,2,2,07,208,28,060,,210,22,073,,211,02,190,*66
$GPGSA,A,3,05,07,13,15,17,19,20,28,30,,,,3.5,1.4,3.2*31
$GNGSA,A,3,05,07,13,15,17,19,20,28,30,,,,3.5,1.4,3.2*2F
$GNGSA,A,3,65,66,72,75,76,84,85,86,,,,,3.5,1.4,3.2*24
$QZGSA,A,3,,,,,,,,,,,,,3.5,1.4,3.2*2C
$IMGSA,A,3,,,,,,,,,,,,,3.5,1.4,3.2*23
$BDGSA,A,3,,,,,,,,,,,,,3.5,1.4,3.2*21
$GPRMC,064224.00,A,3205.003286,N,03448.171954,E,000.0,,170616,,,A*7E
$GPGGA,064225.00,3205.015615,N,03448.173828,E,1,18,3.2,178.2,M,19.2,M,,*6B
$GPGSV,3,1,11,13,68,310,31,28,57,028,39,17,50,133,39,30,36,076,25*77
$GPGSV,3,2,11,15,32,313,40,19,31,167,25,05,21,232,36,20,16,278,27*78
$GPGSV,3,3,11,07,13,092,23,24,06,293,12,11,04,056,*4A
$GLGSV,3,1,09,75,47,350,39,65,46,254,37,85,34,114,28,84,26,054,27*6D
$GLGSV,3,2,09,74,24,053,30,72,23,197,28,66,23,320,28,76,19,289,14*69
$GLGSV,3,3,09,86,09,163,18*56
$BDGSV,2,1,07,214,30,223,24,205,45,140,24,208,28,060,22,212,37,148,*66
$BDGSV,2,2,07,202,29,118,,210,22,073,,211,02,190,*63
$GPGSA,A,3,05,07,13,15,17,19,20,24,28,30,,,2.8,1.2,2.6*38
$GNGSA,A,3,05,07,13,15,17,19,20,24,28,30,,,2.8,1.2,2.6*26
$GNGSA,A,3,65,66,72,75,76,84,85,86,,,,,2.8,1.2,2.6*2B
$QZGSA,A,3,,,,,,,,,,,,,2.8,1.2,2.6*23
$IMGSA,A,3,,,,,,,,,,,,,2.8,1.2,2.6*2C
$BDGSA,A,3,,,,,,,,,,,,,2.8,1.2,2.6*2E
$GPRMC,064225.00,A,3205.015615,N,03448.173828,E,000.0,,170616,,,A*7E
$GPGGA,064226.00,3205.015225,N,03448.174612,E,1,18,1.6,176.3,M,19.2,M,,*66
$GPGSV,3,1,11,13,68,310,30,28,57,028,38,17,50,133,39,30,36,076,26*74
$GPGSV,3,2,11,15,32,313,39,19,31,167,25,05,21,232,35,20,16,278,27*75
$GPGSV,3,3,11,07,13,092,22,24,06,293,12,11,04,056,*4B
$GLGSV,3,1,09,75,47,350,39,65,46,254,37,85,34,114,30,84,26,054,26*65
$GLGSV,3,2,09,74,24,053,34,72,23,197,28,66,23,320,27,76,19,289,14*62
$GLGSV,3,3,09,86,09,163,18*56
$BDGSV,2,1,07,214,30,223,24,205,45,140,26,208,28,060,21,212,37,148,*67
$BDGSV,2,2,07,202,29,118,,210,22,074,,211,02,190,*64
$GPGSA,A,3,05,07,13,15,17,19,20,24,28,30,,,2.3,1.0,2.0*37
$GNGSA,A,3,05,07,13,15,17,19,20,24,28,30,,,2.3,1.0,2.0*29
$GNGSA,A,3,65,66,72,75,76,84,85,86,,,,,2.3,1.0,2.0*24
$QZGSA,A,3,,,,,,,,,,,,,2.3,1.0,2.0*2C
$IMGSA,A,3,,,,,,,,,,,,,2.3,1.0,2.0*23
$BDGSA,A,3,,,,,,,,,,,,,2.3,1.0,2.0*21
$GPRMC,064226.00,A,3205.015225,N,03448.174612,E,000.0,,170616,,,A*7A
$GPGGA,064227.00,3205.015591,N,03448.174862,E,1,17,3.2,172.3,M,19.2,M,,*6B
$GPGSV,3,1,11,13,68,310,30,28,57,028,38,17,50,133,38,30,36,076,26*75
$GPGSV,3,2,11,15,32,313,38,19,31,167,24,05,21,232,35,20,16,278,26*74
$GPGSV,3,3,11,07,13,092,22,24,06,293,12,11,04,056,*4B
$GLGSV,3,1,09,75,47,350,38,65,46,254,36,85,34,114,30,84,26,054,26*65
$GLGSV,3,2,09,74,24,053,34,72,23,197,28,66,23,320,26,76,19,289,14*63
$GLGSV,3,3,09,86,09,163,18*56
$BDGSV,2,1,07,214,30,223,23,205,45,140,26,208,28,060,20,212,37,148,*61
$BDGSV,2,2,07,202,29,118,,210,22,074,,211,02,190,*64
$GPGSA,A,3,05,07,13,15,17,19,20,28,30,,,,2.3,1.1,2.0*30
$GNGSA,A,3,05,07,13,15,17,19,20,28,30,,,,2.3,1.1,2.0*2E
$GNGSA,A,3,65,66,72,75,76,84,85,86,,,,,2.3,1.1,2.0*25
$QZGSA,A,3,,,,,,,,,,,,,2.3,1.1,2.0*2D
$IMGSA,A,3,,,,,,,,,,,,,2.3,1.1,2.0*22
$BDGSA,A,3,,,,,,,,,,,,,2.3,1.1,2.0*20
$GPRMC,064227.00,A,3205.015591,N,03448.174862,E,000.0,,170616,,,A*7A
$GPGGA,064228.00,3205.015597,N,03448.174867,E,1,17,2.4,172.3,M,19.2,M,,*60
$GPGSV,3,1,11,13,68,310,29,28,57,028,37,17,50,133,37,30,36,076,25*7E
$GPGSV,3,2,11,15,32,313,36,19,31,167,24,05,21,232,34,20,16,278,26*7B
$GPGSV,3,3,11,07,13,092,21,24,06,293,12,11,04,056,*48
$GLGSV,3,1,09,75,47,350,38,65,46,254,36,85,34,114,30,84,26,054,25*66
$GLGSV,3,2,09,74,24,053,33,72,23,197,28,66,23,320,25,76,19,289,14*67
$GLGSV,3,3,09,86,09,163,18*56
$BDGSV,2,1,07,214,30,223,23,205,45,140,26,208,28,060,19,212,37,148,*6B
$BDGSV,2,2,07,202,29,118,,210,22,074,,211,02,190,*64
$GPGSA,A,3,05,07,13,15,17,19,20,28,30,,,,2.0,0.9,1.8*31
$GNGSA,A,3,05,07,13,15,17,19,20,28,30,,,,2.0,0.9,1.8*2F
$GNGSA,A,3,65,66,72,75,76,84,85,86,,,,,2.0,0.9,1.8*24
$QZGSA,A,3,,,,,,,,,,,,,2.0,0.9,1.8*2C
$IMGSA,A,3,,,,,,,,,,,,,2.0,0.9,1.8*23
$BDGSA,A,3,,,,,,,,,,,,,2.0,0.9,1.8*21
$GPRMC,064228.00,A,3205.015597,N,03448.174867,E,000.0,,170616,,,A*76
$GPGGA,064229.00,3205.016627,N,03448.175368,E,1,17,2.4,171.4,M,19.2,M,,*6B
$GPGSV,3,1,11,13,68,310,29,28,57,028,36,17,50,133,37,30,36,076,26*7C
$GPGSV,3,2,11,15,32,313,36,19,31,167,23,05,21,232,33,20,16,278,25*78
$GPGSV,3,3,11,07,13,092,21,24,06,293,12,11,04,056,*48
$GLGSV,3,1,09,75,47,351,38,65,46,254,39,85,34,114,30,84,26,054,27*6A
$GLGSV,3,2,09,74,24,053,33,72,23,197,28,66,23,320,25,76,19,289,14*67
$GLGSV,3,3,09,86,09,163,19*57
$BDGSV,2,1,07,214,30,223,25,205,45,140,27,208,28,060,19,212,37,148,*6C
$BDGSV,2,2,07,202,29,118,,210,22,074,,211,02,190,*64
$GPGSA,A,3,05,07,13,15,17,19,20,28,30,,,,2.0,0.8,1.8*30
$GNGSA,A,3,05,07,13,15,17,19,20,28,30,,,,2.0,0.8,1.8*2E
$GNGSA,A,3,65,66,72,75,76,84,85,86,,,,,2.0,0.8,1.8*25
$QZGSA,A,3,,,,,,,,,,,,,2.0,0.8,1.8*2D
$IMGSA,A,3,,,,,,,,,,,,,2.0,0.8,1.8*22
$BDGSA,A,3,,,,,,,,,,,,,2.0,0.8,1.8*20
$GPRMC,064229.00,A,3205.016627,N,03448.175368,E,000.0,,170616,,,A*79
$GPGGA,064230.00,3205.017293,N,03448.175671,E,1,17,2.4,171.6,M,19.2,M,,*66
$GPGSV,3,1,11,13,68,310,29,28,57,028,36,17,50,133,36,30,36,076,25*7E
$GPGSV,3,2,11,15,32,313,35,19,31,167,23,05,21,232,32,20,16,278,25*7A
$GPGSV,3,3,11,07,13,092,21,24,06,293,12,11,04,056,*48
$GLGSV,3,1,09,75,47,351,38,65,46,254,40,85,34,114,29,84,26,054,29*62
$GLGSV,3,2,09,74,24,053,33,72,23,197,28,66,23,320,24,76,19,289,14*66
$GLGSV,3,3,09,86,09,163,21*5C
$BDGSV,2,1,07,214,30,223,25,205,45,140,27,208,28,060,21,212,37,148,*67
$BDGSV,2,2,07,202,29,118,,210,22,074,,211,02,190,*64
$GPGSA,A,3,05,07,13,15,17,19,20,28,30,,,,2.0,0.8,1.8*30
$GNGSA,A,3,05,07,13,15,17,19,20,28,30,,,,2.0,0.8,1.8*2E
$GNGSA,A,3,65,66,72,75,76,84,85,86,,,,,2.0,0.8,1.8*25
$QZGSA,A,3,,,,,,,,,,,,,2.0,0.8,1.8*2D
$IMGSA,A,3,,,,,,,,,,,,,2.0,0.8,1.8*22
$BDGSA,A,3,,,,,,,,,,,,,2.0,0.8,1.8*20
$GPRMC,064230.00,A,3205.017293,N,03448.175671,E,002.4,,170616,,,A*70
$GPGGA,064231.00,3205.017299,N,03448.175669,E,1,17,2.4,169.6,M,19.2,M,,*6D
$GPGSV,3,1,11,13,68,310,32,28,57,028,35,17,50,133,36,30,36,076,25*77
$GPGSV,3,2,11,15,32,313,35,19,31,167,23,05,21,232,32,20,16,278,27*78
$GPGSV,3,3,11,07,13,092,22,24,06,293,11,11,04,056,*48
$GLGSV,3,1,09,75,47,351,38,65,46,254,40,85,34,114,29,84,26,054,29*62
$GLGSV,3,2,09,74,24,053,33,72,23,197,27,66,23,320,24,76,19,289,14*69
$GLGSV,3,3,09,86,09,163,21*5C
$BDGSV,2,1,07,214,30,223,25,205,45,140,27,208,28,060,20,212,37,148,*66
$BDGSV,2,2,07,202,29,118,,210,22,074,,211,02,190,*64
$GPGSA,A,3,05,07,13,15,17,19,20,28,30,,,,2.0,0.9,1.8*31
$GNGSA,A,3,05,07,13,15,17,19,20,28,30,,,,2.0,0.9,1.8*2F
$GNGSA,A,3,65,66,72,75,76,84,85,86,,,,,2.0,0.9,1.8*24
$QZGSA,A,3,,,,,,,,,,,,,2.0,0.9,1.8*2C
$IMGSA,A,3,,,,,,,,,,,,,2.0,0.9,1.8*23
$BDGSA,A,3,,,,,,,,,,,,,2.0,0.9,1.8*21
$GPRMC,064231.00,A,3205.017299,N,03448.175669,E,000.0,,170616,,,A*74
$GPGGA,064232.00,3205.017300,N,03448.175669,E,1,17,3.2,165.6,M,19.2,M,,*64
$GPGSV,3,1,11,13,68,310,32,28,57,028,35,17,50,133,36,30,36,076,25*77
$GPGSV,3,2,11,15,32,313,35,19,31,167,24,05,21,232,32,20,16,278,27*7F
$GPGSV,3,3,11,07,13,092,21,24,06,293,11,11,04,056,*4B
$GLGSV,3,1,09,75,47,351,37,65,46,254,40,85,34,114,28,84,26,054,29*6C
$GLGSV,3,2,09,74,24,053,36,72,23,197,27,66,23,320,23,76,19,289,14*6B
$GLGSV,3,3,09,86,09,163,21*5C
$BDGSV,2,1,07,214,30,223,24,205,45,140,27,208,28,060,21,212,37,148,*66
$BDGSV,2,2,07,202,29,118,,210,22,074,,211,02,190,*64
$GPGSA,A,3,05,07,13,15,17,19,20,28,30,,,,1.8,0.8,1.6*35
$GNGSA,A,3,05,07,13,15,17,19,20,28,30,,,,1.8,0.8,1.6*2B
$GNGSA,A,3,65,66,72,75,76,84,85,86,,,,,1.8,0.8,1.6*20
$QZGSA,A,3,,,,,,,,,,,,,1.8,0.8,1.6*28
$IMGSA,A,3,,,,,,,,,,,,,1.8,0.8,1.6*27
$BDGSA,A,3,,,,,,,,,,,,,1.8,0.8,1.6*25
$GPRMC,064232.00,A,3205.017300,N,03448.175669,E,000.0,,170616,,,A*76
$GPGGA,064233.00,3205.019129,N,03448.174711,E,1,17,3.2,162.0,M,19.2,M,,*6C
$GPGSV,3,1,11,13,68,310,32,28,57,028,34,17,50,133,37,30,36,076,25*77
$GPGSV,3,2,11,15,32,313,34,19,31,167,24,05,21,232,36,20,16,278,27*7A
$GPGSV,3,3,11,07,13,092,21,24,06,293,11,11,04,056,*4B
$GLGSV,3,1,09,75,47,351,37,65,46,254,40,85,34,114,28,84,26,054,29*6C
$GLGSV,3,2,09,74,24,053,36,72,23,197,27,66,23,320,23,76,19,289,14*6B
$GLGSV,3,3,09,86,09,163,21*5C
$BDGSV,2,1,07,214,30,223,24,205,45,140,27,208,28,060,21,212,37,148,*66
$BDGSV,2,2,07,202,29,118,,210,22,074,,211,02,190,*64
$GPGSA,A,3,05,07,13,15,17,19,20,28,30,,,,1.8,0.8,1.7*34
$GNGSA,A,3,05,07,13,15,17,19,20,28,30,,,,1.8,0.8,1.7*2A
$GNGSA,A,3,65,66,72,75,76,84,85,86,,,,,1.8,0.8,1.7*21
$QZGSA,A,3,,,,,,,,,,,,,1.8,0.8,1.7*29
$IMGSA,A,3,,,,,,,,,,,,,1.8,0.8,1.7*26
$BDGSA,A,3,,,,,,,,,,,,,1.8,0.8,1.7*24
$GPRMC,064233.00,A,3205.019129,N,03448.174711,E,000.0,,170616,,,A*7F
$GPGGA,064234.00,3205.021954,N,03448.172101,E,1,17,3.2,153.1,M,19.2,M,,*60
$GPGSV,3,1,11,13,68,310,32,28,57,028,33,17,50,133,37,30,36,076,24*71
$GPGSV,3,2,11,15,32,313,34,19,31,167,23,05,21,232,36,20,16,278,30*7B
$GPGSV,3,3,11,07,13,092,21,24,06,293,11,11,04,056,*4B
$GLGSV,3,1,09,75,47,351,37,65,46,254,40,85,34,114,27,84,26,054,29*63
$GLGSV,3,2,09,74,24,053,36,72,23,197,27,66,23,320,23,76,19,289,15*6A
$GLGSV,3,3,09,86,09,163,20*5D
$BDGSV,2,1,07,214,30,223,24,205,45,140,27,208,28,060,21,212,37,148,*66
$BDGSV,2,2,07,202,29,118,,210,22,074,,211,02,190,*64
$GPGSA,A,3,05,07,13,15,17,19,20,28,30,,,,1.8,0.8,1.6*35
$GNGSA,A,3,05,07,13,15,17,19,20,28,30,,,,1.8,0.8,1.6*2B
$GNGSA,A,3,65,66,72,75,76,84,85,86,,,,,1.8,0.8,1.6*20
$QZGSA,A,3,,,,,,,,,,,,,1.8,0.8,1.6*28
$IMGSA,A,3,,,,,,,,,,,,,1.8,0.8,1.6*27
$BDGSA,A,3,,,,,,,,,,,,,1.8,0.8,1.6*25
$GPRMC,064234.00,A,3205.021954,N,03448.172101,E,000.0,,170616,,,A*70
$GPGGA,064235.00,3205.016436,N,03448.161346,E,1,17,3.2,114.0,M,19.2,M,,*6D
$GPGSV,3,1,11,13,68,310,31,28,57,028,32,17,50,133,37,30,36,076,24*73
$GPGSV,3,2,11,15,32,313,34,19,31,167,23,05,21,232,36,20,16,278,29*73
$GPGSV,3,3,11,07,13,092,20,24,06,293,11,11,04,056,*4A
$GLGSV,3,1,09,75,47,351,38,65,46,254,40,85,34,114,26,84,26,054,29*6D
$GLGSV,3,2,09,74,24,053,36,72,23,197,26,66,23,320,23,76,19,289,15*6B
$GLGSV,3,3,09,86,09,163,20*5D
$BDGSV,2,1,07,214,30,223,23,205,45,140,26,208,28,060,20,212,37,148,*61
$BDGSV,2,2,07,202,29,118,,210,22,074,,211,02,190,*64
$GPGSA,A,3,05,07,13,15,17,19,20,28,30,,,,1.9,0.9,1.7*34
$GNGSA,A,3,05,07,13,15,17,19,20,28,30,,,,1.9,0.9,1.7*2A
$GNGSA,A,3,65,66,72,75,76,84,85,86,,,,,1.9,0.9,1.7*21
$QZGSA,A,3,,,,,,,,,,,,,1.9,0.9,1.7*29
$IMGSA,A,3,,,,,,,,,,,,,1.9,0.9,1.7*26
$BDGSA,A,3,,,,,,,,,,,,,1.9,0.9,1.7*24
$GPRMC,064235.00,A,3205.016436,N,03448.161346,E,000.0,,170616,,,A*7F
$GPGGA,064236.00,3205.016436,N,03448.161346,E,1,17,1.6,89.4,M,19.2,M,,*59
$GPGSV,3,1,11,13,68,310,31,28,57,028,31,17,50,133,36,30,36,076,24*71
$GPGSV,3,2,11,15,32,313,33,19,31,167,24,05,21,232,36,20,16,278,29*73
$GPGSV,3,3,11,07,13,092,20,24,06,293,11,11,04,056,*4A
$GLGSV,3,1,09,75,47,351,38,65,46,254,39,85,35,114,26,84,26,054,28*63
$GLGSV,3,2,09,74,24,053,36,72,23,197,28,66,23,320,23,76,19,289,15*65
$GLGSV,3,3,09,86,09,163,19*57
$BDGSV,2,1,07,214,30,223,22,205,45,140,26,208,28,060,20,212,37,148,*60
$BDGSV,2,2,07,202,29,118,,210,22,074,,211,02,190,*64
$GPGSA,A,3,05,07,13,15,17,19,20,28,30,,,,2.1,1.1,1.8*39
$GNGSA,A,3,05,07,13,15,17,19,20,28,30,,,,2.1,1.1,1.8*27
$GNGSA,A,3,65,66,72,75,76,84,85,86,,,,,2.1,1.1,1.8*2C
$QZGSA,A,3,,,,,,,,,,,,,2.1,1.1,1.8*24
$IMGSA,A,3,,,,,,,,,,,,,2.1,1.1,1.8*2B
$BDGSA,A,3,,,,,,,,,,,,,2.1,1.1,1.8*29
$GPRMC,064236.00,A,3205.016436,N,03448.161346,E,000.0,,170616,,,A*7C
$GPGGA,064237.00,3205.016436,N,03448.161346,E,1,17,1.6,74.3,M,19.2,M,,*5D
$GPGSV,3,1,11,13,68,310,31,28,57,028,30,17,50,133,36,30,36,076,24*70
$GPGSV,3,2,11,15,32,313,33,19,31,167,24,05,21,232,37,20,16,278,32*78
$GPGSV,3,3,11,07,13,092,20,24,06,293,11,11,04,056,*4A
$GLGSV,3,1,09,75,47,351,38,65,46,254,39,85,35,114,26,84,26,054,28*63
$GLGSV,3,2,09,74,24,053,35,72,23,197,28,66,23,320,25,76,19,289,15*60
$GLGSV,3,3,09,86,09,163,19*57
$BDGSV,2,1,07,214,30,223,22,205,45,140,25,208,28,060,20,212,37,148,*63
$BDGSV,2,2,07,202,29,118,,210,22,074,,211,02,190,*64
$GPGSA,A,3,05,07,13,15,17,19,20,28,30,,,,2.1,1.1,1.8*39
$GNGSA,A,3,05,07,13,15,17,19,20,28,30,,,,2.1,1.1,1.8*27
$GNGSA,A,3,65,66,72,75,76,84,85,86,,,,,2.1,1.1,1.8*2C
$QZGSA,A,3,,,,,,,,,,,,,2.1,1.1,1.8*24
$IMGSA,A,3,,,,,,,,,,,,,2.1,1.1,1.8*2B
$BDGSA,A,3,,,,,,,,,,,,,2.1,1.1,1.8*29
$GPRMC,064237.00,A,3205.016436,N,03448.161346,E,000.0,,170616,,,A*7D
$GPGGA,064238.00,3205.016436,N,03448.161346,E,1,17,1.6,64.4,M,19.2,M,,*54
$GPGSV,3,1,11,13,68,310,30,28,57,028,29,17,50,133,36,30,36,076,23*7E
$GPGSV,3,2,11,15,32,313,35,19,31,167,24,05,21,232,39,20,16,278,32*70
$GPGSV,3,3,11,07,13,092,20,24,06,293,11,11,04,056,*4A
$GLGSV,3,1,09,75,47,351,38,65,46,254,38,85,35,114,28,84,26,054,27*63
$GLGSV,3,2,09,74,24,053,35,72,23,197,30,66,23,320,25,76,19,289,15*69
$GLGSV,3,3,09,86,09,163,19*57
$BDGSV,2,1,07,214,30,223,22,205,45,140,25,208,28,060,20,212,37,148,*63
$BDGSV,2,2,07,202,29,118,,210,22,074,,211,02,190,*64
$GPGSA,A,3,05,07,13,15,17,19,20,28,30,,,,2.1,1.1,1.8*39
$GNGSA,A,3,05,07,13,15,17,19,20,28,30,,,,2.1,1.1,1.8*27
$GNGSA,A,3,65,66,72,75,76,84,85,86,,,,,2.1,1.1,1.8*2C
$QZGSA,A,3,,,,,,,,,,,,,2.1,1.1,1.8*24
$IMGSA,A,3,,,,,,,,,,,,,2.1,1.1,1.8*2B
$BDGSA,A,3,,,,,,,,,,,,,2.1,1.1,1.8*29
$GPRMC,064238.00,A,3205.016436,N,03448.161346,E,000.0,,170616,,,A*72
$GPGGA,064239.00,3205.016436,N,03448.161346,E,1,17,1.6,57.5,M,19.2,M,,*54
$GPGSV,3,1,11,13,68,310,30,28,57,028,28,17,50,133,36,30,36,076,24*78
$GPGSV,3,2,11,15,32,313,38,19,31,167,24,05,21,232,38,20,16,278,31*7F
$GPGSV,3,3,11,07,13,092,19,24,06,293,11,11,04,056,*40
$GLGSV,3,1,09,75,47,351,38,65,46,254,38,85,35,114,28,84,26,054,30*65
$GLGSV,3,2,09,74,24,053,34,72,23,197,30,66,23,320,25,76,19,289,21*6F
$GLGSV,3,3,09,86,09,163,19*57
$BDGSV,2,1,07,214,30,223,22,205,45,140,25,208,28,060,20,212,37,148,*63
$BDGSV,2,2,07,202,29,118,,210,22,074,,211,02,190,*64
$GPGSA,A,3,05,07,13,15,17,19,20,28,30,,,,2.1,1.1,1.8*39
$GNGSA,A,3,05,07,13,15,17,19,20,28,30,,,,2.1,1.1,1.8*27
$GNGSA,A,3,65,66,72,75,76,84,85,86,,,,,2.1,1.1,1.8*2C
$QZGSA,A,3,,,,,,,,,,,,,2.1,1.1,1.8*24
$IMGSA,A,3,,,,,,,,,,,,,2.1,1.1,1.8*2B
$BDGSA,A,3,,,,,,,,,,,,,2.1,1.1,1.8*29
$GPRMC,064239.00,A,3205.016436,N,03448.161346,E,000.0,,170616,,,A*73
$GPGGA,064240.00,3205.016497,N,03448.151393,E,1,17,1.2,57.1,M,19.2,M,,*5A
$GPGSV,3,1,11,13,68,310,30,28,57,028,28,17,50,133,36,30,36,076,25*79
$GPGSV,3,2,11,15,32,313,38,19,31,167,24,05,21,232,38,20,16,278,31*7F
$GPGSV,3,3,11,07,13,092,20,24,06,293,11,11,04,056,*4A
$GLGSV,3,1,09,75,47,351,38,65,46,254,37,85,35,114,30,84,26,054,35*66
$GLGSV,3,2,09,74,24,053,34,72,23,197,30,66,23,320,27,76,19,289,24*68
$GLGSV,3,3,09,86,09,163,20*5D
$BDGSV,2,1,07,214,30,223,22,205,45,140,24,208,28,060,19,212,37,148,*68
$BDGSV,2,2,07,202,29,118,,210,22,074,,211,02,190,*64
$GPGSA,A,3,05,07,13,15,17,19,20,28,30,,,,2.1,1.1,1.8*39
$GNGSA,A,3,05,07,13,15,17,19,20,28,30,,,,2.1,1.1,1.8*27
$GNGSA,A,3,65,66,72,75,76,84,85,86,,,,,2.1,1.1,1.8*2C
$QZGSA,A,3,,,,,,,,,,,,,2.1,1.1,1.8*24
$IMGSA,A,3,,,,,,,,,,,,,2.1,1.1,1.8*2B
$BDGSA,A,3,,,,,,,,,,,,,2.1,1.1,1.8*29
$GPRMC,064240.00,A,3205.016497,N,03448.151393,E,000.0,,170616,,,A*7D
$GPGGA,064241.00,3205.016497,N,03448.151393,E,1,17,1.2,58.8,M,19.2,M,,*5D
$GPGSV,3,1,11,13,68,310,30,28,57,028,27,17,50,133,36,30,36,076,28*7B
$GPGSV,3,2,11,15,32,312,37,19,31,167,24,05,21,232,38,20,16,278,31*71
$GPGSV,3,3,11,07,13,092,22,24,06,293,11,11,04,056,*48
$GLGSV,3,1,09,75,47,351,38,65,46,254,37,85,35,114,32,84,26,054,35*64
$GLGSV,3,2,09,74,24,053,35,72,23,197,30,66,23,320,27,76,19,289,24*69
$GLGSV,3,3,09,86,09,163,20*5D
$BDGSV,2,1,07,214,30,223,23,205,45,140,25,208,28,060,19,212,37,148,*68
$BDGSV,2,2,07,202,29,118,,210,22,074,,211,02,190,*64
$GPGSA,A,3,05,07,13,15,17,19,20,28,30,,,,2.1,1.1,1.8*39
$GNGSA,A,3,05,07,13,15,17,19,20,28,30,,,,2.1,1.1,1.8*27
$GNGSA,A,3,65,66,72,75,76,84,85,86,,,,,2.1,1.1,1.8*2C
$QZGSA,A,3,,,,,,,,,,,,,2.1,1.1,1.8*24
$IMGSA,A,3,,,,,,,,,,,,,2.1,1.1,1.8*2B
$BDGSA,A,3,,,,,,,,,,,,,2.1,1.1,1.8*29
$GPRMC,064241.00,A,3205.016497,N,03448.151393,E,000.0,,170616,,,A*7C
$GPGGA,064242.00,3205.016674,N,03448.149800,E,1,17,0.8,58.6,M,19.2,M,,*5C
$GPGSV,3,1,11,13,68,310,30,28,57,028,27,17,50,133,36,30,36,076,28*7B
$GPGSV,3,2,11,15,32,312,37,19,31,167,26,05,21,232,38,20,16,278,30*72
$GPGSV,3,3,11,07,13,092,22,24,06,293,11,11,04,056,*48
$GLGSV,3,1,09,75,47,351,38,65,46,254,36,85,35,114,34,84,26,054,37*61
$GLGSV,3,2,09,74,24,053,36,72,23,197,30,66,23,320,28,76,19,289,24*65
$GLGSV,3,3,09,86,09,163,20*5D
$BDGSV,2,1,07,214,30,223,23,205,45,140,25,208,28,060,19,212,37,148,*68
$BDGSV,2,2,07,202,29,118,,210,22,074,,211,02,190,*64
$GPGSA,A,3,05,07,13,15,17,19,20,28,30,,,,1.6,1.0,1.2*36
$GNGSA,A,3,05,07,13,15,17,19,20,28,30,,,,1.6,1.0,1.2*28
$GNGSA,A,3,65,66,72,75,76,84,85,86,,,,,1.6,1.0,1.2*23
$QZGSA,A,3,,,,,,,,,,,,,1.6,1.0,1.2*2B
$IMGSA,A,3,,,,,,,,,,,,,1.6,1.0,1.2*24
$BDGSA,A,3,,,,,,,,,,,,,1.6,1.0,1.2*26
$GPRMC,064242.00,A,3205.016674,N,03448.149800,E,000.6,,170616,,,A*7E
$GPGGA,064243.00,3205.016674,N,03448.149799,E,1,17,0.8,58.5,M,19.2,M,,*51
$GPGSV,3,1,11,13,68,310,30,28,57,028,27,17,50,133,36,30,36,076,28*7B
$GPGSV,3,2,11,15,32,312,37,19,31,167,26,05,21,232,38,20,16,278,30*72
$GPGSV,3,3,11,07,13,092,21,24,06,293,11,11,04,056,*4B
$GLGSV,3,1,09,75,47,351,38,65,46,254,35,85,35,114,34,84,26,054,37*62
$GLGSV,3,2,09,74,24,053,36,66,23,320,30,72,22,197,33,76,19,289,23*69
$GLGSV,3,3,09,86,09,163,20*5D
$BDGSV,2,1,07,214,30,223,26,205,45,140,25,208,28,060,19,212,37,148,*6D
$BDGSV,2,2,07,202,29,118,,210,22,074,,211,02,190,*64
$GPGSA,A,3,05,07,13,15,17,19,20,28,30,,,,1.6,1.0,1.2*36
$GNGSA,A,3,05,07,13,15,17,19,20,28,30,,,,1.6,1.0,1.2*28
$GNGSA,A,3,65,66,72,75,76,84,85,86,,,,,1.6,1.0,1.2*23
$QZGSA,A,3,,,,,,,,,,,,,1.6,1.0,1.2*2B
$IMGSA,A,3,,,,,,,,,,,,,1.6,1.0,1.2*24
$BDGSA,A,3,,,,,,,,,,,,,1.6,1.0,1.2*26
$GPRMC,064243.00,A,3205.016674,N,03448.149799,E,000.8,,170616,,,A*7E
$GPGGA,064244.00,3205.016674,N,03448.149799,E,1,17,0.6,58.3,M,19.2,M,,*5E
$GPGSV,3,1,11,13,68,310,29,28,57,028,27,17,50,133,38,30,36,076,28*7D
$GPGSV,3,2,11,15,32,312,37,19,31,167,25,05,21,232,38,20,16,278,29*79
$GPGSV,3,3,11,07,13,092,21,24,06,293,11,11,04,056,*4B
$GLGSV,3,1,09,75,47,351,38,65,46,254,35,85,35,114,33,84,26,054,37*65
$GLGSV,3,2,09,74,24,053,36,66,23,320,31,72,22,197,37,76,19,289,23*6C
$GLGSV,3,3,09,86,09,163,21*5C
$BDGSV,2,1,07,214,30,223,29,205,45,140,30,208,28,060,19,212,37,148,*66
$BDGSV,2,2,07,202,29,118,,210,22,074,,211,02,190,*64
$GPGSA,A,3,05,07,13,15,17,19,20,28,30,,,,1.6,1.0,1.2*36
$GNGSA,A,3,05,07,13,15,17,19,20,28,30,,,,1.6,1.0,1.2*28
$GNGSA,A,3,65,66,72,75,76,84,85,86,,,,,1.6,1.0,1.2*23
$QZGSA,A,3,,,,,,,,,,,,,1.6,1.0,1.2*2B
$IMGSA,A,3,,,,,,,,,,,,,1.6,1.0,1.2*24
$BDGSA,A,3,,,,,,,,,,,,,1.6,1.0,1.2*26
$GPRMC,064244.00,A,3205.016674,N,03448.149799,E,000.8,,170616,,,A*79
$GPGGA,064245.00,3205.016553,N,03448.149825,E,1,17,0.6,58.1,M,19.2,M,,*53
$GPGSV,3,1,11,13,68,310,30,28,57,028,27,17,50,133,39,30,36,076,28*74
$GPGSV,3,2,11,15,32,312,36,19,32,167,25,05,21,232,38,20,16,278,29*7B
$GPGSV,3,3,11,07,13,092,21,24,06,293,11,11,04,056,*4B
$GLGSV,3,1,09,75,47,351,38,65,46,254,35,85,35,114,33,84,26,054,36*64
$GLGSV,3,2,09,74,24,053,36,66,23,320,31,72,22,197,36,76,19,289,23*6D
$GLGSV,3,3,09,86,09,163,21*5C
$BDGSV,2,1,07,214,30,223,29,205,45,140,32,208,28,060,19,212,37,148,*64
$BDGSV,2,2,07,202,29,118,,210,22,074,,211,02,190,*64
$GPGSA,A,3,05,07,13,15,17,19,20,28,30,,,,1.6,1.0,1.2*36
$GNGSA,A,3,05,07,13,15,17,19,20,28,30,,,,1.6,1.0,1.2*28
$GNGSA,A,3,65,66,72,75,76,84,85,86,,,,,1.6,1.0,1.2*23
$QZGSA,A,3,,,,,,,,,,,,,1.6,1.0,1.2*2B
$IMGSA,A,3,,,,,,,,,,,,,1.6,1.0,1.2*24
$BDGSA,A,3,,,,,,,,,,,,,1.6,1.0,1.2*26
$GPRMC,064245.00,A,3205.016553,N,03448.149825,E,001.1,,170616,,,A*7E
$GPGGA,064246.00,3205.016309,N,03448.149869,E,1,17,1.6,58.0,M,19.2,M,,*51
$GPGSV,3,1,11,13,68,310,30,28,57,028,29,17,50,133,41,30,36,076,30*7C
$GPGSV,3,2,11,15,32,312,36,19,32,167,25,05,21,232,38,20,16,278,29*7B
$GPGSV,3,3,11,07,13,092,20,24,06,293,11,11,04,056,*4A
$GLGSV,3,1,09,75,47,351,37,65,46,254,34,85,35,114,32,84,26,054,36*6B
$GLGSV,3,2,09,74,24,053,35,66,23,320,31,72,22,197,36,76,19,289,22*6F
$GLGSV,3,3,09,86,09,163,21*5C
$BDGSV,2,1,07,214,30,223,28,205,45,140,32,208,28,060,18,212,37,148,*64
$BDGSV,2,2,07,202,29,118,,210,22,074,,211,02,190,*64
$GPGSA,A,3,05,07,13,15,17,19,20,28,30,,,,2.7,1.6,2.2*31
$GNGSA,A,3,05,07,13,15,17,19,20,28,30,,,,2.7,1.6,2.2*2F
$GNGSA,A,3,65,66,72,75,76,84,85,86,,,,,2.7,1.6,2.2*24
$QZGSA,A,3,,,,,,,,,,,,,2.7,1.6,2.2*2C
$IMGSA,A,3,,,,,,,,,,,,,2.7,1.6,2.2*23
$BDGSA,A,3,,,,,,,,,,,,,2.7,1.6,2.2*21
$GPRMC,064246.00,A,3205.016309,N,03448.149869,E,001.8,,170616,,,A*75
$GPGGA,064247.00,3205.016303,N,03448.149620,E,1,17,1.6,57.7,M,19.2,M,,*51
$GPGSV,3,1,11,13,68,310,29,28,57,028,33,17,50,133,41,30,36,076,31*7E
$GPGSV,3,2,11,15,32,312,36,19,32,167,25,05,21,232,39,20,16,278,28*7B
$GPGSV,3,3,11,07,13,092,20,24,06,293,11,11,04,056,*4A
$GLGSV,3,1,09,75,47,351,37,65,46,254,34,85,35,114,32,84,26,054,35*68
$GLGSV,3,2,09,74,24,053,34,66,23,320,30,72,22,197,35,76,19,289,22*6C
$GLGSV,3,3,09,86,09,163,21*5C
$BDGSV,2,1,07,214,30,223,28,205,45,140,32,208,28,060,18,212,37,148,*64
$BDGSV,2,2,07,202,29,118,,210,22,074,,211,02,190,*64
$GPGSA,A,3,05,07,13,15,17,19,20,28,30,,,,4.2,1.9,3.8*36
$GNGSA,A,3,05,07,13,15,17,19,20,28,30,,,,4.2,1.9,3.8*28
$GNGSA,A,3,65,66,72,75,76,84,85,86,,,,,4.2,1.9,3.8*23
$QZGSA,A,3,,,,,,,,,,,,,4.2,1.9,3.8*2B
$IMGSA,A,3,,,,,,,,,,,,,4.2,1.9,3.8*24
$BDGSA,A,3,,,,,,,,,,,,,4.2,1.9,3.8*26
$GPRMC,064247.00,A,3205.016303,N,03448.149620,E,001.1,,170616,,,A*74
$GPGGA,064248.00,3205.016277,N,03448.149392,E,1,17,1.6,57.5,M,19.2,M,,*52
$GPGSV,3,1,11,13,68,310,29,28,57,028,36,17,50,133,41,30,36,076,32*78
$GPGSV,3,2,11,15,32,312,35,19,32,167,24,05,21,232,42,20,16,278,28*75
$GPGSV,3,3,11,07,13,092,20,24,06,293,12,11,04,056,*49
$GLGSV,3,1,09,75,47,351,37,65,46,254,34,85,35,114,31,84,26,054,34*6A
$GLGSV,3,2,09,74,24,053,33,66,23,320,29,72,22,197,35,76,19,289,21*60
$GLGSV,3,3,09,86,09,163,20*5D
$BDGSV,2,1,07,214,30,223,27,205,45,140,32,208,28,060,18,212,37,148,*6B
$BDGSV,2,2,07,202,29,118,,210,22,074,,211,02,190,*64
$GPGSA,A,3,05,07,13,15,17,19,20,28,30,,,,4.2,1.9,3.8*36
$GNGSA,A,3,05,07,13,15,17,19,20,28,30,,,,4.2,1.9,3.8*28
$GNGSA,A,3,65,66,72,75,76,84,85,86,,,,,4.2,1.9,3.8*23
$QZGSA,A,3,,,,,,,,,,,,,4.2,1.9,3.8*2B
$IMGSA,A,3,,,,,,,,,,,,,4.2,1.9,3.8*24
$BDGSA,A,3,,,,,,,,,,,,,4.2,1.9,3.8*26
$GPRMC,064248.00,A,3205.016277,N,03448.149392,E,001.5,,170616,,,A*71
$GPGGA,064249.00,3205.016402,N,03448.148305,E,1,17,2.4,57.2,M,19.2,M,,*5E
$GPGSV,3,1,11,13,68,309,28,28,57,028,38,17,50,133,41,30,36,076,32*7F
$GPGSV,3,2,11,15,32,312,34,19,32,167,24,05,21,232,42,20,16,278,29*75
$GPGSV,3,3,11,07,13,092,23,24,06,293,12,11,04,056,*4A
$GLGSV,3,1,09,75,47,351,37,65,46,254,34,85,35,114,30,84,26,054,33*6C
$GLGSV,3,2,09,74,24,053,32,66,23,320,28,72,22,197,34,76,19,289,20*60
$GLGSV,3,3,09,86,09,163,20*5D
$BDGSV,2,1,07,214,30,223,27,205,45,140,32,208,28,060,18,212,37,148,*6B
$BDGSV,2,2,07,202,29,118,,210,22,074,,211,02,190,*64
$GPGSA,A,3,05,07,13,15,17,19,20,28,30,,,,4.2,1.9,3.8*36
$GNGSA,A,3,05,07,13,15,17,19,20,28,30,,,,4.2,1.9,3.8*28
$GNGSA,A,3,65,66,72,75,76,84,85,86,,,,,4.2,1.9,3.8*23
$QZGSA,A,3,,,,,,,,,,,,,4.2,1.9,3.8*2B
$IMGSA,A,3,,,,,,,,,,,,,4.2,1.9,3.8*24
$BDGSA,A,3,,,,,,,,,,,,,4.2,1.9,3.8*26
$GPRMC,064249.00,A,3205.016402,N,03448.148305,E,001.8,,170616,,,A*76
$GPGGA,064250.00,3205.016681,N,03448.147326,E,1,17,2.4,57.0,M,19.2,M,,*53
$GPGSV,3,1,11,13,68,309,28,28,57,028,39,17,50,133,42,30,36,076,37*78
$GPGSV,3,2,11,15,32,312,33,19,32,167,25,05,21,232,42,20,16,278,29*73
$GPGSV,3,3,11,07,13,092,25,24,06,293,12,11,04,056,*4C
$GLGSV,3,1,09,75,47,351,36,65,46,254,33,85,35,114,29,84,26,054,32*63
$GLGSV,3,2,09,74,24,053,31,66,23,320,28,72,22,197,33,76,19,289,20*64
$GLGSV,3,3,09,86,09,163,20*5D
$BDGSV,2,1,07,214,30,223,26,205,45,140,33,208,28,060,18,212,37,148,*6B
$BDGSV,2,2,07,202,29,118,,210,22,074,,211,02,190,*64
$GPGSA,A,3,05,07,13,15,17,19,20,28,30,,,,4.2,1.9,3.8*36
$GNGSA,A,3,05,07,13,15,17,19,20,28,30,,,,4.2,1.9,3.8*28
$GNGSA,A,3,65,66,72,75,76,84,85,86,,,,,4.2,1.9,3.8*23
$QZGSA,A,3,,,,,,,,,,,,,4.2,1.9,3.8*2B
$IMGSA,A,3,,,,,,,,,,,,,4.2,1.9,3.8*24
$BDGSA,A,3,,,,,,,,,,,,,4.2,1.9,3.8*26
$GPRMC,064250.00,A,3205.016681,N,03448.147326,E,001.9,,170616,,,A*78
$GPGGA,064251.00,3205.016863,N,03448.146517,E,1,17,2.4,56.6,M,19.2,M,,*52
$GPGSV,3,1,11,13,68,309,27,28,56,028,39,17,50,133,42,30,36,076,37*76
$GPGSV,3,2,11,15,32,312,33,19,32,167,25,05,21,232,41,20,16,278,30*78
$GPGSV,3,3,11,07,13,092,25,24,06,293,11,11,04,056,*4F
$GLGSV,3,1,09,75,47,351,36,65,46,254,33,85,35,114,29,84,26,054,31*60
$GLGSV,3,2,09,74,24,053,30,66,23,320,27,72,22,197,33,76,19,289,19*60
$GLGSV,3,3,09,86,09,163,19*57
$BDGSV,2,1,07,214,30,223,26,205,45,140,34,208,28,060,18,212,37,148,*6C
$BDGSV,2,2,07,202,29,118,,210,22,074,,211,02,190,*64
$GPGSA,A,3,05,07,13,15,17,19,20,28,30,,,,4.2,1.9,3.8*36
$GNGSA,A,3,05,07,13,15,17,19,20,28,30,,,,4.2,1.9,3.8*28
$GNGSA,A,3,65,66,72,75,76,84,85,86,,,,,4.2,1.9,3.8*23
$QZGSA,A,3,,,,,,,,,,,,,4.2,1.9,3.8*2B
$IMGSA,A,3,,,,,,,,,,,,,4.2,1.9,3.8*24
$BDGSA,A,3,,,,,,,,,,,,,4.2,1.9,3.8*26
$GPRMC,064251.00,A,3205.016863,N,03448.146517,E,001.9,,170616,,,A*7E
$GPGGA,064252.00,3205.017118,N,03448.145886,E,1,18,2.4,56.3,M,19.2,M,,*59
$GPGSV,3,1,11,13,68,309,27,28,56,028,38,17,50,133,41,30,36,076,37*74
$GPGSV,3,2,11,15,32,312,32,19,32,167,24,05,21,232,41,20,16,278,29*70
$GPGSV,3,3,11,07,13,092,24,24,06,293,12,11,04,056,*4D
$GLGSV,3,1,09,75,47,351,35,65,46,254,33,85,35,114,29,84,26,054,30*62
$GLGSV,3,2,09,74,24,053,30,66,23,320,26,72,22,197,32,76,19,289,19*60
$GLGSV,3,3,09,86,09,163,19*57
$BDGSV,2,1,07,214,30,223,25,205,45,140,33,208,28,060,18,212,37,148,*68
$BDGSV,2,2,07,202,29,118,,210,22,074,,211,02,189,*6C
$GPGSA,A,3,05,07,13,15,17,19,20,24,28,30,,,4.9,1.8,4.6*33
$GNGSA,A,3,05,07,13,15,17,19,20,24,28,30,,,4.9,1.8,4.6*2D
$GNGSA,A,3,65,66,72,75,76,84,85,86,,,,,4.9,1.8,4.6*20
$QZGSA,A,3,,,,,,,,,,,,,4.9,1.8,4.6*28
$IMGSA,A,3,,,,,,,,,,,,,4.9,1.8,4.6*27
$BDGSA,A,3,,,,,,,,,,,,,4.9,1.8,4.6*25
$GPRMC,064252.00,A,3205.017118,N,03448.145886,E,002.0,,170616,,,A*75
$GPGGA,064253.00,3205.017285,N,03448.145252,E,1,17,2.4,55.9,M,19.2,M,,*5A
$GPGSV,3,1,11,13,68,309,26,28,56,028,38,17,50,133,41,30,36,076,36*74
$GPGSV,3,2,11,15,32,312,31,19,32,167,24,05,21,232,41,20,16,278,29*73
$GPGSV,3,3,11,07,13,092,24,24,06,293,12,11,04,056,*4D
$GLGSV,3,1,09,75,47,351,34,65,46,254,33,85,35,114,28,84,26,054,29*6A
$GLGSV,3,2,09,74,24,053,29,66,23,320,26,72,22,197,32,76,19,289,18*69
$GLGSV,3,3,09,86,09,163,19*57
$BDGSV,2,1,07,214,30,223,25,205,45,140,33,208,28,060,18,212,37,148,*68
$BDGSV,2,2,07,202,29,118,,210,22,074,,211,02,189,*6C
$GPGSA,A,3,05,07,13,15,17,19,20,28,30,,,,4.9,1.8,4.6*35
$GNGSA,A,3,05,07,13,15,17,19,20,28,30,,,,4.9,1.8,4.6*2B
$GNGSA,A,3,65,66,72,75,76,84,85,86,,,,,4.9,1.8,4.6*20
$QZGSA,A,3,,,,,,,,,,,,,4.9,1.8,4.6*28
$IMGSA,A,3,,,,,,,,,,,,,4.9,1.8,4.6*27
$BDGSA,A,3,,,,,,,,,,,,,4.9,1.8,4.6*25
$GPRMC,064253.00,A,3205.017285,N,03448.145252,E,002.0,,170616,,,A*70
$GPGGA,064254.00,3205.017475,N,03448.144828,E,1,17,1.2,55.5,M,19.2,M,,*5B
$GPGSV,3,1,11,13,68,309,26,28,56,028,38,17,50,133,41,30,36,076,35*77
$GPGSV,3,2,11,15,32,312,31,19,32,167,25,05,21,232,40,20,16,278,29*73
$GPGSV,3,3,11,07,13,092,23,24,06,293,12,11,04,056,*4A
$GLGSV,3,1,09,75,47,351,34,65,46,254,36,85,35,114,28,84,26,054,28*6E
$GLGSV,3,2,09,74,24,053,28,66,23,320,25,72,22,197,31,76,19,289,18*68
$GLGSV,3,3,09,86,09,163,19*57
$BDGSV,2,1,07,214,30,223,25,205,45,140,33,208,28,060,18,212,37,148,*68
$BDGSV,2,2,07,202,29,118,,210,22,074,,211,02,189,*6C
$GPGSA,A,3,05,07,13,15,17,19,20,28,30,,,,5.4,2.2,4.9*3F
$GNGSA,A,3,05,07,13,15,17,19,20,28,30,,,,5.4,2.2,4.9*21
$GNGSA,A,3,65,66,72,75,76,84,85,86,,,,,5.4,2.2,4.9*2A
$QZGSA,A,3,,,,,,,,,,,,,5.4,2.2,4.9*22
$IMGSA,A,3,,,,,,,,,,,,,5.4,2.2,4.9*2D
$BDGSA,A,3,,,,,,,,,,,,,5.4,2.2,4.9*2F
$GPRMC,064254.00,A,3205.017475,N,03448.144828,E,002.0,,170616,,,A*78
$GPGGA,064255.00,3205.017588,N,03448.144392,E,1,17,0.8,55.0,M,19.2,M,,*5D
$GPGSV,3,1,11,13,68,309,25,28,56,028,37,17,50,133,41,30,36,076,34*7A
$GPGSV,3,2,11,15,32,312,31,19,32,167,27,05,21,232,41,20,16,278,28*71
$GPGSV,3,3,11,07,13,092,23,24,06,293,12,11,04,056,*4A
$GLGSV,3,1,09,75,47,351,33,65,46,254,36,85,35,114,30,84,26,054,28*60
$GLGSV,3,2,09,74,24,053,28,66,23,320,25,72,22,197,31,76,19,289,24*67
$GLGSV,3,3,09,86,09,163,22*5F
$BDGSV,2,1,07,214,30,223,25,205,45,140,32,208,28,060,20,212,37,148,*62
$BDGSV,2,2,07,202,29,118,,210,22,074,,211,02,189,*6C
$GPGSA,A,3,05,07,13,15,17,19,20,28,30,,,,4.9,1.8,4.6*35
$GNGSA,A,3,05,07,13,15,17,19,20,28,30,,,,4.9,1.8,4.6*2B
$GNGSA,A,3,65,66,72,75,76,84,85,86,,,,,4.9,1.8,4.6*20
$QZGSA,A,3,,,,,,,,,,,,,4.9,1.8,4.6*28
$IMGSA,A,3,,,,,,,,,,,,,4.9,1.8,4.6*27
$BDGSA,A,3,,,,,,,,,,,,,4.9,1.8,4.6*25
$GPRMC,064255.00,A,3205.017588,N,03448.144392,E,002.0,,170616,,,A*70
$GPGGA,064256.00,3205.017692,N,03448.144238,E,1,17,1.2,54.5,M,19.2,M,,*58
$GPGSV,3,1,11,13,68,309,25,28,56,028,38,17,50,133,40,30,36,076,34*74
$GPGSV,3,2,11,15,32,312,31,19,32,167,27,05,21,232,41,20,16,278,28*71
$GPGSV,3,3,11,07,13,092,23,24,06,293,12,11,04,056,*4A
$GLGSV,3,1,09,75,47,351,33,65,46,254,36,85,35,114,33,84,26,054,27*6C
$GLGSV,3,2,09,74,24,053,28,66,23,320,24,72,22,197,31,76,19,289,25*67
$GLGSV,3,3,09,86,09,163,22*5F
$BDGSV,2,1,07,214,30,223,25,205,45,140,32,208,28,060,20,212,37,148,*62
$BDGSV,2,2,07,202,29,118,,210,22,074,,211,02,189,*6C
$GPGSA,A,3,05,07,13,15,17,19,20,28,30,,,,4.9,1.8,4.6*35
$GNGSA,A,3,05,07,13,15,17,19,20,28,30,,,,4.9,1.8,4.6*2B
$GNGSA,A,3,65,66,72,75,76,84,85,86,,,,,4.9,1.8,4.6*20
$QZGSA,A,3,,,,,,,,,,,,,4.9,1.8,4.6*28
$IMGSA,A,3,,,,,,,,,,,,,4.9,1.8,4.6*27
$BDGSA,A,3,,,,,,,,,,,,,4.9,1.8,4.6*25
$GPRMC,064256.00,A,3205.017692,N,03448.144238,E,002.0,,170616,,,A*7A
$GPGGA,064257.00,3205.017803,N,03448.144350,E,1,18,1.2,53.9,M,19.2,M,,*54
$GPGSV,3,1,11,13,68,309,25,28,56,028,38,17,50,133,40,30,36,076,33*73
$GPGSV,3,2,11,15,32,312,30,19,32,167,27,05,21,232,41,20,16,278,28*70
$GPGSV,3,3,11,07,13,092,28,24,06,293,12,11,04,056,*41
$GLGSV,3,1,09,75,47,351,33,65,46,254,36,85,35,114,33,84,26,054,27*6C
$GLGSV,3,2,09,74,24,053,28,66,23,320,25,72,22,197,31,76,19,289,25*66
$GLGSV,3,3,09,86,09,163,22*5F
$BDGSV,2,1,07,214,30,223,25,205,45,140,31,208,28,060,20,212,37,148,*61
$BDGSV,2,2,07,202,29,118,,210,22,074,,211,02,189,*6C
$GPGSA,A,3,05,07,13,15,17,19,20,24,28,30,,,4.9,1.8,4.6*33
$GNGSA,A,3,05,07,13,15,17,19,20,24,28,30,,,4.9,1.8,4.6*2D
$GNGSA,A,3,65,66,72,75,76,84,85,86,,,,,4.9,1.8,4.6*20
$QZGSA,A,3,,,,,,,,,,,,,4.9,1.8,4.6*28
$IMGSA,A,3,,,,,,,,,,,,,4.9,1.8,4.6*27
$BDGSA,A,3,,,,,,,,,,,,,4.9,1.8,4.6*25
$GPRMC,064257.00,A,3205.017803,N,03448.144350,E,002.0,,170616,,,A*72
$GPGGA,064258.00,3205.017882,N,03448.144588,E,1,17,1.6,53.2,M,19.2,M,,*51
$GPGSV,3,1,11,13,68,309,26,28,56,028,37,17,50,133,40,30,36,076,32*7E
$GPGSV,3,2,11,15,32,312,30,19,32,167,27,05,21,232,41,20,16,278,28*70
$GPGSV,3,3,11,07,13,092,29,24,06,293,12,11,04,056,*40
$GLGSV,3,1,09,75,47,351,33,65,46,254,36,85,35,114,33,84,26,054,27*6C
$GLGSV,3,2,09,74,24,053,28,66,23,320,25,72,22,197,31,76,19,289,25*66
$GLGSV,3,3,09,86,09,163,22*5F
$BDGSV,2,1,07,214,30,223,25,205,45,140,30,208,28,060,22,212,37,148,*62
$BDGSV,2,2,07,202,29,118,,210,22,074,,211,02,189,*6C
$GPGSA,A,3,05,07,13,15,17,19,20,28,30,,,,3.6,1.6,3.3*31
$GNGSA,A,3,05,07,13,15,17,19,20,28,30,,,,3.6,1.6,3.3*2F
$GNGSA,A,3,65,66,72,75,76,84,85,86,,,,,3.6,1.6,3.3*24
$QZGSA,A,3,,,,,,,,,,,,,3.6,1.6,3.3*2C
$IMGSA,A,3,,,,,,,,,,,,,3.6,1.6,3.3*23
$BDGSA,A,3,,,,,,,,,,,,,3.6,1.6,3.3*21
$GPRMC,064258.00,A,3205.017882,N,03448.144588,E,002.0,,170616,,,A*77
$GPGGA,064259.00,3205.017946,N,03448.144921,E,1,18,1.6,52.5,M,19.2,M,,*5F
$GPGSV,3,1,11,13,68,309,26,28,56,028,37,17,50,133,42,30,36,076,31*7F
$GPGSV,3,2,11,15,32,312,32,19,32,167,27,05,21,232,41,20,16,278,27*7D
$GPGSV,3,3,11,07,13,092,29,24,06,293,12,11,04,056,*40
$GLGSV,3,1,09,75,47,351,34,65,46,254,35,85,35,114,32,84,26,054,27*69
$GLGSV,3,2,09,74,24,054,28,66,23,320,27,72,22,197,31,76,19,289,24*62
$GLGSV,3,3,09,86,09,163,21*5C
$BDGSV,2,1,07,214,30,223,25,205,45,140,29,208,28,060,25,212,37,148,*6D
$BDGSV,2,2,07,202,29,118,,210,22,074,,211,02,189,*6C
$GPGSA,A,3,05,07,13,15,17,19,20,24,28,30,,,4.9,1.8,4.6*33
$GNGSA,A,3,05,07,13,15,17,19,20,24,28,30,,,4.9,1.8,4.6*2D
$GNGSA,A,3,65,66,72,75,76,84,85,86,,,,,4.9,1.8,4.6*20
$QZGSA,A,3,,,,,,,,,,,,,4.9,1.8,4.6*28
$IMGSA,A,3,,,,,,,,,,,,,4.9,1.8,4.6*27
$BDGSA,A,3,,,,,,,,,,,,,4.9,1.8,4.6*25
$GPRMC,064259.00,A,3205.017946,N,03448.144921,E,001.5,,170616,,,A*76
$GPGGA,064300.00,3205.017813,N,03448.145395,E,1,17,1.6,51.8,M,19.2,M,,*56
$GPGSV,3,1,11,13,68,309,25,28,56,028,37,17,50,133,42,30,36,076,30*7D
$GPGSV,3,2,11,15,32,312,32,19,32,167,27,05,21,232,40,20,16,278,27*7C
$GPGSV,3,3,11,07,13,092,28,24,06,293,12,11,04,056,*41
$GLGSV,3,1,09,75,47,351,36,65,46,254,35,85,35,114,31,84,26,054,27*68
$GLGSV,3,2,09,74,24,054,28,66,23,320,27,72,22,197,31,76,19,289,24*62
$GLGSV,3,3,09,86,09,163,21*5C
$BDGSV,2,1,07,214,30,223,25,205,45,140,28,208,28,060,25,212,37,148,*6C
$BDGSV,2,2,07,202,29,118,,210,22,074,,211,02,189,*6C
$GPGSA,A,3,05,07,13,15,17,19,20,28,30,,,,3.6,1.6,3.3*31
$GNGSA,A,3,05,07,13,15,17,19,20,28,30,,,,3.6,1.6,3.3*2F
$GNGSA,A,3,65,66,72,75,76,84,85,86,,,,,3.6,1.6,3.3*24
$QZGSA,A,3,,,,,,,,,,,,,3.6,1.6,3.3*2C
$IMGSA,A,3,,,,,,,,,,,,,3.6,1.6,3.3*23
$BDGSA,A,3,,,,,,,,,,,,,3.6,1.6,3.3*21
$GPRMC,064300.00,A,3205.017813,N,03448.145395,E,002.0,,170616,,,A*78
$GPGGA,064301.00,3205.017687,N,03448.146405,E,1,17,2.4,51.1,M,19.2,M,,*51
$GPGSV,3,1,11,13,68,309,25,28,56,028,36,17,50,133,41,30,36,076,29*77
$GPGSV,3,2,11,15,32,312,32,19,32,167,26,05,21,232,39,20,16,278,26*72
$GPGSV,3,3,11,07,13,092,27,24,06,293,12,11,04,056,*4E
$GLGSV,3,1,09,75,47,351,35,65,46,254,35,85,35,114,30,84,26,054,26*6B
$GLGSV,3,2,09,74,24,054,28,66,23,320,26,72,22,197,31,76,19,289,23*64
$GLGSV,3,3,09,86,09,163,20*5D
$BDGSV,2,1,07,214,30,223,24,205,45,140,27,208,28,060,24,212,37,148,*63
$BDGSV,2,2,07,202,29,118,,210,22,074,,211,02,189,*6C
$GPGSA,A,3,05,07,13,15,17,19,20,28,30,,,,2.5,1.3,2.1*35
$GNGSA,A,3,05,07,13,15,17,19,20,28,30,,,,2.5,1.3,2.1*2B
$GNGSA,A,3,65,66,72,75,76,84,85,86,,,,,2.5,1.3,2.1*20
$QZGSA,A,3,,,,,,,,,,,,,2.5,1.3,2.1*28
$IMGSA,A,3,,,,,,,,,,,,,2.5,1.3,2.1*27
$BDGSA,A,3,,,,,,,,,,,,,2.5,1.3,2.1*25
$GPRMC,064301.00,A,3205.017687,N,03448.146405,E,001.9,,170616,,,A*7D
$GPGGA,064302.00,3205.017626,N,03448.147646,E,1,17,2.4,50.5,M,19.2,M,,*58
$GPGSV,3,1,11,13,68,309,24,28,56,028,36,17,50,133,41,30,36,076,28*77
$GPGSV,3,2,11,15,32,312,31,19,32,167,26,05,21,232,38,20,16,278,26*70
$GPGSV,3,3,11,07,13,092,26,24,06,293,12,11,04,056,*4F
$GLGSV,3,1,09,75,47,351,36,65,46,254,34,85,35,114,29,84,26,054,26*61
$GLGSV,3,2,09,74,24,054,27,66,23,320,25,72,22,197,30,76,19,289,22*68
$GLGSV,3,3,09,86,09,163,20*5D
$BDGSV,2,1,07,214,30,223,24,205,45,140,27,208,28,060,24,212,37,148,*63
$BDGSV,2,2,07,202,29,118,,210,22,074,,211,02,189,*6C
$GPGSA,A,3,05,07,13,15,17,19,20,28,30,,,,4.2,1.8,3.8*37
$GNGSA,A,3,05,07,13,15,17,19,20,28,30,,,,4.2,1.8,3.8*29
$GNGSA,A,3,65,66,72,75,76,84,85,86,,,,,4.2,1.8,3.8*22
$QZGSA,A,3,,,,,,,,,,,,,4.2,1.8,3.8*2A
$IMGSA,A,3,,,,,,,,,,,,,4.2,1.8,3.8*25
$BDGSA,A,3,,,,,,,,,,,,,4.2,1.8,3.8*27
$GPRMC,064302.00,A,3205.017626,N,03448.147646,E,002.0,,170616,,,A*7B
$GPGGA,064303.00,3205.017180,N,03448.150503,E,1,17,2.4,50.0,M,19.2,M,,*53
$GPGSV,3,1,11,13,68,309,24,28,56,028,36,17,50,133,41,30,36,076,28*77
$GPGSV,3,2,11,15,32,312,32,19,32,167,26,05,21,232,38,20,16,278,25*70
$GPGSV,3,3,11,07,13,092,25,24,06,293,11,11,04,056,*4F
$GLGSV,3,1,09,75,47,351,37,65,46,254,34,85,35,114,29,84,26,054,26*60
$GLGSV,3,2,09,74,24,054,27,66,23,320,25,72,22,197,30,76,19,289,21*6B
$GLGSV,3,3,09,86,09,163,19*57
$BDGSV,2,1,07,214,30,223,23,205,45,140,26,208,28,060,24,212,37,148,*65
$BDGSV,2,2,07,202,29,118,,210,22,074,,211,02,189,*6C
$GPGSA,A,3,05,07,13,15,17,19,20,28,30,,,,2.5,1.3,2.1*35
$GNGSA,A,3,05,07,13,15,17,19,20,28,30,,,,2.5,1.3,2.1*2B
$GNGSA,A,3,65,66,72,75,76,84,85,86,,,,,2.5,1.3,2.1*20
$QZGSA,A,3,,,,,,,,,,,,,2.5,1.3,2.1*28
$IMGSA,A,3,,,,,,,,,,,,,2.5,1.3,2.1*27
$BDGSA,A,3,,,,,,,,,,,,,2.5,1.3,2.1*25
$GPRMC,064303.00,A,3205.017180,N,03448.150503,E,002.0,,170616,,,A*75
$GPGGA,064304.00,3205.016747,N,03448.153014,E,1,17,1.6,49.7,M,19.2,M,,*56
$GPGSV,3,1,11,13,68,309,24,28,56,028,35,17,50,133,40,30,36,076,27*7A
$GPGSV,3,2,11,15,32,312,32,19,32,167,25,05,21,232,37,20,16,278,25*7C
$GPGSV,3,3,11,07,13,092,24,24,06,293,11,11,04,056,*4E
$GLGSV,3,1,09,75,47,351,37,65,46,254,34,85,35,114,28,84,26,054,29*6E
$GLGSV,3,2,09,74,24,054,27,66,23,320,25,72,22,197,30,76,19,289,21*6B
$GLGSV,3,3,09,86,09,163,18*56
$BDGSV,2,1,07,214,30,223,23,205,45,140,28,208,28,060,23,212,37,148,*6C
$BDGSV,2,2,07,202,29,118,,210,22,074,,211,02,189,*6C
$GPGSA,A,3,05,07,13,15,17,19,20,28,30,,,,2.5,1.3,2.1*35
$GNGSA,A,3,05,07,13,15,17,19,20,28,30,,,,2.5,1.3,2.1*2B
$GNGSA,A,3,65,66,72,75,76,84,85,86,,,,,2.5,1.3,2.1*20
$QZGSA,A,3,,,,,,,,,,,,,2.5,1.3,2.1*28
$IMGSA,A,3,,,,,,,,,,,,,2.5,1.3,2.1*27
$BDGSA,A,3,,,,,,,,,,,,,2.5,1.3,2.1*25
$GPRMC,064304.00,A,3205.016747,N,03448.153014,E,002.0,,170616,,,A*7E
$GPGGA,064305.00,3205.016510,N,03448.153447,E,1,17,1.6,49.4,M,19.2,M,,*56
$GPGSV,3,1,11,13,68,309,27,28,56,028,35,17,50,133,40,30,36,076,27*79
$GPGSV,3,2,11,15,32,312,32,19,32,167,25,05,21,232,37,20,16,278,25*7C
$GPGSV,3,3,11,07,13,092,23,24,06,293,11,11,04,056,*49
$GLGSV,3,1,09,75,47,351,37,65,46,254,33,85,35,114,28,84,26,054,29*69
$GLGSV,3,2,09,74,24,054,27,66,23,320,24,72,22,197,30,76,19,289,20*6B
$GLGSV,3,3,09,86,09,163,18*56
$BDGSV,2,1,07,214,30,223,23,205,45,140,30,208,28,060,23,212,37,148,*65
$BDGSV,2,2,07,202,29,118,,210,22,074,,211,02,189,*6C
$GPGSA,A,3,05,07,13,15,17,19,20,28,30,,,,6.4,2.8,5.7*39
$GNGSA,A,3,05,07,13,15,17,19,20,28,30,,,,6.4,2.8,5.7*27
$GNGSA,A,3,65,66,72,75,76,84,85,86,,,,,6.4,2.8,5.7*2C
$QZGSA,A,3,,,,,,,,,,,,,6.4,2.8,5.7*24
$IMGSA,A,3,,,,,,,,,,,,,6.4,2.8,5.7*2B
$BDGSA,A,3,,,,,,,,,,,,,6.4,2.8,5.7*29
$GPRMC,064305.00,A,3205.016510,N,03448.153447,E,001.2,,170616,,,A*7C
$GPGGA,064306.00,3205.016154,N,03448.154034,E,1,17,1.6,49.1,M,19.2,M,,*53
$GPGSV,3,1,11,13,68,309,27,28,56,029,35,17,50,133,40,30,36,076,27*78
$GPGSV,3,2,11,15,32,312,32,19,32,167,25,05,21,232,36,20,16,278,24*7C
$GPGSV,3,3,11,07,13,092,23,24,06,293,10,11,04,056,*48
$GLGSV,3,1,09,75,47,351,37,65,46,254,35,85,35,114,28,84,26,054,29*6F
$GLGSV,3,2,09,74,24,054,27,66,23,320,24,72,22,197,29,76,19,289,20*63
$GLGSV,3,3,09,86,09,163,18*56
$BDGSV,2,1,07,214,30,223,23,205,45,140,30,208,28,060,23,212,38,148,*6A
$BDGSV,2,2,07,202,29,118,,210,22,074,,211,02,189,*6C
$GPGSA,A,3,05,07,13,15,17,19,20,28,30,,,,7.9,2.9,7.4*35
$GNGSA,A,3,05,07,13,15,17,19,20,28,30,,,,7.9,2.9,7.4*2B
$GNGSA,A,3,65,66,72,75,76,84,85,86,,,,,7.9,2.9,7.4*20
$QZGSA,A,3,,,,,,,,,,,,,7.9,2.9,7.4*28
$IMGSA,A,3,,,,,,,,,,,,,7.9,2.9,7.4*27
$BDGSA,A,3,,,,,,,,,,,,,7.9,2.9,7.4*25
$GPRMC,064306.00,A,3205.016154,N,03448.154034,E,001.9,,170616,,,A*77
$GPGGA,064307.00,3205.016151,N,03448.154035,E,1,17,0.8,48.8,M,19.2,M,,*51
$GPGSV,3,1,11,13,68,309,30,28,56,029,35,17,50,133,40,30,36,076,27*7E
$GPGSV,3,2,11,15,32,312,32,19,32,167,25,05,21,232,35,20,16,278,24*7F
$GPGSV,3,3,11,07,13,092,23,24,06,293,09,11,04,056,*40
$GLGSV,3,1,09,75,47,351,36,65,46,254,35,85,35,114,35,84,26,054,29*62
$GLGSV,3,2,09,74,24,054,29,66,23,320,23,72,22,197,29,76,19,289,19*60
$GLGSV,3,3,09,86,09,163,17*59
$BDGSV,2,1,07,214,30,223,23,205,45,140,30,208,28,060,22,212,38,148,*6B
$BDGSV,2,2,07,202,29,118,,210,22,074,,211,02,189,*6C
$GPGSA,A,3,05,07,13,15,17,19,20,28,30,,,,3.0,1.4,2.7*30
$GNGSA,A,3,05,07,13,15,17,19,20,28,30,,,,3.0,1.4,2.7*2E
$GNGSA,A,3,65,66,72,75,76,84,85,86,,,,,3.0,1.4,2.7*25
$QZGSA,A,3,,,,,,,,,,,,,3.0,1.4,2.7*2D
$IMGSA,A,3,,,,,,,,,,,,,3.0,1.4,2.7*22
$BDGSA,A,3,,,,,,,,,,,,,3.0,1.4,2.7*20
$GPRMC,064307.00,A,3205.016151,N,03448.154035,E,000.9,,170616,,,A*73
$GPGGA,064308.00,3205.015894,N,03448.154447,E,1,17,1.6,48.6,M,19.2,M,,*5D
$GPGSV,3,1,11,13,68,309,31,28,56,029,35,17,50,133,39,30,36,076,27*71
$GPGSV,3,2,11,15,32,312,32,19,32,167,24,05,21,232,34,20,16,278,24*7F
$GPGSV,3,3,11,07,13,092,23,24,06,293,,11,04,056,*49
$GLGSV,3,1,09,75,47,351,36,65,46,253,36,85,35,114,34,84,26,054,29*67
$GLGSV,3,2,09,74,24,054,34,66,23,320,23,72,22,197,29,76,19,289,19*6C
$GLGSV,3,3,09,86,09,163,17*59
$BDGSV,2,1,07,214,30,223,23,205,45,140,30,208,28,060,22,212,38,148,*6B
$BDGSV,2,2,07,202,29,118,,210,22,074,,211,02,189,*6C
$GPGSA,A,3,05,07,13,15,17,19,20,28,30,,,,6.4,2.8,5.7*39
$GNGSA,A,3,05,07,13,15,17,19,20,28,30,,,,6.4,2.8,5.7*27
$GNGSA,A,3,65,66,72,75,76,84,85,86,,,,,6.4,2.8,5.7*2C
$QZGSA,A,3,,,,,,,,,,,,,6.4,2.8,5.7*24
$IMGSA,A,3,,,,,,,,,,,,,6.4,2.8,5.7*2B
$BDGSA,A,3,,,,,,,,,,,,,6.4,2.8,5.7*29
$GPRMC,064308.00,A,3205.015894,N,03448.154447,E,001.1,,170616,,,A*77
$GPGGA,064309.00,3205.015538,N,03448.154833,E,1,17,1.2,48.4,M,19.2,M,,*5E
$GPGSV,3,1,11,13,68,309,31,28,56,029,37,17,50,133,38,30,36,076,27*72
$GPGSV,3,2,11,15,32,312,32,19,32,167,24,05,21,232,33,20,16,278,24*78
$GPGSV,3,3,11,07,13,092,24,24,06,293,,11,04,056,*4E
$GLGSV,3,1,09,75,47,351,36,65,46,253,38,85,35,114,34,84,26,054,30*61
$GLGSV,3,2,09,74,24,054,34,66,23,320,23,72,22,197,29,76,20,289,18*67
$GLGSV,3,3,09,86,09,163,17*59
$BDGSV,2,1,07,214,30,223,24,205,45,140,29,208,28,060,22,212,38,148,*64
$BDGSV,2,2,07,202,29,118,,210,22,074,,211,02,189,*6C
$GPGSA,A,3,05,07,13,15,17,19,20,28,30,,,,3.5,1.7,3.1*31
$GNGSA,A,3,05,07,13,15,17,19,20,28,30,,,,3.5,1.7,3.1*2F
$GNGSA,A,3,65,66,72,75,76,84,85,86,,,,,3.5,1.7,3.1*24
$QZGSA,A,3,,,,,,,,,,,,,3.5,1.7,3.1*2C
$IMGSA,A,3,,,,,,,,,,,,,3.5,1.7,3.1*23
$BDGSA,A,3,,,,,,,,,,,,,3.5,1.7,3.1*21
$GPRMC,064309.00,A,3205.015538,N,03448.154833,E,001.1,,170616,,,A*72
$GPGGA,064310.00,3205.015535,N,03448.154833,E,1,17,0.8,48.3,M,19.2,M,,*57
$GPGSV,3,1,11,13,68,309,35,28,56,029,36,17,50,133,38,30,36,076,26*76
$GPGSV,3,2,11,15,32,312,35,19,32,167,24,05,21,232,33,20,16,278,25*7E
$GPGSV,3,3,11,07,13,092,24,24,06,293,,11,04,056,*4E
$GLGSV,3,1,09,75,47,351,37,65,46,253,39,85,35,114,33,84,26,054,30*66
$GLGSV,3,2,09,74,24,054,34,66,23,320,22,72,22,197,28,76,20,289,18*67
$GLGSV,3,3,09,86,09,163,17*59
$BDGSV,2,1,07,214,30,223,24,205,45,140,29,208,28,060,22,212,38,148,*64
$BDGSV,2,2,07,202,29,118,,210,22,074,,211,02,189,*6C
$GPGSA,A,3,05,07,13,15,17,19,20,28,30,,,,3.5,1.7,3.1*31
$GNGSA,A,3,05,07,13,15,17,19,20,28,30,,,,3.5,1.7,3.1*2F
$GNGSA,A,3,65,66,72,75,76,84,85,86,,,,,3.5,1.7,3.1*24
$QZGSA,A,3,,,,,,,,,,,,,3.5,1.7,3.1*2C
$IMGSA,A,3,,,,,,,,,,,,,3.5,1.7,3.1*23
$BDGSA,A,3,,,,,,,,,,,,,3.5,1.7,3.1*21
$GPRMC,064310.00,A,3205.015535,N,03448.154833,E,000.6,,170616,,,A*71
$GPGGA,064311.00,3205.015355,N,03448.155180,E,1,17,0.8,48.1,M,19.2,M,,*54
$GPGSV,3,1,11,13,68,309,36,28,56,029,36,17,50,133,38,30,36,076,26*75
$GPGSV,3,2,11,15,32,312,36,19,32,167,24,05,21,232,32,20,16,278,27*7E
$GPGSV,3,3,11,07,13,092,24,24,06,293,,11,04,056,*4E
$GLGSV,3,1,09,75,47,351,37,65,46,253,39,85,35,113,33,84,26,054,30*61
$GLGSV,3,2,09,74,24,054,33,66,23,320,22,72,22,197,28,76,20,289,18*60
$GLGSV,3,3,09,86,09,163,17*59
$BDGSV,2,1,07,214,30,223,24,205,45,140,29,208,28,060,22,212,38,148,*64
$BDGSV,2,2,07,202,29,118,,210,22,074,,211,02,189,*6C
$GPGSA,A,3,05,07,13,15,17,19,20,28,30,,,,4.4,2.1,3.9*3A
$GNGSA,A,3,05,07,13,15,17,19,20,28,30,,,,4.4,2.1,3.9*24
$GNGSA,A,3,65,66,72,75,76,84,85,86,,,,,4.4,2.1,3.9*2F
$QZGSA,A,3,,,,,,,,,,,,,4.4,2.1,3.9*27
$IMGSA,A,3,,,,,,,,,,,,,4.4,2.1,3.9*28
$BDGSA,A,3,,,,,,,,,,,,,4.4,2.1,3.9*2A
$GPRMC,064311.00,A,3205.015355,N,03448.155180,E,001.1,,170616,,,A*76
$GPGGA,064312.00,3205.015354,N,03448.155180,E,1,17,1.2,48.1,M,19.2,M,,*5D
$GPGSV,3,1,11,13,68,309,36,28,56,029,35,17,50,133,38,30,36,076,25*75
$GPGSV,3,2,11,15,32,312,36,19,32,167,23,05,21,232,32,20,16,278,26*78
$GPGSV,3,3,11,07,13,092,23,24,06,293,,11,04,056,*49
$GLGSV,3,1,09,75,47,351,37,65,46,253,39,85,35,113,32,84,26,054,30*60
$GLGSV,3,2,09,74,24,054,33,66,23,320,21,72,22,197,28,76,20,289,17*6C
$GLGSV,3,3,09,86,09,163,16*58
$BDGSV,2,1,07,214,30,223,24,205,45,140,29,208,28,060,21,212,38,148,*67
$BDGSV,2,2,07,202,29,118,,210,22,074,,211,02,189,*6C
$GPGSA,A,3,05,07,13,15,17,19,20,28,30,,,,2.2,1.1,1.9*3B
$GNGSA,A,3,05,07,13,15,17,19,20,28,30,,,,2.2,1.1,1.9*25
$GNGSA,A,3,65,66,72,75,76,84,85,86,,,,,2.2,1.1,1.9*2E
$QZGSA,A,3,,,,,,,,,,,,,2.2,1.1,1.9*26
$IMGSA,A,3,,,,,,,,,,,,,2.2,1.1,1.9*29
$BDGSA,A,3,,,,,,,,,,,,,2.2,1.1,1.9*2B
$GPRMC,064312.00,A,3205.015354,N,03448.155180,E,000.9,,170616,,,A*7D
$GPGGA,064313.00,3205.015139,N,03448.155603,E,1,17,1.2,48.1,M,19.2,M,,*59
$GPGSV,3,1,11,13,68,309,36,28,56,029,34,17,50,133,38,30,36,076,25*74
$GPGSV,3,2,11,15,32,312,35,19,32,167,23,05,21,232,34,20,16,278,28*73
$GPGSV,3,3,11,07,13,092,23,24,06,293,,11,04,056,*49
$GLGSV,3,1,09,75,47,351,37,65,46,253,39,85,35,113,31,84,26,054,30*63
$GLGSV,3,2,09,74,24,054,36,66,23,320,21,72,22,197,27,76,20,289,17*66
$GLGSV,3,3,09,86,09,163,16*58
$BDGSV,2,1,07,214,30,223,23,205,45,140,28,208,28,060,21,212,38,148,*61
$BDGSV,2,2,07,202,29,118,,210,22,074,,211,02,189,*6C
$GPGSA,A,3,05,07,13,15,17,19,20,28,30,,,,2.5,1.3,2.1*35
$GNGSA,A,3,05,07,13,15,17,19,20,28,30,,,,2.5,1.3,2.1*2B
$GNGSA,A,3,65,66,72,75,76,84,85,86,,,,,2.5,1.3,2.1*20
$QZGSA,A,3,,,,,,,,,,,,,2.5,1.3,2.1*28
$IMGSA,A,3,,,,,,,,,,,,,2.5,1.3,2.1*27
$BDGSA,A,3,,,,,,,,,,,,,2.5,1.3,2.1*25
$GPRMC,064313.00,A,3205.015139,N,03448.155603,E,001.5,,170616,,,A*74
$GPGGA,064314.00,3205.015515,N,03448.155652,E,1,17,0.6,48.1,M,19.2,M,,*55
$GPGSV,3,1,11,13,68,309,35,28,56,029,34,17,50,133,37,30,36,076,25*78
$GPGSV,3,2,11,15,32,312,35,19,32,167,23,05,21,232,35,20,16,278,29*73
$GPGSV,3,3,11,07,13,092,22,24,06,293,,11,04,056,*48
$GLGSV,3,1,09,75,47,351,37,65,46,253,39,85,35,113,31,84,26,054,29*6B
$GLGSV,3,2,09,74,24,054,36,66,23,320,21,72,22,197,27,76,20,289,17*66
$GLGSV,3,3,09,86,09,163,16*58
$BDGSV,2,1,07,214,30,223,22,205,45,140,28,208,28,060,21,212,38,148,*60
$BDGSV,2,2,07,202,29,118,,210,22,074,,211,02,189,*6C
$GPGSA,A,3,05,07,13,15,17,19,20,28,30,,,,2.3,1.1,2.0*30
$GNGSA,A,3,05,07,13,15,17,19,20,28,30,,,,2.3,1.1,2.0*2E
$GNGSA,A,3,65,66,72,75,76,84,85,86,,,,,2.3,1.1,2.0*25
$QZGSA,A,3,,,,,,,,,,,,,2.3,1.1,2.0*2D
$IMGSA,A,3,,,,,,,,,,,,,2.3,1.1,2.0*22
$BDGSA,A,3,,,,,,,,,,,,,2.3,1.1,2.0*20
$GPRMC,064314.00,A,3205.015515,N,03448.155652,E,001.8,012.4,170616,,,A*59
$GPGGA,064315.00,3205.016115,N,03448.155920,E,1,17,1.6,48.2,M,19.2,M,,*5B
$GPGSV,3,1,11,13,68,309,35,28,56,029,33,17,50,133,37,30,36,076,24*7E
$GPGSV,3,2,11,15,32,312,34,19,32,167,23,05,21,231,35,20,16,277,29*7E
$GPGSV,3,3,11,07,13,092,22,24,06,293,,11,04,056,*48
$GLGSV,3,1,09,75,47,351,36,65,46,253,39,85,35,113,30,84,26,054,29*6B
$GLGSV,3,2,09,74,24,054,35,66,23,320,25,72,22,197,27,76,20,289,17*61
$GLGSV,3,3,09,86,09,163,16*58
$BDGSV,2,1,07,214,30,223,22,205,45,140,27,208,28,060,21,212,38,148,*6F
$BDGSV,2,2,07,202,29,118,,210,22,074,,211,02,189,*6C
$GPGSA,A,3,05,07,13,15,17,19,20,28,30,,,,2.3,1.1,2.0*30
$GNGSA,A,3,05,07,13,15,17,19,20,28,30,,,,2.3,1.1,2.0*2E
$GNGSA,A,3,65,66,72,75,76,84,85,86,,,,,2.3,1.1,2.0*25
$QZGSA,A,3,,,,,,,,,,,,,2.3,1.1,2.0*2D
$IMGSA,A,3,,,,,,,,,,,,,2.3,1.1,2.0*22
$BDGSA,A,3,,,,,,,,,,,,,2.3,1.1,2.0*20
$GPRMC,064315.00,A,3205.016115,N,03448.155920,E,001.9,017.2,170616,,,A*57
$GPGGA,064316.00,3205.017542,N,03448.156818,E,1,17,1.6,48.0,M,19.2,M,,*54
$GPGSV,3,1,11,13,68,309,34,28,56,029,32,17,50,133,36,30,36,076,24*7F
$GPGSV,3,2,11,15,32,312,34,19,32,167,22,05,21,231,35,20,16,277,29*7F
$GPGSV,3,3,11,07,13,092,22,24,06,293,,11,04,056,*48
$GLGSV,3,1,09,75,47,351,36,65,46,253,39,85,35,113,29,84,26,054,29*63
$GLGSV,3,2,09,74,24,054,35,66,23,320,25,72,22,197,27,76,20,289,17*61
$GLGSV,3,3,09,86,09,163,16*58
$BDGSV,2,1,07,214,30,223,22,205,45,140,27,208,28,060,20,212,38,148,*6E
$BDGSV,2,2,07,202,29,118,,210,22,074,,211,02,189,*6C
$GPGSA,A,3,05,07,13,15,17,19,20,28,30,,,,3.3,1.5,2.9*3C
$GNGSA,A,3,05,07,13,15,17,19,20,28,30,,,,3.3,1.5,2.9*22
$GNGSA,A,3,65,66,72,75,76,84,85,86,,,,,3.3,1.5,2.9*29
$QZGSA,A,3,,,,,,,,,,,,,3.3,1.5,2.9*21
$IMGSA,A,3,,,,,,,,,,,,,3.3,1.5,2.9*2E
$BDGSA,A,3,,,,,,,,,,,,,3.3,1.5,2.9*2C
$GPRMC,064316.00,A,3205.017542,N,03448.156818,E,002.0,007.8,170616,,,A*5B
$GPGGA,064317.00,3205.020193,N,03448.157029,E,1,17,1.6,47.8,M,19.2,M,,*55
$GPGSV,3,1,11,13,68,309,34,28,56,029,31,17,50,133,36,30,36,076,24*7C
$GPGSV,3,2,11,15,32,312,34,19,32,167,22,05,21,231,35,20,16,277,30*77
$GPGSV,3,3,11,07,13,092,22,24,06,293,09,11,04,056,*41
$GLGSV,3,1,09,75,47,351,37,65,46,253,39,85,35,113,28,84,26,054,29*63
$GLGSV,3,2,09,74,24,054,34,66,23,320,25,72,22,197,28,76,20,289,17*6F
$GLGSV,3,3,09,86,09,163,16*58
$BDGSV,2,1,07,214,30,223,21,205,45,140,26,208,28,060,20,212,38,148,*6C
$BDGSV,2,2,07,202,29,118,,210,22,074,,211,02,189,*6C
$GPGSA,A,3,05,07,13,15,17,19,20,28,30,,,,2.1,1.1,1.9*38
$GNGSA,A,3,05,07,13,15,17,19,20,28,30,,,,2.1,1.1,1.9*26
$GNGSA,A,3,65,66,72,75,76,84,85,86,,,,,2.1,1.1,1.9*2D
$QZGSA,A,3,,,,,,,,,,,,,2.1,1.1,1.9*25
$IMGSA,A,3,,,,,,,,,,,,,2.1,1.1,1.9*2A
$BDGSA,A,3,,,,,,,,,,,,,2.1,1.1,1.9*28
$GPRMC,064317.00,A,3205.020193,N,03448.157029,E,001.9,000.2,170616,,,A*5A
$GPGGA,064318.00,3205.021143,N,03448.157348,E,1,17,0.8,47.5,M,19.2,M,,*50
$GPGSV,3,1,11,13,68,309,33,28,56,029,30,17,50,133,36,30,36,076,23*7D
$GPGSV,3,2,11,15,32,312,33,19,32,167,23,05,21,231,36,20,16,277,30*72
$GPGSV,3,3,11,07,13,092,22,24,06,293,09,11,04,056,*41
$GLGSV,3,1,09,75,47,351,39,65,46,253,38,85,35,113,27,84,26,054,28*62
$GLGSV,3,2,09,74,24,054,34,66,23,320,26,72,22,197,28,76,20,289,16*6D
$GLGSV,3,3,09,86,09,163,16*58
$BDGSV,2,1,07,214,30,223,21,205,45,140,25,208,28,060,20,212,38,148,*6F
$BDGSV,2,2,07,202,29,118,,210,22,074,,211,02,189,*6C
$GPGSA,A,3,05,07,13,15,17,19,20,28,30,,,,2.8,1.4,2.4*3A
$GNGSA,A,3,05,07,13,15,17,19,20,28,30,,,,2.8,1.4,2.4*24
$GNGSA,A,3,65,66,72,75,76,84,85,86,,,,,2.8,1.4,2.4*2F
$QZGSA,A,3,,,,,,,,,,,,,2.8,1.4,2.4*27
$IMGSA,A,3,,,,,,,,,,,,,2.8,1.4,2.4*28
$BDGSA,A,3,,,,,,,,,,,,,2.8,1.4,2.4*2A
$GPRMC,064318.00,A,3205.021143,N,03448.157348,E,001.9,352.5,170616,,,A*5E
$GPGGA,064319.00,3205.021701,N,03448.157325,E,1,17,0.8,47.1,M,19.2,M,,*5E
$GPGSV,3,1,11,13,69,309,32,28,56,029,29,17,50,133,35,30,36,076,23*76
$GPGSV,3,2,11,15,32,312,36,19,32,167,22,05,21,231,36,20,16,277,30*76
$GPGSV,3,3,11,07,13,092,22,24,06,293,09,11,04,056,*41
$GLGSV,3,1,09,75,47,351,39,65,46,253,37,85,35,113,27,84,26,054,30*64
$GLGSV,3,2,09,74,24,054,33,66,23,320,26,72,22,197,28,76,20,289,21*6E
$GLGSV,3,3,09,86,09,163,16*58
$BDGSV,2,1,07,214,30,223,21,205,45,140,25,208,28,060,20,212,38,148,*6F
$BDGSV,2,2,07,202,29,118,,210,22,074,,211,02,189,*6C
$GPGSA,A,3,05,07,13,15,17,19,20,28,30,,,,2.8,1.4,2.4*3A
$GNGSA,A,3,05,07,13,15,17,19,20,28,30,,,,2.8,1.4,2.4*24
$GNGSA,A,3,65,66,72,75,76,84,85,86,,,,,2.8,1.4,2.4*2F
$QZGSA,A,3,,,,,,,,,,,,,2.8,1.4,2.4*27
$IMGSA,A,3,,,,,,,,,,,,,2.8,1.4,2.4*28
$BDGSA,A,3,,,,,,,,,,,,,2.8,1.4,2.4*2A
$GPRMC,064319.00,A,3205.021701,N,03448.157325,E,001.9,345.6,170616,,,A*51
$GPGGA,064320.00,3205.022201,N,03448.157208,E,1,17,1.6,46.6,M,19.2,M,,*55
$GPGSV,3,1,11,13,69,309,32,28,56,029,28,17,50,133,35,30,36,076,23*77
$GPGSV,3,2,11,15,32,312,39,19,32,167,24,05,21,231,36,20,16,277,30*7F
$GPGSV,3,3,11,07,13,092,22,24,06,293,09,11,04,056,*41
$GLGSV,3,1,09,75,47,351,38,65,46,253,37,85,35,113,28,84,26,054,35*6F
$GLGSV,3,2,09,74,24,054,33,66,23,320,26,72,22,197,31,76,20,289,24*63
$GLGSV,3,3,09,86,09,163,16*58
$BDGSV,2,1,07,214,30,223,21,205,45,140,25,208,28,060,20,212,38,148,*6F
$BDGSV,2,2,07,202,29,118,,210,22,074,,211,02,189,*6C
$GPGSA,A,3,05,07,13,15,17,19,20,28,30,,,,2.8,1.4,2.4*3A
$GNGSA,A,3,05,07,13,15,17,19,20,28,30,,,,2.8,1.4,2.4*24
$GNGSA,A,3,65,66,72,75,76,84,85,86,,,,,2.8,1.4,2.4*2F
$QZGSA,A,3,,,,,,,,,,,,,2.8,1.4,2.4*27
$IMGSA,A,3,,,,,,,,,,,,,2.8,1.4,2.4*28
$BDGSA,A,3,,,,,,,,,,,,,2.8,1.4,2.4*2A
$GPRMC,064320.00,A,3205.022201,N,03448.157208,E,001.9,337.8,170616,,,A*58
$GPGGA,064321.00,3205.023216,N,03448.156933,E,1,17,1.6,46.1,M,19.2,M,,*56
$GPGSV,3,1,11,13,69,309,32,28,56,029,28,17,50,133,35,30,36,076,26*72
$GPGSV,3,2,11,15,32,312,39,19,32,167,26,05,21,231,37,20,16,277,29*74
$GPGSV,3,3,11,07,13,092,22,24,06,293,08,11,04,056,*40
$GLGSV,3,1,09,75,47,351,38,65,46,253,36,85,35,113,33,84,26,054,38*69
