$GPGGA,064437.64,,,,,0,00,999.9,,M,,M,,*66
$GPGSV,3,1,11,13,69,308,24,28,56,029,30,17,51,132,39,15,33,312,34*71
$GPGSV,3,2,11,05,20,231,28,20,15,277,25,07,12,093,13,30,35,077,*7F
$GPGSV,3,3,11,19,32,167,,24,06,294,,11,04,055,*4B
$GLGSV,3,1,09,75,47,352,35,65,45,252,35,84,26,053,22,66,24,319,23*6E
$GLGSV,3,2,09,74,24,054,32,85,35,113,,72,22,197,,76,20,290,*62
$GLGSV,3,3,09,86,10,163,*57
$BDGSV,2,1,07,205,45,140,27,212,38,148,,214,29,222,,202,29,118,*60
$BDGSV,2,2,07,208,28,060,,210,22,074,,211,03,189,*68
$GPGSA,A,1,,,,,,,,,,,,,140.0,99.0,99.0*35
$GNGSA,A,1,,,,,,,,,,,,,140.0,99.0,99.0*2B
$GNGSA,A,1,,,,,,,,,,,,,140.0,99.0,99.0*2B
$QZGSA,A,1,,,,,,,,,,,,,140.0,99.0,99.0*29
$IMGSA,A,1,,,,,,,,,,,,,140.0,99.0,99.0*26
$BDGSA,A,1,,,,,,,,,,,,,140.0,99.0,99.0*24
$GPRMC,064437.64,V,,,,,,,170616,,,N*7A
$GPGGA,064438.64,,,,,0,09,6.4,,M,,M,,*62
$GPGSV,3,1,11,13,69,308,24,28,56,029,30,17,51,132,39,30,35,077,19*7F
$GPGSV,3,2,11,15,33,312,34,19,32,167,20,05,20,231,28,20,15,277,25*7E
$GPGSV,3,3,11,07,12,093,14,24,06,294,,11,04,055,*49
$GLGSV,3,1,09,75,47,352,35,65,45,252,35,85,35,113,25,84,26,053,21*6E
$GLGSV,3,2,09,74,24,054,33,66,24,319,23,72,22,197,,76,20,290,*67
$GLGSV,3,3,09,86,10,163,*57
$BDGSV,2,1,07,205,45,140,27,202,29,118,24,212,38,148,,214,29,222,*66
$BDGSV,2,2,07,208,28,060,,210,22,074,,211,03,189,*68
$GPGSA,A,1,,,,,,,,,,,,,2.2,1.2,1.9*3B
$GNGSA,A,1,,,,,,,,,,,,,2.2,1.2,1.9*25
$GNGSA,A,1,,,,,,,,,,,,,2.2,1.2,1.9*25
$QZGSA,A,1,,,,,,,,,,,,,2.2,1.2,1.9*27
$IMGSA,A,1,,,,,,,,,,,,,2.2,1.2,1.9*28
$BDGSA,A,1,,,,,,,,,,,,,2.2,1.2,1.9*2A
$GPRMC,064438.64,V,,,,,,,170616,,,N*75
$GPGGA,064439.64,3205.042676,N,03448.182671,E,1,10,4.8,239.7,M,19.2,M,,*6F
$GPGSV,3,1,11,13,69,308,27,28,56,029,31,17,51,132,39,30,35,077,25*72
$GPGSV,3,2,11,15,33,312,34,19,32,167,26,05,20,231,28,20,15,277,25*78
$GPGSV,3,3,11,07,12,093,20,24,06,294,,11,04,055,*4E
$GLGSV,3,1,09,75,47,352,35,65,45,252,36,85,35,113,25,84,26,053,20*6C
$GLGSV,3,2,09,74,24,054,33,66,24,319,23,72,22,197,,76,20,290,*67
$GLGSV,3,3,09,86,10,163,*57
$BDGSV,2,1,07,205,45,140,27,202,29,118,22,212,38,148,,214,29,222,*60
$BDGSV,2,2,07,208,28,060,,210,22,074,,211,03,189,*68
$GPGSA,A,3,13,15,17,19,28,30,,,,,,,2.3,1.0,2.1*30
$GNGSA,A,3,13,15,17,19,28,30,,,,,,,2.3,1.0,2.1*2E
$GNGSA,A,3,65,66,75,85,,,,,,,,,2.3,1.0,2.1*23
$QZGSA,A,3,,,,,,,,,,,,,2.3,1.0,2.1*2D
$IMGSA,A,3,,,,,,,,,,,,,2.3,1.0,2.1*22
$BDGSA,A,3,,,,,,,,,,,,,2.3,1.0,2.1*20
$GPRMC,064439.64,A,3205.042676,N,03448.182671,E,000.2,214.9,170616,,,A*5E
$GPGGA,064440.64,3205.038376,N,03448.182729,E,1,14,1.6,237.4,M,19.2,M,,*67
$GPGSV,3,1,11,13,69,308,26,28,56,029,32,17,51,132,39,30,35,077,25*70
$GPGSV,3,2,11,15,33,312,34,19,32,167,27,05,20,231,28,20,15,277,25*79
$GPGSV,3,3,11,07,12,093,21,24,06,294,,11,04,055,*4F
$GLGSV,3,1,09,75,47,352,35,65,45,252,36,85,35,113,24,84,26,053,20*6D
$GLGSV,3,2,09,74,24,054,34,66,24,319,23,72,22,197,,76,20,290,*60
$GLGSV,3,3,09,86,10,163,*57
$BDGSV,2,1,07,205,45,140,27,202,29,118,20,212,38,148,,214,29,222,*62
$BDGSV,2,2,07,208,28,060,,210,22,074,,211,03,189,*68
$GPGSA,A,3,05,07,13,15,17,19,20,28,30,,,,3.3,1.2,3.1*32
$GNGSA,A,3,05,07,13,15,17,19,20,28,30,,,,3.3,1.2,3.1*2C
$GNGSA,A,3,65,66,75,84,85,,,,,,,,3.3,1.2,3.1*2D
$QZGSA,A,3,,,,,,,,,,,,,3.3,1.2,3.1*2F
$IMGSA,A,3,,,,,,,,,,,,,3.3,1.2,3.1*20
$BDGSA,A,3,,,,,,,,,,,,,3.3,1.2,3.1*22
$GPRMC,064440.64,A,3205.038376,N,03448.182729,E,,,170616,,,A*58
$GPGGA,064442.00,3205.030252,N,03448.182754,E,1,14,1.6,191.6,M,19.2,M,,*6F
$GPGSV,3,1,11,13,69,308,26,28,56,029,32,17,51,132,39,30,35,077,24*71
$GPGSV,3,2,11,15,33,312,33,19,32,167,27,05,20,231,28,20,15,277,24*7F
$GPGSV,3,3,11,07,12,093,21,24,06,294,,11,04,055,*4F
$GLGSV,3,1,09,75,47,352,34,65,45,252,36,85,35,113,24,84,26,053,20*6C
$GLGSV,3,2,09,74,24,054,34,66,24,319,23,72,21,197,,76,20,290,*63
$GLGSV,3,3,09,86,10,163,*57
$BDGSV,2,1,07,205,45,140,27,202,29,118,20,212,38,148,,214,29,222,*62
$BDGSV,2,2,07,208,28,060,,210,22,074,,211,03,189,*68
$GPGSA,A,3,05,07,13,15,17,19,20,28,30,,,,2.2,1.1,1.9*3B
$GNGSA,A,3,05,07,13,15,17,19,20,28,30,,,,2.2,1.1,1.9*25
$GNGSA,A,3,65,66,75,84,85,,,,,,,,2.2,1.1,1.9*24
$QZGSA,A,3,,,,,,,,,,,,,2.2,1.1,1.9*26
$IMGSA,A,3,,,,,,,,,,,,,2.2,1.1,1.9*29
$BDGSA,A,3,,,,,,,,,,,,,2.2,1.1,1.9*2B
$GPRMC,064442.00,A,3205.030252,N,03448.182754,E,000.0,,170616,,,A*73
$GPGGA,064443.00,3205.030236,N,03448.182805,E,1,16,2.4,161.9,M,19.2,M,,*64
$GPGSV,3,1,11,13,69,308,26,28,56,029,33,17,51,132,39,30,35,077,24*70
$GPGSV,3,2,11,15,33,312,33,19,32,167,28,05,20,231,28,20,15,277,24*70
$GPGSV,3,3,11,07,12,093,22,24,06,294,,11,04,055,*4C
$GLGSV,3,1,09,75,47,352,34,65,45,252,36,85,35,113,26,84,26,053,26*68
$GLGSV,3,2,09,74,24,054,34,66,24,319,22,72,21,197,24,76,20,290,*64
$GLGSV,3,3,09,86,10,163,*57
$BDGSV,2,1,07,205,45,140,26,202,29,118,22,212,38,148,,214,29,222,*61
$BDGSV,2,2,07,208,28,060,,210,22,074,,211,03,189,*68
$GPGSA,A,3,05,07,11,13,15,17,19,20,28,30,,,2.2,1.2,1.8*39
$GNGSA,A,3,05,07,11,13,15,17,19,20,28,30,,,2.2,1.2,1.8*27
$GNGSA,A,3,65,66,72,75,84,85,,,,,,,2.2,1.2,1.8*23
$QZGSA,A,3,,,,,,,,,,,,,2.2,1.2,1.8*24
$IMGSA,A,3,,,,,,,,,,,,,2.2,1.2,1.8*2B
$BDGSA,A,3,,,,,,,,,,,,,2.2,1.2,1.8*29
$GPRMC,064443.00,A,3205.030236,N,03448.182805,E,000.0,,170616,,,A*7B
$GPGGA,064444.00,3205.030236,N,03448.182806,E,1,16,2.4,141.0,M,19.2,M,,*6B
$GPGSV,3,1,11,13,69,308,26,28,56,029,34,17,51,132,39,30,35,077,24*77
$GPGSV,3,2,11,15,33,312,32,19,32,167,28,05,20,231,28,20,15,277,26*73
$GPGSV,3,3,11,07,12,093,21,24,06,294,,11,04,055,*4F
$GLGSV,3,1,09,75,47,352,33,65,45,252,36,85,35,113,27,84,26,053,28*60
$GLGSV,3,2,09,74,24,054,34,66,24,319,22,72,21,197,25,76,20,290,17*63
$GLGSV,3,3,09,86,10,163,*57
$BDGSV,2,1,07,205,45,140,26,202,29,118,23,212,38,148,,214,29,222,*60
$BDGSV,2,2,07,208,28,060,,210,22,074,,211,03,189,*68
$GPGSA,A,3,05,07,13,15,17,19,20,28,30,,,,2.4,1.3,2.1*34
$GNGSA,A,3,05,07,13,15,17,19,20,28,30,,,,2.4,1.3,2.1*2A
$GNGSA,A,3,65,66,72,75,76,84,85,,,,,,2.4,1.3,2.1*2F
$QZGSA,A,3,,,,,,,,,,,,,2.4,1.3,2.1*29
$IMGSA,A,3,,,,,,,,,,,,,2.4,1.3,2.1*26
$BDGSA,A,3,,,,,,,,,,,,,2.4,1.3,2.1*24
$GPRMC,064444.00,A,3205.030236,N,03448.182806,E,000.0,,170616,,,A*7F
$GPGGA,064445.00,3205.030236,N,03448.182806,E,1,16,2.4,119.6,M,19.2,M,,*61
$GPGSV,3,1,11,13,69,308,27,28,56,029,34,17,51,132,39,30,35,077,24*76
$GPGSV,3,2,11,15,33,312,32,19,32,167,28,05,20,231,28,20,15,277,27*72
$GPGSV,3,3,11,07,12,093,21,24,06,294,,11,04,055,*4F
$GLGSV,3,1,09,75,47,352,33,65,45,252,36,85,35,113,27,84,26,053,29*61
$GLGSV,3,2,09,74,24,054,34,66,24,319,21,72,21,197,27,76,20,290,20*66
$GLGSV,3,3,09,86,10,163,*57
$BDGSV,2,1,07,205,45,140,26,202,29,118,24,212,38,148,,214,29,222,*67
$BDGSV,2,2,07,208,28,060,,210,22,074,,211,03,189,*68
$GPGSA,A,3,05,07,13,15,17,19,20,28,30,,,,2.4,1.3,2.1*34
$GNGSA,A,3,05,07,13,15,17,19,20,28,30,,,,2.4,1.3,2.1*2A
$GNGSA,A,3,65,66,72,75,76,84,85,,,,,,2.4,1.3,2.1*2F
$QZGSA,A,3,,,,,,,,,,,,,2.4,1.3,2.1*29
$IMGSA,A,3,,,,,,,,,,,,,2.4,1.3,2.1*26
$BDGSA,A,3,,,,,,,,,,,,,2.4,1.3,2.1*24
$GPRMC,064445.00,A,3205.030236,N,03448.182806,E,000.0,,170616,,,A*7E
$GPGGA,064446.00,3205.030236,N,03448.182806,E,1,16,2.4,108.5,M,19.2,M,,*61
$GPGSV,3,1,11,13,69,308,27,28,56,029,36,17,51,132,38,30,35,077,24*75
$GPGSV,3,2,11,15,33,312,32,19,32,167,28,05,20,231,28,20,15,277,27*72
$GPGSV,3,3,11,07,12,093,21,24,06,294,,11,04,055,*4F
$GLGSV,3,1,09,75,47,352,35,65,45,252,37,85,35,113,27,84,26,053,29*66
$GLGSV,3,2,09,74,24,054,34,66,24,319,21,72,21,197,30,76,20,290,20*60
$GLGSV,3,3,09,86,10,163,*57
$BDGSV,2,1,07,205,45,140,26,202,29,118,24,212,38,148,,214,29,222,*67
$BDGSV,2,2,07,208,28,060,,210,22,074,,211,03,189,*68
$GPGSA,A,3,05,07,13,15,17,19,20,28,30,,,,2.4,1.3,2.1*34
$GNGSA,A,3,05,07,13,15,17,19,20,28,30,,,,2.4,1.3,2.1*2A
$GNGSA,A,3,65,66,72,75,76,84,85,,,,,,2.4,1.3,2.1*2F
$QZGSA,A,3,,,,,,,,,,,,,2.4,1.3,2.1*29
$IMGSA,A,3,,,,,,,,,,,,,2.4,1.3,2.1*26
$BDGSA,A,3,,,,,,,,,,,,,2.4,1.3,2.1*24
$GPRMC,064446.00,A,3205.030236,N,03448.182806,E,000.0,,170616,,,A*7D
$GPGGA,064447.00,3205.030236,N,03448.182806,E,1,16,1.6,93.8,M,19.2,M,,*5F
$GPGSV,3,1,11,13,69,308,27,28,56,029,36,17,51,132,38,30,35,077,26*77
$GPGSV,3,2,11,15,33,312,31,19,32,167,28,05,20,231,28,20,15,277,27*71
$GPGSV,3,3,11,07,12,093,21,24,06,294,,11,04,055,*4F
$GLGSV,3,1,09,75,47,352,35,65,45,252,37,85,35,113,27,84,26,053,29*66
$GLGSV,3,2,09,74,24,054,33,66,24,319,21,72,21,197,29,76,20,290,20*6F
$GLGSV,3,3,09,86,10,163,*57
$BDGSV,2,1,07,205,45,140,26,202,29,118,24,212,38,148,,214,29,222,*67
$BDGSV,2,2,07,208,28,060,,210,22,074,,211,03,189,*68
$GPGSA,A,3,05,07,13,15,17,19,20,28,30,,,,2.3,1.2,2.0*33
$GNGSA,A,3,05,07,13,15,17,19,20,28,30,,,,2.3,1.2,2.0*2D
$GNGSA,A,3,65,66,72,75,76,84,85,,,,,,2.3,1.2,2.0*28
$QZGSA,A,3,,,,,,,,,,,,,2.3,1.2,2.0*2E
$IMGSA,A,3,,,,,,,,,,,,,2.3,1.2,2.0*21
$BDGSA,A,3,,,,,,,,,,,,,2.3,1.2,2.0*23
$GPRMC,064447.00,A,3205.030236,N,03448.182806,E,000.0,,170616,,,A*7C
$GPGGA,064448.00,3205.030236,N,03448.182806,E,1,16,1.6,81.9,M,19.2,M,,*52
$GPGSV,3,1,11,13,69,308,27,28,56,029,36,17,51,132,38,30,35,077,26*77
$GPGSV,3,2,11,15,33,312,31,19,32,167,28,05,20,231,28,20,15,277,27*71
$GPGSV,3,3,11,07,12,093,21,24,06,294,,11,04,055,*4F
$GLGSV,3,1,09,75,47,352,37,65,45,252,37,85,35,113,26,84,26,053,30*6D
$GLGSV,3,2,09,74,24,054,33,66,24,319,21,72,21,197,30,76,20,290,20*67
$GLGSV,3,3,09,86,10,163,*57
$BDGSV,2,1,07,205,45,140,25,202,29,118,24,212,38,148,,214,29,222,*64
$BDGSV,2,2,07,208,28,060,,210,22,074,,211,03,189,*68
$GPGSA,A,3,05,07,13,15,17,19,20,28,30,,,,2.4,1.3,2.1*34
$GNGSA,A,3,05,07,13,15,17,19,20,28,30,,,,2.4,1.3,2.1*2A
$GNGSA,A,3,65,66,72,75,76,84,85,,,,,,2.4,1.3,2.1*2F
$QZGSA,A,3,,,,,,,,,,,,,2.4,1.3,2.1*29
$IMGSA,A,3,,,,,,,,,,,,,2.4,1.3,2.1*26
$BDGSA,A,3,,,,,,,,,,,,,2.4,1.3,2.1*24
$GPRMC,064448.00,A,3205.030236,N,03448.182806,E,000.0,,170616,,,A*73
$GPGGA,064449.00,3205.030813,N,03448.188223,E,1,16,2.4,70.7,M,19.2,M,,*58
$GPGSV,3,1,11,13,69,308,27,28,56,029,36,17,51,132,38,30,35,077,26*77
$GPGSV,3,2,11,15,33,312,32,19,32,167,27,05,20,231,28,20,15,277,27*7D
$GPGSV,3,3,11,07,12,093,21,24,06,294,,11,04,055,*4F
$GLGSV,3,1,09,75,47,352,37,65,45,252,38,85,35,113,26,84,26,053,30*62
$GLGSV,3,2,09,74,24,054,32,66,24,319,21,72,21,197,30,76,20,290,19*6C
$GLGSV,3,3,09,86,10,163,*57
$BDGSV,2,1,07,205,45,140,25,202,29,118,23,212,38,148,,214,29,222,*63
$BDGSV,2,2,07,208,28,060,,210,22,074,,211,03,189,*68
$GPGSA,A,3,05,07,13,15,17,19,20,28,30,,,,2.3,1.2,2.0*33
$GNGSA,A,3,05,07,13,15,17,19,20,28,30,,,,2.3,1.2,2.0*2D
$GNGSA,A,3,65,66,72,75,76,84,85,,,,,,2.3,1.2,2.0*28
$QZGSA,A,3,,,,,,,,,,,,,2.3,1.2,2.0*2E
$IMGSA,A,3,,,,,,,,,,,,,2.3,1.2,2.0*21
$BDGSA,A,3,,,,,,,,,,,,,2.3,1.2,2.0*23
$GPRMC,064449.00,A,3205.030813,N,03448.188223,E,000.0,,170616,,,A*78
$GPGGA,064450.00,3205.030810,N,03448.188223,E,1,17,1.2,64.6,M,19.2,M,,*53
$GPGSV,3,1,11,13,69,308,28,28,56,029,36,17,51,132,38,30,35,077,26*78
$GPGSV,3,2,11,15,33,312,33,19,32,167,27,05,20,231,28,20,15,277,26*7D
$GPGSV,3,3,11,07,12,093,21,24,06,294,,11,04,055,*4F
$GLGSV,3,1,09,75,47,352,37,65,45,252,37,85,35,113,28,84,26,053,30*63
$GLGSV,3,2,09,66,24,319,21,74,24,054,32,72,21,197,30,76,20,290,19*6C
$GLGSV,3,3,09,86,10,163,20*55
$BDGSV,2,1,07,205,45,140,28,202,29,118,23,212,38,148,,214,29,222,*6E
$BDGSV,2,2,07,208,28,060,,210,22,074,,211,03,189,*68
$GPGSA,A,3,05,07,13,15,17,19,20,28,30,,,,2.5,1.4,2.1*32
$GNGSA,A,3,05,07,13,15,17,19,20,28,30,,,,2.5,1.4,2.1*2C
$GNGSA,A,3,65,66,72,75,76,84,85,86,,,,,2.5,1.4,2.1*27
$QZGSA,A,3,,,,,,,,,,,,,2.5,1.4,2.1*2F
$IMGSA,A,3,,,,,,,,,,,,,2.5,1.4,2.1*20
$BDGSA,A,3,,,,,,,,,,,,,2.5,1.4,2.1*22
$GPRMC,064450.00,A,3205.030810,N,03448.188223,E,000.0,,170616,,,A*73
$GPGGA,064451.00,3205.029955,N,03448.187084,E,1,18,2.4,59.4,M,19.2,M,,*5C
$GPGSV,3,1,11,13,69,308,31,28,56,029,35,17,51,132,37,30,35,077,26*7C
$GPGSV,3,2,11,15,33,312,33,19,32,167,26,05,20,231,28,20,15,277,26*7C
$GPGSV,3,3,11,07,12,093,21,24,06,294,12,11,04,055,*4C
$GLGSV,3,1,09,75,47,352,36,65,45,252,37,85,35,113,33,84,26,053,30*68
$GLGSV,3,2,09,66,24,319,21,74,24,054,31,72,21,197,32,76,20,290,19*6D
$GLGSV,3,3,09,86,10,163,20*55
$BDGSV,2,1,07,205,45,140,28,202,29,118,22,212,38,148,,214,29,222,*6F
$BDGSV,2,2,07,208,28,060,,210,22,074,,211,03,189,*68
$GPGSA,A,3,05,07,13,15,17,19,20,24,28,30,,,2.3,1.2,2.0*35
$GNGSA,A,3,05,07,13,15,17,19,20,24,28,30,,,2.3,1.2,2.0*2B
$GNGSA,A,3,65,66,72,75,76,84,85,86,,,,,2.3,1.2,2.0*26
$QZGSA,A,3,,,,,,,,,,,,,2.3,1.2,2.0*2E
$IMGSA,A,3,,,,,,,,,,,,,2.3,1.2,2.0*21
$BDGSA,A,3,,,,,,,,,,,,,2.3,1.2,2.0*23
$GPRMC,064451.00,A,3205.029955,N,03448.187084,E,000.0,,170616,,,A*7A
$GPGGA,064452.00,3205.029952,N,03448.187078,E,1,17,2.4,57.7,M,19.2,M,,*59
$GPGSV,3,1,11,13,69,308,31,28,56,029,35,17,51,132,37,30,35,077,26*7C
$GPGSV,3,2,11,15,33,312,33,19,32,167,26,05,20,231,28,20,15,277,25*7F
$GPGSV,3,3,11,07,12,093,21,24,06,294,12,11,04,055,*4C
$GLGSV,3,1,09,75,47,352,36,65,45,252,37,85,35,113,35,84,26,053,30*6E
$GLGSV,3,2,09,66,24,319,22,74,24,054,31,72,21,197,32,76,20,290,18*6F
$GLGSV,3,3,09,86,10,163,20*55
$BDGSV,2,1,07,205,45,140,28,202,29,118,21,212,38,148,,214,29,222,*6C
$BDGSV,2,2,07,208,28,060,,210,22,074,,211,03,189,*68
$GPGSA,A,3,05,07,13,15,17,19,20,28,30,,,,2.4,1.2,2.1*35
$GNGSA,A,3,05,07,13,15,17,19,20,28,30,,,,2.4,1.2,2.1*2B
$GNGSA,A,3,65,66,72,75,76,84,85,86,,,,,2.4,1.2,2.1*20
$QZGSA,A,3,,,,,,,,,,,,,2.4,1.2,2.1*28
$IMGSA,A,3,,,,,,,,,,,,,2.4,1.2,2.1*27
$BDGSA,A,3,,,,,,,,,,,,,2.4,1.2,2.1*25
$GPRMC,064452.00,A,3205.029952,N,03448.187078,E,000.0,,170616,,,A*7D
$GPGGA,064453.00,3205.029952,N,03448.187077,E,1,17,2.4,57.1,M,19.2,M,,*51
$GPGSV,3,1,11,13,69,308,31,28,56,029,35,17,51,132,36,30,35,077,25*7E
$GPGSV,3,2,11,15,33,312,32,19,32,167,25,05,20,231,28,20,15,277,25*7D
$GPGSV,3,3,11,07,12,093,25,24,06,294,12,11,04,055,*48
$GLGSV,3,1,09,75,47,352,37,65,45,252,37,85,35,113,35,84,26,053,29*67
$GLGSV,3,2,09,66,24,319,22,74,24,054,31,72,21,197,31,76,20,290,18*6C
$GLGSV,3,3,09,86,10,163,20*55
$BDGSV,2,1,07,205,45,140,28,202,29,118,20,212,38,148,,214,29,222,*6D
$BDGSV,2,2,07,208,28,060,,210,22,074,,211,03,189,*68
$GPGSA,A,3,05,07,13,15,17,19,20,28,30,,,,2.1,1.0,1.8*38
$GNGSA,A,3,05,07,13,15,17,19,20,28,30,,,,2.1,1.0,1.8*26
$GNGSA,A,3,65,66,72,75,76,84,85,86,,,,,2.1,1.0,1.8*2D
$QZGSA,A,3,,,,,,,,,,,,,2.1,1.0,1.8*25
$IMGSA,A,3,,,,,,,,,,,,,2.1,1.0,1.8*2A
$BDGSA,A,3,,,,,,,,,,,,,2.1,1.0,1.8*28
$GPRMC,064453.00,A,3205.029952,N,03448.187077,E,000.0,,170616,,,A*73
$GPGGA,064454.00,3205.029406,N,03448.183916,E,1,17,1.6,61.1,M,19.2,M,,*54
$GPGSV,3,1,11,13,69,308,36,28,56,029,35,17,51,132,36,30,35,077,25*79
$GPGSV,3,2,11,15,33,312,32,19,32,167,25,05,20,231,27,20,15,277,24*73
$GPGSV,3,3,11,07,12,093,27,24,06,294,12,11,04,055,*4A
$GLGSV,3,1,09,75,47,352,37,65,45,252,37,85,35,113,34,84,26,053,29*66
$GLGSV,3,2,09,66,24,319,21,74,24,054,31,72,21,197,31,76,20,290,17*60
$GLGSV,3,3,09,86,10,163,19*5F
$BDGSV,2,1,07,205,45,140,28,202,29,118,18,212,38,148,,214,29,222,*66
$BDGSV,2,2,07,208,28,060,,210,22,074,,211,03,189,*68
$GPGSA,A,3,05,07,13,15,17,19,20,28,30,,,,2.4,1.2,2.1*35
$GNGSA,A,3,05,07,13,15,17,19,20,28,30,,,,2.4,1.2,2.1*2B
$GNGSA,A,3,65,66,72,75,76,84,85,86,,,,,2.4,1.2,2.1*20
$QZGSA,A,3,,,,,,,,,,,,,2.4,1.2,2.1*28
$IMGSA,A,3,,,,,,,,,,,,,2.4,1.2,2.1*27
$BDGSA,A,3,,,,,,,,,,,,,2.4,1.2,2.1*25
$GPRMC,064454.00,A,3205.029406,N,03448.183916,E,000.0,,170616,,,A*72
$GPGGA,064455.00,3205.029321,N,03448.181125,E,1,17,2.4,66.3,M,19.2,M,,*59
$GPGSV,3,1,11,13,69,308,37,28,56,029,35,17,51,132,36,30,35,077,25*78
$GPGSV,3,2,11,15,33,312,34,19,32,167,24,05,20,231,27,20,15,277,24*74
$GPGSV,3,3,11,07,12,093,27,24,06,294,12,11,04,055,*4A
$GLGSV,3,1,09,75,47,352,36,65,45,252,37,85,35,113,34,84,26,053,29*67
$GLGSV,3,2,09,66,24,319,21,74,24,054,31,72,21,197,30,76,20,290,17*61
$GLGSV,3,3,09,86,10,163,19*5F
$BDGSV,2,1,07,205,45,140,28,202,29,118,17,212,38,148,,214,29,222,*69
$BDGSV,2,2,07,208,28,060,,210,22,074,,211,03,189,*68
$GPGSA,A,3,05,07,13,15,17,19,20,28,30,,,,2.1,1.0,1.8*38
$GNGSA,A,3,05,07,13,15,17,19,20,28,30,,,,2.1,1.0,1.8*26
$GNGSA,A,3,65,66,72,75,76,84,85,86,,,,,2.1,1.0,1.8*2D
$QZGSA,A,3,,,,,,,,,,,,,2.1,1.0,1.8*25
$IMGSA,A,3,,,,,,,,,,,,,2.1,1.0,1.8*2A
$BDGSA,A,3,,,,,,,,,,,,,2.1,1.0,1.8*28
$GPRMC,064455.00,A,3205.029321,N,03448.181125,E,000.0,,170616,,,A*7B
$GPGGA,064456.00,3205.029326,N,03448.181081,E,1,17,2.4,63.0,M,19.2,M,,*54
$GPGSV,3,1,11,13,69,308,37,28,56,029,34,17,51,132,36,30,35,077,24*78
$GPGSV,3,2,11,15,33,312,33,19,32,167,24,05,20,231,26,20,15,277,24*72
$GPGSV,3,3,11,07,12,093,26,24,06,294,12,11,04,055,*4B
$GLGSV,3,1,09,75,47,352,36,65,45,252,37,85,35,113,33,84,26,053,29*60
$GLGSV,3,2,09,66,24,319,20,74,24,054,30,72,21,197,30,76,20,290,17*61
$GLGSV,3,3,09,86,10,163,19*5F
$BDGSV,2,1,07,205,45,140,27,202,29,118,16,212,38,148,,214,29,222,*67
$BDGSV,2,2,07,208,28,060,,210,22,074,,211,03,189,*68
$GPGSA,A,3,05,07,13,15,17,19,20,28,30,,,,2.1,1.0,1.8*38
$GNGSA,A,3,05,07,13,15,17,19,20,28,30,,,,2.1,1.0,1.8*26
$GNGSA,A,3,65,66,72,75,76,84,85,86,,,,,2.1,1.0,1.8*2D
$QZGSA,A,3,,,,,,,,,,,,,2.1,1.0,1.8*25
$IMGSA,A,3,,,,,,,,,,,,,2.1,1.0,1.8*2A
$BDGSA,A,3,,,,,,,,,,,,,2.1,1.0,1.8*28
$GPRMC,064456.00,A,3205.029326,N,03448.181081,E,000.0,,170616,,,A*70
$GPGGA,064457.00,3205.029092,N,03448.174445,E,1,17,2.4,58.4,M,19.2,M,,*53
$GPGSV,3,1,11,13,69,308,37,28,56,029,34,17,51,132,37,30,35,077,24*79
$GPGSV,3,2,11,19,33,167,24,15,33,312,33,05,20,231,29,20,15,277,25*7D
$GPGSV,3,3,11,07,12,093,26,24,06,294,12,11,04,055,*4B
$GLGSV,3,1,09,75,47,352,36,65,45,252,37,85,35,113,32,84,26,053,30*69
$GLGSV,3,2,09,66,24,319,21,74,24,054,35,72,21,197,29,76,20,290,19*63
$GLGSV,3,3,09,86,10,163,19*5F
$BDGSV,2,1,07,205,45,140,27,202,29,118,15,212,38,148,,214,29,222,*64
$BDGSV,2,2,07,208,28,060,,210,22,074,,211,03,189,*68
$GPGSA,A,3,05,07,13,15,17,19,20,28,30,,,,2.2,1.2,1.9*38
$GNGSA,A,3,05,07,13,15,17,19,20,28,30,,,,2.2,1.2,1.9*26
$GNGSA,A,3,65,66,72,75,76,84,85,86,,,,,2.2,1.2,1.9*2D
$QZGSA,A,3,,,,,,,,,,,,,2.2,1.2,1.9*25
$IMGSA,A,3,,,,,,,,,,,,,2.2,1.2,1.9*2A
$BDGSA,A,3,,,,,,,,,,,,,2.2,1.2,1.9*28
$GPRMC,064457.00,A,3205.029092,N,03448.174445,E,000.0,,170616,,,A*7B
$GPGGA,064458.00,3205.028416,N,03448.173487,E,1,17,1.2,58.2,M,19.2,M,,*5F
$GPGSV,3,1,11,13,69,308,36,28,56,029,33,17,51,132,37,30,35,077,24*7F
$GPGSV,3,2,11,19,33,167,24,15,33,312,32,05,20,231,29,20,15,277,29*70
$GPGSV,3,3,11,07,12,093,25,24,06,294,11,11,04,055,*4B
$GLGSV,3,1,09,75,47,352,37,65,45,252,38,85,35,113,31,84,26,053,29*6C
$GLGSV,3,2,09,66,24,319,25,74,24,055,35,72,21,197,29,76,20,290,18*67
$GLGSV,3,3,09,86,10,163,19*5F
$BDGSV,2,1,07,205,45,140,27,202,29,118,14,212,38,148,,214,29,222,*65
$BDGSV,2,2,07,208,28,060,,210,22,074,,211,03,189,*68
$GPGSA,A,3,05,07,13,15,17,19,20,28,30,,,,2.3,1.2,1.9*39
$GNGSA,A,3,05,07,13,15,17,19,20,28,30,,,,2.3,1.2,1.9*27
$GNGSA,A,3,65,66,72,75,76,84,85,86,,,,,2.3,1.2,1.9*2C
$QZGSA,A,3,,,,,,,,,,,,,2.3,1.2,1.9*24
$IMGSA,A,3,,,,,,,,,,,,,2.3,1.2,1.9*2B
$BDGSA,A,3,,,,,,,,,,,,,2.3,1.2,1.9*29
$GPRMC,064458.00,A,3205.028416,N,03448.173487,E,000.0,,170616,,,A*74
$GPGGA,064459.00,3205.027827,N,03448.172606,E,1,17,1.6,56.1,M,19.2,M,,*5C
$GPGSV,3,1,11,13,69,308,35,28,56,029,32,17,51,132,37,30,35,077,23*7A
$GPGSV,3,2,11,19,33,167,23,15,33,312,32,05,20,231,29,20,15,277,29*77
$GPGSV,3,3,11,07,12,093,25,24,06,294,11,11,04,055,*4B
$GLGSV,3,1,09,75,47,352,38,65,45,252,38,85,35,113,31,84,26,053,29*63
$GLGSV,3,2,09,66,24,319,24,74,24,055,36,72,21,197,29,76,20,290,18*65
$GLGSV,3,3,09,86,10,163,19*5F
$BDGSV,2,1,07,205,45,140,27,202,29,118,11,212,38,148,,214,29,222,*60
$BDGSV,2,2,07,208,28,060,,210,22,074,,211,03,189,*68
$GPGSA,A,3,05,07,13,15,17,19,20,28,30,,,,2.5,1.4,2.1*32
$GNGSA,A,3,05,07,13,15,17,19,20,28,30,,,,2.5,1.4,2.1*2C
$GNGSA,A,3,65,66,72,75,76,84,85,86,,,,,2.5,1.4,2.1*27
$QZGSA,A,3,,,,,,,,,,,,,2.5,1.4,2.1*2F
$IMGSA,A,3,,,,,,,,,,,,,2.5,1.4,2.1*20
$BDGSA,A,3,,,,,,,,,,,,,2.5,1.4,2.1*22
$GPRMC,064459.00,A,3205.027827,N,03448.172606,E,000.0,,170616,,,A*7E
$GPGGA,064500.00,3205.027650,N,03448.172003,E,1,17,1.6,54.7,M,19.2,M,,*58
$GPGSV,3,1,11,13,69,308,34,28,56,029,31,17,51,132,37,30,35,077,23*78
$GPGSV,3,2,11,19,33,167,23,15,33,312,31,05,20,231,29,20,15,277,29*74
$GPGSV,3,3,11,07,12,093,25,24,06,294,11,11,04,055,*4B
$GLGSV,3,1,09,75,47,352,38,65,45,252,38,85,35,113,30,84,26,053,29*62
$GLGSV,3,2,09,66,24,319,24,74,24,055,36,72,21,197,29,76,20,290,18*65
$GLGSV,3,3,09,86,10,163,19*5F
$BDGSV,2,1,07,205,45,140,27,202,29,118,08,212,38,148,,214,29,222,*68
$BDGSV,2,2,07,208,28,060,,210,22,074,,211,03,189,*68
$GPGSA,A,3,05,07,13,15,17,19,20,28,30,,,,2.5,1.4,2.1*32
$GNGSA,A,3,05,07,13,15,17,19,20,28,30,,,,2.5,1.4,2.1*2C
$GNGSA,A,3,65,66,72,75,76,84,85,86,,,,,2.5,1.4,2.1*27
$QZGSA,A,3,,,,,,,,,,,,,2.5,1.4,2.1*2F
$IMGSA,A,3,,,,,,,,,,,,,2.5,1.4,2.1*20
$BDGSA,A,3,,,,,,,,,,,,,2.5,1.4,2.1*22
$GPRMC,064500.00,A,3205.027650,N,03448.172003,E,000.0,,170616,,,A*7E
$GPGGA,064501.00,3205.027489,N,03448.171066,E,1,17,1.6,52.8,M,19.2,M,,*56
$GPGSV,3,1,11,13,69,308,34,28,56,029,30,17,51,132,37,30,35,077,23*79
$GPGSV,3,2,11,19,33,167,23,15,33,312,31,05,20,231,29,20,15,277,29*74
$GPGSV,3,3,11,07,12,093,25,24,06,294,11,11,04,055,*4B
$GLGSV,3,1,09,75,47,352,38,65,45,252,38,85,35,113,29,84,26,053,28*6B
$GLGSV,3,2,09,66,24,319,30,74,24,055,36,72,21,197,28,76,20,290,18*61
$GLGSV,3,3,09,86,10,163,19*5F
$BDGSV,2,1,07,205,45,140,26,212,38,148,,202,29,118,,214,29,222,*61
$BDGSV,2,2,07,208,28,060,,210,22,074,,211,03,189,*68
$GPGSA,A,3,05,07,13,15,17,19,20,28,30,,,,2.3,1.2,1.9*39
$GNGSA,A,3,05,07,13,15,17,19,20,28,30,,,,2.3,1.2,1.9*27
$GNGSA,A,3,65,66,72,75,76,84,85,86,,,,,2.3,1.2,1.9*2C
$QZGSA,A,3,,,,,,,,,,,,,2.3,1.2,1.9*24
$IMGSA,A,3,,,,,,,,,,,,,2.3,1.2,1.9*2B
$BDGSA,A,3,,,,,,,,,,,,,2.3,1.2,1.9*29
$GPRMC,064501.00,A,3205.027489,N,03448.171066,E,000.0,,170616,,,A*79
$GPGGA,064502.00,3205.027145,N,03448.170156,E,1,18,1.6,50.3,M,19.2,M,,*55
$GPGSV,3,1,11,13,69,308,33,28,56,029,29,17,51,132,36,30,35,077,23*77
$GPGSV,3,2,11,19,33,167,23,15,33,312,31,05,20,231,32,20,15,277,30*76
$GPGSV,3,3,11,07,12,093,25,24,06,294,13,11,04,055,*49
$GLGSV,3,1,09,75,47,353,38,65,45,252,38,85,35,112,29,84,26,053,28*6B
$GLGSV,3,2,09,66,24,319,30,74,24,055,35,72,21,197,34,76,20,290,18*6F
$GLGSV,3,3,09,86,10,163,19*5F
$BDGSV,2,1,07,205,45,140,26,212,38,148,,202,29,118,,214,29,222,*61
$BDGSV,2,2,07,208,28,060,,210,22,074,,211,03,189,*68
$GPGSA,A,3,05,07,13,15,17,19,20,24,28,30,,,2.3,1.2,1.9*3F
$GNGSA,A,3,05,07,13,15,17,19,20,24,28,30,,,2.3,1.2,1.9*21
$GNGSA,A,3,65,66,72,75,76,84,85,86,,,,,2.3,1.2,1.9*2C
$QZGSA,A,3,,,,,,,,,,,,,2.3,1.2,1.9*24
$IMGSA,A,3,,,,,,,,,,,,,2.3,1.2,1.9*2B
$BDGSA,A,3,,,,,,,,,,,,,2.3,1.2,1.9*29
$GPRMC,064502.00,A,3205.027145,N,03448.170156,E,000.0,,170616,,,A*7C
$GPGGA,064503.00,3205.027186,N,03448.168384,E,1,18,1.6,44.7,M,19.2,M,,*5E
$GPGSV,3,1,11,13,69,308,32,28,56,029,29,17,51,132,36,30,35,077,25*70
$GPGSV,3,2,11,19,33,167,23,15,33,312,32,05,20,231,34,20,15,277,30*73
$GPGSV,3,3,11,07,12,093,25,24,06,294,13,11,04,055,*49
$GLGSV,3,1,09,75,47,353,38,65,45,252,37,85,35,112,28,84,26,053,34*68
$GLGSV,3,2,09,66,24,319,30,74,24,055,34,72,21,197,34,76,20,290,23*66
$GLGSV,3,3,09,86,10,163,19*5F
$BDGSV,2,1,07,205,45,140,26,212,38,148,,202,29,118,,214,29,222,*61
$BDGSV,2,2,07,208,28,060,,210,22,074,,211,03,189,*68
$GPGSA,A,3,05,07,13,15,17,19,20,24,28,30,,,2.3,1.3,1.9*3E
$GNGSA,A,3,05,07,13,15,17,19,20,24,28,30,,,2.3,1.3,1.9*20
$GNGSA,A,3,65,66,72,75,76,84,85,86,,,,,2.3,1.3,1.9*2D
$QZGSA,A,3,,,,,,,,,,,,,2.3,1.3,1.9*25
$IMGSA,A,3,,,,,,,,,,,,,2.3,1.3,1.9*2A
$BDGSA,A,3,,,,,,,,,,,,,2.3,1.3,1.9*28
$GPRMC,064503.00,A,3205.027186,N,03448.168384,E,000.0,,170616,,,A*76
$GPGGA,064504.00,3205.027186,N,03448.168384,E,1,18,0.8,37.0,M,19.2,M,,*55
$GPGSV,3,1,11,13,69,308,32,28,56,029,28,17,51,132,36,30,35,077,25*71
$GPGSV,3,2,11,19,33,167,27,15,33,312,33,05,20,231,37,20,15,277,33*76
$GPGSV,3,3,11,07,12,093,24,24,06,294,13,11,04,055,*48
$GLGSV,3,1,09,75,47,353,38,65,45,252,37,85,35,112,31,84,26,053,38*6C
$GLGSV,3,2,09,66,24,319,32,74,24,055,33,72,21,197,34,76,20,290,26*66
$GLGSV,3,3,09,86,10,163,19*5F
$BDGSV,2,1,07,205,45,140,25,212,38,148,,202,29,118,,214,29,222,*62
$BDGSV,2,2,07,208,28,060,,210,22,074,,211,03,189,*68
$GPGSA,A,3,05,07,13,15,17,19,20,24,28,30,,,2.3,1.4,1.9*39
$GNGSA,A,3,05,07,13,15,17,19,20,24,28,30,,,2.3,1.4,1.9*27
$GNGSA,A,3,65,66,72,75,76,84,85,86,,,,,2.3,1.4,1.9*2A
$QZGSA,A,3,,,,,,,,,,,,,2.3,1.4,1.9*22
$IMGSA,A,3,,,,,,,,,,,,,2.3,1.4,1.9*2D
$BDGSA,A,3,,,,,,,,,,,,,2.3,1.4,1.9*2F
$GPRMC,064504.00,A,3205.027186,N,03448.168384,E,000.0,,170616,,,A*71
$GPGGA,064505.00,3205.027186,N,03448.168384,E,1,18,0.8,29.9,M,19.2,M,,*52
$GPGSV,3,1,11,13,69,308,32,28,56,029,27,17,51,132,36,30,35,077,26*7D
$GPGSV,3,2,11,19,33,167,27,15,33,312,33,05,20,231,37,20,15,277,33*76
$GPGSV,3,3,11,07,12,093,25,24,06,294,13,11,04,055,*49
$GLGSV,3,1,09,75,47,353,38,65,45,252,36,85,35,112,32,84,26,053,38*6E
$GLGSV,3,2,09,66,24,319,33,74,24,055,32,72,21,197,34,76,20,290,26*66
$GLGSV,3,3,09,86,10,163,18*5E
$BDGSV,2,1,07,205,45,140,25,212,38,147,,202,29,118,,214,29,222,*6D
$BDGSV,2,2,07,208,28,060,,210,22,074,,211,03,189,*68
$GPGSA,A,3,05,07,13,15,17,19,20,24,28,30,,,2.3,1.4,1.9*39
$GNGSA,A,3,05,07,13,15,17,19,20,24,28,30,,,2.3,1.4,1.9*27
$GNGSA,A,3,65,66,72,75,76,84,85,86,,,,,2.3,1.4,1.9*2A
$QZGSA,A,3,,,,,,,,,,,,,2.3,1.4,1.9*22
$IMGSA,A,3,,,,,,,,,,,,,2.3,1.4,1.9*2D
$BDGSA,A,3,,,,,,,,,,,,,2.3,1.4,1.9*2F
$GPRMC,064505.00,A,3205.027186,N,03448.168384,E,000.0,,170616,,,A*70
$GPGGA,064506.00,3205.027186,N,03448.168384,E,1,18,0.8,24.4,M,19.2,M,,*51
$GPGSV,3,1,11,13,69,308,31,28,56,029,27,17,51,132,36,30,35,077,29*71
$GPGSV,3,2,11,19,33,167,26,15,33,312,33,05,20,231,36,20,15,277,33*76
$GPGSV,3,3,11,07,12,093,25,24,06,294,13,11,04,055,*49
$GLGSV,3,1,09,75,47,353,38,65,45,252,36,85,35,112,33,84,26,053,38*6F
$GLGSV,3,2,09,66,24,319,35,74,24,055,32,72,21,197,34,76,20,290,26*60
$GLGSV,3,3,09,86,10,163,18*5E
$BDGSV,2,1,07,205,45,140,25,212,38,147,,202,29,118,,214,29,222,*6D
$BDGSV,2,2,07,208,28,060,,210,22,074,,211,03,189,*68
$GPGSA,A,3,05,07,13,15,17,19,20,24,28,30,,,2.3,1.4,1.9*39
$GNGSA,A,3,05,07,13,15,17,19,20,24,28,30,,,2.3,1.4,1.9*27
$GNGSA,A,3,65,66,72,75,76,84,85,86,,,,,2.3,1.4,1.9*2A
$QZGSA,A,3,,,,,,,,,,,,,2.3,1.4,1.9*22
$IMGSA,A,3,,,,,,,,,,,,,2.3,1.4,1.9*2D
$BDGSA,A,3,,,,,,,,,,,,,2.3,1.4,1.9*2F
$GPRMC,064506.00,A,3205.027186,N,03448.168384,E,000.0,,170616,,,A*73
$GPGGA,064507.00,3205.027186,N,03448.168384,E,1,18,0.8,20.2,M,19.2,M,,*52
$GPGSV,3,1,11,13,69,308,31,28,56,029,27,17,51,132,36,30,35,077,29*71
$GPGSV,3,2,11,19,33,167,26,15,33,312,33,05,20,231,36,20,15,277,32*77
$GPGSV,3,3,11,07,12,093,25,24,06,294,13,11,04,055,*49
$GLGSV,3,1,09,75,47,353,38,65,45,252,35,85,35,112,34,84,26,053,38*6B
$GLGSV,3,2,09,66,24,319,35,74,24,055,32,72,21,197,33,76,20,290,26*67
$GLGSV,3,3,09,86,10,163,18*5E
$BDGSV,2,1,07,205,45,140,25,212,38,147,,202,29,118,,214,29,222,*6D
$BDGSV,2,2,07,208,28,060,,210,22,074,,211,03,189,*68
$GPGSA,A,3,05,07,13,15,17,19,20,24,28,30,,,2.3,1.3,1.9*3E
$GNGSA,A,3,05,07,13,15,17,19,20,24,28,30,,,2.3,1.3,1.9*20
$GNGSA,A,3,65,66,72,75,76,84,85,86,,,,,2.3,1.3,1.9*2D
$QZGSA,A,3,,,,,,,,,,,,,2.3,1.3,1.9*25
$IMGSA,A,3,,,,,,,,,,,,,2.3,1.3,1.9*2A
$BDGSA,A,3,,,,,,,,,,,,,2.3,1.3,1.9*28
$GPRMC,064507.00,A,3205.027186,N,03448.168384,E,000.0,,170616,,,A*72
$GPGGA,064508.00,3205.029129,N,03448.164107,E,1,18,0.6,17.2,M,19.2,M,,*59
$GPGSV,3,1,11,13,69,308,30,28,56,029,27,17,51,132,36,30,35,077,29*70
$GPGSV,3,2,11,19,33,167,26,15,33,312,32,05,20,231,37,20,15,277,32*77
$GPGSV,3,3,11,07,12,093,24,24,06,294,13,11,04,055,*48
$GLGSV,3,1,09,75,47,353,38,65,45,252,35,85,35,112,34,84,26,053,38*6B
$GLGSV,3,2,09,66,24,319,36,74,24,055,32,72,21,197,32,76,20,290,25*66
$GLGSV,3,3,09,86,10,163,21*54
$BDGSV,2,1,07,205,45,140,29,212,38,147,,202,29,118,,214,29,222,*61
$BDGSV,2,2,07,208,28,060,,210,22,074,,211,03,189,*68
$GPGSA,A,3,05,07,13,15,17,19,20,24,28,30,,,2.3,1.3,1.9*3E
$GNGSA,A,3,05,07,13,15,17,19,20,24,28,30,,,2.3,1.3,1.9*20
$GNGSA,A,3,65,66,72,75,76,84,85,86,,,,,2.3,1.3,1.9*2D
$QZGSA,A,3,,,,,,,,,,,,,2.3,1.3,1.9*25
$IMGSA,A,3,,,,,,,,,,,,,2.3,1.3,1.9*2A
$BDGSA,A,3,,,,,,,,,,,,,2.3,1.3,1.9*28
$GPRMC,064508.00,A,3205.029129,N,03448.164107,E,000.0,,170616,,,A*73
$GPGGA,064509.00,3205.029129,N,03448.164107,E,1,18,0.6,14.2,M,19.2,M,,*5B
$GPGSV,3,1,11,13,69,308,30,28,56,029,27,17,51,132,36,30,35,077,30*78
$GPGSV,3,2,11,19,33,167,26,15,33,312,32,05,20,231,36,20,15,277,31*75
$GPGSV,3,3,11,07,12,093,24,24,06,294,13,11,04,055,*48
$GLGSV,3,1,09,75,47,353,38,65,45,252,34,85,35,112,34,84,26,053,38*6A
$GLGSV,3,2,09,66,24,319,36,74,24,055,32,72,21,197,32,76,20,290,25*66
$GLGSV,3,3,09,86,10,163,21*54
$BDGSV,2,1,07,205,45,140,31,212,38,147,,202,29,118,,214,29,222,*68
$BDGSV,2,2,07,208,28,060,,210,22,074,,211,03,189,*68
$GPGSA,A,3,05,07,13,15,17,19,20,24,28,30,,,2.3,1.3,1.9*3E
$GNGSA,A,3,05,07,13,15,17,19,20,24,28,30,,,2.3,1.3,1.9*20
$GNGSA,A,3,65,66,72,75,76,84,85,86,,,,,2.3,1.3,1.9*2D
$QZGSA,A,3,,,,,,,,,,,,,2.3,1.3,1.9*25
$IMGSA,A,3,,,,,,,,,,,,,2.3,1.3,1.9*2A
$BDGSA,A,3,,,,,,,,,,,,,2.3,1.3,1.9*28
$GPRMC,064509.00,A,3205.029129,N,03448.164107,E,000.0,,170616,,,A*72
$GPGGA,064510.00,3205.028973,N,03448.163700,E,1,17,0.8,14.2,M,19.2,M,,*52
$GPGSV,3,1,11,13,69,308,29,28,56,029,28,17,51,132,37,30,35,077,34*7A
$GPGSV,3,2,11,19,33,167,26,15,33,312,35,05,20,231,37,20,15,277,30*72
$GPGSV,3,3,11,07,12,093,24,24,06,294,13,11,04,055,*48
$GLGSV,3,1,09,75,47,353,38,65,45,252,34,85,35,112,36,84,26,053,37*67
$GLGSV,3,2,09,66,24,319,35,74,24,055,32,72,21,197,32,76,20,290,24*64
$GLGSV,3,3,09,86,10,163,22*57
$BDGSV,2,1,07,205,45,140,32,212,38,147,,202,29,118,,214,29,222,*6B
$BDGSV,2,2,07,208,28,060,,210,22,074,,211,03,189,*68
$GPGSA,A,3,05,07,13,15,17,19,20,28,30,,,,2.3,1.3,1.9*38
$GNGSA,A,3,05,07,13,15,17,19,20,28,30,,,,2.3,1.3,1.9*26
$GNGSA,A,3,65,66,72,75,76,84,85,86,,,,,2.3,1.3,1.9*2D
$QZGSA,A,3,,,,,,,,,,,,,2.3,1.3,1.9*25
$IMGSA,A,3,,,,,,,,,,,,,2.3,1.3,1.9*2A
$BDGSA,A,3,,,,,,,,,,,,,2.3,1.3,1.9*28
$GPRMC,064510.00,A,3205.028973,N,03448.163700,E,000.0,,170616,,,A*7A
$GPGGA,064511.00,3205.028777,N,03448.163541,E,1,18,1.6,14.2,M,19.2,M,,*5E
$GPGSV,3,1,11,13,69,308,29,28,56,029,29,17,51,132,40,30,35,077,36*79
$GPGSV,3,2,11,19,33,167,26,15,33,312,35,05,20,231,38,20,15,277,30*7D
$GPGSV,3,3,11,07,12,093,23,24,06,294,13,11,04,055,*4F
$GLGSV,3,1,09,75,47,353,37,65,45,252,34,85,35,112,37,84,26,053,36*68
$GLGSV,3,2,09,66,24,319,35,74,24,055,31,72,21,197,31,76,20,290,24*64
$GLGSV,3,3,09,86,10,163,22*57
$BDGSV,2,1,07,205,45,140,32,212,38,147,,202,29,118,,214,29,222,*6B
$BDGSV,2,2,07,208,28,060,,210,22,074,,211,03,189,*68
$GPGSA,A,3,05,07,13,15,17,19,20,24,28,30,,,2.4,1.3,2.1*32
$GNGSA,A,3,05,07,13,15,17,19,20,24,28,30,,,2.4,1.3,2.1*2C
$GNGSA,A,3,65,66,72,75,76,84,85,86,,,,,2.4,1.3,2.1*21
$QZGSA,A,3,,,,,,,,,,,,,2.4,1.3,2.1*29
$IMGSA,A,3,,,,,,,,,,,,,2.4,1.3,2.1*26
$BDGSA,A,3,,,,,,,,,,,,,2.4,1.3,2.1*24
$GPRMC,064511.00,A,3205.028777,N,03448.163541,E,000.0,,170616,,,A*76
$GPGGA,064512.00,3205.028482,N,03448.162484,E,1,18,1.2,14.0,M,19.2,M,,*5B
$GPGSV,3,1,11,13,69,308,28,28,56,029,33,17,51,132,40,30,35,077,35*70
$GPGSV,3,2,11,19,33,167,26,15,33,312,35,05,20,231,41,20,15,277,30*73
$GPGSV,3,3,11,07,12,093,22,24,06,294,13,11,04,055,*4E
$GLGSV,3,1,09,75,47,353,37,65,45,252,34,85,35,112,37,84,26,053,35*6B
$GLGSV,3,2,09,66,24,319,34,74,24,055,31,72,21,197,31,76,20,290,24*65
$GLGSV,3,3,09,86,10,163,22*57
$BDGSV,2,1,07,205,45,140,32,212,38,147,,202,29,118,,214,29,222,*6B
$BDGSV,2,2,07,208,28,060,,210,22,074,,211,03,189,*68
$GPGSA,A,3,05,07,13,15,17,19,20,24,28,30,,,2.9,1.5,2.5*3D
$GNGSA,A,3,05,07,13,15,17,19,20,24,28,30,,,2.9,1.5,2.5*23
$GNGSA,A,3,65,66,72,75,76,84,85,86,,,,,2.9,1.5,2.5*2E
$QZGSA,A,3,,,,,,,,,,,,,2.9,1.5,2.5*26
$IMGSA,A,3,,,,,,,,,,,,,2.9,1.5,2.5*29
$BDGSA,A,3,,,,,,,,,,,,,2.9,1.5,2.5*2B
$GPRMC,064512.00,A,3205.028482,N,03448.162484,E,001.1,,170616,,,A*75
$GPGGA,064513.00,3205.028389,N,03448.161636,E,1,18,1.2,13.8,M,19.2,M,,*51
$GPGSV,3,1,11,13,69,308,28,28,56,029,37,17,51,132,40,30,35,077,35*74
$GPGSV,3,2,11,19,33,167,26,15,33,312,34,05,20,231,42,20,15,277,31*70
$GPGSV,3,3,11,07,12,093,22,24,06,294,13,11,04,055,*4E
$GLGSV,3,1,09,75,47,353,37,65,45,252,33,85,35,112,36,84,26,053,34*6C
$GLGSV,3,2,09,66,24,319,33,74,24,055,30,72,21,197,31,76,20,290,23*64
$GLGSV,3,3,09,86,10,163,22*57
$BDGSV,2,1,07,205,45,140,32,212,38,147,,202,29,118,,214,29,222,*6B
$BDGSV,2,2,07,208,28,060,,210,22,074,,211,03,189,*68
$GPGSA,A,3,05,07,13,15,17,19,20,24,28,30,,,2.6,1.4,2.2*34
$GNGSA,A,3,05,07,13,15,17,19,20,24,28,30,,,2.6,1.4,2.2*2A
$GNGSA,A,3,65,66,72,75,76,84,85,86,,,,,2.6,1.4,2.2*27
$QZGSA,A,3,,,,,,,,,,,,,2.6,1.4,2.2*2F
$IMGSA,A,3,,,,,,,,,,,,,2.6,1.4,2.2*20
$BDGSA,A,3,,,,,,,,,,,,,2.6,1.4,2.2*22
$GPRMC,064513.00,A,3205.028389,N,03448.161636,E,001.4,,170616,,,A*75
$GPGGA,064514.00,3205.028033,N,03448.158949,E,1,18,1.6,13.5,M,19.2,M,,*50
$GPGSV,3,1,11,13,69,308,27,28,55,029,38,17,51,132,40,30,35,077,35*77
$GPGSV,3,2,11,19,33,167,25,15,33,312,33,05,20,231,42,20,15,277,32*77
$GPGSV,3,3,11,07,12,093,22,24,06,294,13,11,04,055,*4E
$GLGSV,3,1,09,75,47,353,37,65,45,252,33,85,35,112,36,84,26,053,33*6B
$GLGSV,3,2,09,66,24,319,32,74,24,055,29,72,21,197,30,76,20,290,23*6C
$GLGSV,3,3,09,86,10,163,22*57
$BDGSV,2,1,07,205,45,140,32,212,38,147,,202,29,118,,214,29,222,*6B
$BDGSV,2,2,07,208,28,060,,210,22,074,,211,03,189,*68
$GPGSA,A,3,05,07,13,15,17,19,20,24,28,30,,,2.8,1.6,2.3*39
$GNGSA,A,3,05,07,13,15,17,19,20,24,28,30,,,2.8,1.6,2.3*27
$GNGSA,A,3,65,66,72,75,76,84,85,86,,,,,2.8,1.6,2.3*2A
$QZGSA,A,3,,,,,,,,,,,,,2.8,1.6,2.3*22
$IMGSA,A,3,,,,,,,,,,,,,2.8,1.6,2.3*2D
$BDGSA,A,3,,,,,,,,,,,,,2.8,1.6,2.3*2F
$GPRMC,064514.00,A,3205.028033,N,03448.158949,E,001.4,,170616,,,A*7D
$GPGGA,064515.00,3205.027695,N,03448.156507,E,1,17,1.6,13.2,M,19.2,M,,*54
$GPGSV,3,1,11,13,69,308,27,28,55,029,38,17,51,132,40,30,35,077,35*77
$GPGSV,3,2,11,19,33,167,25,15,33,312,33,05,20,231,42,20,15,277,31*74
$GPGSV,3,3,11,07,12,093,23,24,06,294,12,11,04,055,*4E
$GLGSV,3,1,09,75,47,353,36,65,45,252,33,85,35,112,38,84,26,053,32*65
$GLGSV,3,2,09,66,24,319,32,74,24,055,29,72,21,197,30,76,20,290,22*6D
$GLGSV,3,3,09,86,10,163,21*54
$BDGSV,2,1,07,205,45,140,32,212,38,147,,202,29,118,,214,29,222,*6B
$BDGSV,2,2,07,208,28,060,,210,22,074,,211,03,189,*68
$GPGSA,A,3,05,07,13,15,17,19,20,28,30,,,,2.8,1.6,2.3*3F
$GNGSA,A,3,05,07,13,15,17,19,20,28,30,,,,2.8,1.6,2.3*21
$GNGSA,A,3,65,66,72,75,76,84,85,86,,,,,2.8,1.6,2.3*2A
$QZGSA,A,3,,,,,,,,,,,,,2.8,1.6,2.3*22
$IMGSA,A,3,,,,,,,,,,,,,2.8,1.6,2.3*2D
$BDGSA,A,3,,,,,,,,,,,,,2.8,1.6,2.3*2F
$GPRMC,064515.00,A,3205.027695,N,03448.156507,E,001.6,,170616,,,A*73
$GPGGA,064516.00,3205.027658,N,03448.155909,E,1,17,1.6,12.9,M,19.2,M,,*5D
$GPGSV,3,1,11,13,69,308,26,28,55,029,39,17,51,132,39,30,35,077,35*79
$GPGSV,3,2,11,19,33,167,26,15,33,312,32,05,20,231,41,20,15,277,31*75
$GPGSV,3,3,11,07,12,093,24,24,06,294,12,11,04,055,*49
$GLGSV,3,1,09,75,47,353,36,65,45,252,32,85,35,112,39,84,26,053,31*66
$GLGSV,3,2,09,66,24,319,32,74,24,055,28,72,21,197,30,76,20,290,21*6F
$GLGSV,3,3,09,86,10,163,21*54
$BDGSV,2,1,07,205,45,140,32,212,38,147,,202,29,118,,214,29,222,*6B
$BDGSV,2,2,07,208,28,060,,210,22,074,,211,03,189,*68
$GPGSA,A,3,05,07,13,15,17,19,20,28,30,,,,2.1,1.3,1.7*34
$GNGSA,A,3,05,07,13,15,17,19,20,28,30,,,,2.1,1.3,1.7*2A
$GNGSA,A,3,65,66,72,75,76,84,85,86,,,,,2.1,1.3,1.7*21
$QZGSA,A,3,,,,,,,,,,,,,2.1,1.3,1.7*29
$IMGSA,A,3,,,,,,,,,,,,,2.1,1.3,1.7*26
$BDGSA,A,3,,,,,,,,,,,,,2.1,1.3,1.7*24
$GPRMC,064516.00,A,3205.027658,N,03448.155909,E,001.7,,170616,,,A*71
$GPGGA,064517.00,3205.027578,N,03448.155311,E,1,17,1.6,12.6,M,19.2,M,,*51
$GPGSV,3,1,11,13,69,308,26,28,55,029,39,17,51,132,39,30,35,077,34*78
$GPGSV,3,2,11,19,33,167,25,15,33,312,32,05,20,231,41,20,15,277,31*76
$GPGSV,3,3,11,07,12,093,25,24,06,294,12,11,04,055,*48
$GLGSV,3,1,09,75,47,353,36,65,45,252,32,85,35,112,39,84,26,053,30*67
$GLGSV,3,2,09,66,24,319,31,74,24,055,28,72,21,197,30,76,20,290,21*6C
$GLGSV,3,3,09,86,10,162,21*55
$BDGSV,2,1,07,205,45,140,32,212,38,147,,202,29,118,,214,29,222,*6B
$BDGSV,2,2,07,208,28,060,,210,22,074,,211,03,189,*68
$GPGSA,A,3,05,07,13,15,17,19,20,28,30,,,,2.3,1.3,1.9*38
$GNGSA,A,3,05,07,13,15,17,19,20,28,30,,,,2.3,1.3,1.9*26
$GNGSA,A,3,65,66,72,75,76,84,85,86,,,,,2.3,1.3,1.9*2D
$QZGSA,A,3,,,,,,,,,,,,,2.3,1.3,1.9*25
$IMGSA,A,3,,,,,,,,,,,,,2.3,1.3,1.9*2A
$BDGSA,A,3,,,,,,,,,,,,,2.3,1.3,1.9*28
$GPRMC,064517.00,A,3205.027578,N,03448.155311,E,001.7,,170616,,,A*72
$GPGGA,064518.00,3205.027469,N,03448.154714,E,1,17,1.2,12.3,M,19.2,M,,*5E
$GPGSV,3,1,11,13,69,308,25,28,55,029,39,17,51,132,39,30,35,077,34*7B
$GPGSV,3,2,11,19,33,167,25,15,33,312,32,05,20,231,41,20,15,277,30*77
$GPGSV,3,3,11,07,12,093,28,24,06,294,12,11,04,055,*45
$GLGSV,3,1,09,75,47,353,35,65,45,252,36,85,35,112,38,84,26,053,29*69
$GLGSV,3,2,09,66,24,319,31,74,24,055,28,72,21,197,34,76,20,290,22*6B
$GLGSV,3,3,09,86,10,162,21*55
$BDGSV,2,1,07,205,45,140,32,212,38,147,,202,29,118,,214,29,222,*6B
$BDGSV,2,2,07,208,28,060,,210,22,074,,211,03,189,*68
$GPGSA,A,3,05,07,13,15,17,19,20,28,30,,,,2.6,1.4,2.2*32
$GNGSA,A,3,05,07,13,15,17,19,20,28,30,,,,2.6,1.4,2.2*2C
$GNGSA,A,3,65,66,72,75,76,84,85,86,,,,,2.6,1.4,2.2*27
$QZGSA,A,3,,,,,,,,,,,,,2.6,1.4,2.2*2F
$IMGSA,A,3,,,,,,,,,,,,,2.6,1.4,2.2*20
$BDGSA,A,3,,,,,,,,,,,,,2.6,1.4,2.2*22
$GPRMC,064518.00,A,3205.027469,N,03448.154714,E,001.7,,170616,,,A*7C
$GPGGA,064519.00,3205.027345,N,03448.153991,E,1,18,0.8,12.1,M,19.2,M,,*54
$GPGSV,3,1,11,13,69,308,25,28,55,029,38,17,51,132,39,30,35,077,33*7D
$GPGSV,3,2,11,19,33,167,25,15,33,312,31,05,20,231,40,20,15,277,30*75
$GPGSV,3,3,11,07,12,093,31,24,06,294,13,11,04,055,*4C
$GLGSV,3,1,09,75,47,353,35,65,45,252,36,85,35,112,38,84,26,053,28*68
$GLGSV,3,2,09,66,24,319,30,74,24,055,27,72,21,197,34,76,20,290,24*63
$GLGSV,3,3,09,86,10,162,21*55
$BDGSV,2,1,07,205,45,140,32,212,38,147,,202,29,118,,214,29,222,*6B
$BDGSV,2,2,07,208,28,060,,210,22,074,,211,03,189,*68
$GPGSA,A,3,05,07,13,15,17,19,20,24,28,30,,,2.9,1.5,2.5*3D
$GNGSA,A,3,05,07,13,15,17,19,20,24,28,30,,,2.9,1.5,2.5*23
$GNGSA,A,3,65,66,72,75,76,84,85,86,,,,,2.9,1.5,2.5*2E
$QZGSA,A,3,,,,,,,,,,,,,2.9,1.5,2.5*26
$IMGSA,A,3,,,,,,,,,,,,,2.9,1.5,2.5*29
$BDGSA,A,3,,,,,,,,,,,,,2.9,1.5,2.5*2B
$GPRMC,064519.00,A,3205.027345,N,03448.153991,E,001.8,,170616,,,A*7F
$GPGGA,064520.00,3205.027180,N,03448.153285,E,1,18,1.2,11.8,M,19.2,M,,*5A
$GPGSV,3,1,11,13,69,308,25,28,55,029,39,17,51,132,39,30,35,077,33*7C
$GPGSV,3,2,11,15,33,312,31,19,33,167,25,05,20,231,42,20,15,277,30*77
$GPGSV,3,3,11,07,12,093,33,24,06,294,14,11,04,055,*49
$GLGSV,3,1,09,75,47,353,35,65,45,252,36,85,36,112,37,84,26,053,28*64
$GLGSV,3,2,09,66,24,319,30,74,24,055,27,72,21,197,34,76,20,290,26*61
$GLGSV,3,3,09,86,10,162,21*55
$BDGSV,2,1,07,205,45,140,31,212,38,147,,202,29,118,,214,29,222,*68
$BDGSV,2,2,07,208,28,060,,210,22,074,,211,03,189,*68
$GPGSA,A,3,05,07,13,15,17,19,20,24,28,30,,,2.6,1.4,2.2*34
$GNGSA,A,3,05,07,13,15,17,19,20,24,28,30,,,2.6,1.4,2.2*2A
$GNGSA,A,3,65,66,72,75,76,84,85,86,,,,,2.6,1.4,2.2*27
$QZGSA,A,3,,,,,,,,,,,,,2.6,1.4,2.2*2F
$IMGSA,A,3,,,,,,,,,,,,,2.6,1.4,2.2*20
$BDGSA,A,3,,,,,,,,,,,,,2.6,1.4,2.2*22
$GPRMC,064520.00,A,3205.027180,N,03448.153285,E,001.8,,170616,,,A*70
$GPGGA,064521.00,3205.026548,N,03448.152972,E,1,18,0.8,11.6,M,19.2,M,,*5D
$GPGSV,3,1,11,13,69,308,25,28,55,029,41,17,51,132,39,30,35,077,32*72
$GPGSV,3,2,11,15,33,312,32,19,33,167,25,05,20,231,42,20,15,277,30*74
$GPGSV,3,3,11,07,12,093,34,24,06,294,14,11,04,055,*4E
$GLGSV,3,1,09,75,47,353,35,65,45,252,37,85,36,112,37,84,26,053,27*6A
$GLGSV,3,2,09,66,24,319,30,74,24,055,28,72,21,197,33,76,20,290,26*69
$GLGSV,3,3,09,86,10,162,23*57
$BDGSV,2,1,07,205,45,140,30,212,38,147,,202,29,118,,214,29,222,*69
$BDGSV,2,2,07,208,28,060,,210,22,074,,211,03,189,*68
$GPGSA,A,3,05,07,13,15,17,19,20,24,28,30,,,2.9,1.5,2.5*3D
$GNGSA,A,3,05,07,13,15,17,19,20,24,28,30,,,2.9,1.5,2.5*23
$GNGSA,A,3,65,66,72,75,76,84,85,86,,,,,2.9,1.5,2.5*2E
$QZGSA,A,3,,,,,,,,,,,,,2.9,1.5,2.5*26
$IMGSA,A,3,,,,,,,,,,,,,2.9,1.5,2.5*29
$BDGSA,A,3,,,,,,,,,,,,,2.9,1.5,2.5*2B
$GPRMC,064521.00,A,3205.026548,N,03448.152972,E,001.8,,170616,,,A*72
$GPGGA,064522.00,3205.026023,N,03448.152701,E,1,18,0.8,11.4,M,19.2,M,,*5E
$GPGSV,3,1,11,13,69,308,24,28,55,029,41,17,51,132,39,30,35,077,32*73
$GPGSV,3,2,11,15,33,312,32,19,33,167,25,05,20,231,41,20,15,277,29*7F
$GPGSV,3,3,11,07,12,093,34,24,06,294,14,11,04,055,*4E
$GLGSV,3,1,09,75,47,353,35,65,45,252,37,85,36,112,36,84,26,053,27*6B
$GLGSV,3,2,09,66,24,319,29,74,24,055,28,72,21,197,33,76,20,290,25*62
$GLGSV,3,3,09,86,10,162,23*57
$BDGSV,2,1,07,205,45,140,29,212,38,147,,202,29,118,,214,29,222,*61
$BDGSV,2,2,07,208,28,060,,210,22,074,,211,03,189,*68
$GPGSA,A,3,05,07,13,15,17,19,20,24,28,30,,,2.9,1.5,2.5*3D
$GNGSA,A,3,05,07,13,15,17,19,20,24,28,30,,,2.9,1.5,2.5*23
$GNGSA,A,3,65,66,72,75,76,84,85,86,,,,,2.9,1.5,2.5*2E
$QZGSA,A,3,,,,,,,,,,,,,2.9,1.5,2.5*26
$IMGSA,A,3,,,,,,,,,,,,,2.9,1.5,2.5*29
$BDGSA,A,3,,,,,,,,,,,,,2.9,1.5,2.5*2B
$GPRMC,064522.00,A,3205.026023,N,03448.152701,E,001.8,,170616,,,A*73
$GPGGA,064523.00,3205.026022,N,03448.152701,E,1,18,0.8,11.2,M,19.2,M,,*58
$GPGSV,3,1,11,13,69,308,25,28,55,029,41,17,51,132,38,30,35,077,31*70
$GPGSV,3,2,11,15,33,312,31,19,33,167,24,05,20,231,41,20,15,277,29*7D
$GPGSV,3,3,11,07,12,093,34,24,06,294,14,11,04,055,*4E
$GLGSV,3,1,09,75,47,353,36,65,45,252,37,85,36,112,36,84,26,053,27*68
$GLGSV,3,2,09,66,24,319,30,74,24,055,29,72,21,197,32,76,20,290,25*6A
$GLGSV,3,3,09,86,10,162,22*56
$BDGSV,2,1,07,205,45,140,28,212,38,147,,202,29,118,,214,29,222,*60
$BDGSV,2,2,07,208,28,060,,210,22,074,,211,03,189,*68
$GPGSA,A,3,05,07,13,15,17,19,20,24,28,30,,,2.9,1.5,2.5*3D
$GNGSA,A,3,05,07,13,15,17,19,20,24,28,30,,,2.9,1.5,2.5*23
$GNGSA,A,3,65,66,72,75,76,84,85,86,,,,,2.9,1.5,2.5*2E
$QZGSA,A,3,,,,,,,,,,,,,2.9,1.5,2.5*26
$IMGSA,A,3,,,,,,,,,,,,,2.9,1.5,2.5*29
$BDGSA,A,3,,,,,,,,,,,,,2.9,1.5,2.5*2B
$GPRMC,064523.00,A,3205.026022,N,03448.152701,E,001.0,,170616,,,A*7B
$GPGGA,064524.00,3205.026022,N,03448.152701,E,1,18,0.8,11.0,M,19.2,M,,*5D
$GPGSV,3,1,11,13,69,308,25,28,55,029,40,17,51,132,38,30,35,077,31*71
$GPGSV,3,2,11,15,33,312,31,19,33,167,26,05,20,231,40,20,15,277,29*7E
$GPGSV,3,3,11,07,12,093,33,24,06,294,13,11,04,055,*4E
$GLGSV,3,1,09,75,47,353,40,65,45,252,37,85,36,112,36,84,26,052,27*68
$GLGSV,3,2,09,66,24,319,30,74,24,055,29,72,21,197,32,76,20,290,25*6A
$GLGSV,3,3,09,86,10,162,22*56
$BDGSV,2,1,07,205,45,140,27,212,38,147,,202,29,118,,214,29,222,*6F
$BDGSV,2,2,07,208,28,060,,210,22,074,,211,03,189,*68
$GPGSA,A,3,05,07,13,15,17,19,20,24,28,30,,,2.9,1.5,2.5*3D
$GNGSA,A,3,05,07,13,15,17,19,20,24,28,30,,,2.9,1.5,2.5*23
$GNGSA,A,3,65,66,72,75,76,84,85,86,,,,,2.9,1.5,2.5*2E
$QZGSA,A,3,,,,,,,,,,,,,2.9,1.5,2.5*26
$IMGSA,A,3,,,,,,,,,,,,,2.9,1.5,2.5*29
$BDGSA,A,3,,,,,,,,,,,,,2.9,1.5,2.5*2B
$GPRMC,064524.00,A,3205.026022,N,03448.152701,E,001.0,,170616,,,A*7C
$GPGGA,064525.00,3205.025401,N,03448.152668,E,1,17,1.2,10.8,M,19.2,M,,*59
$GPGSV,3,1,11,13,69,308,25,28,55,029,40,17,51,132,38,30,35,077,30*70
$GPGSV,3,2,11,15,33,312,32,19,33,167,26,05,20,231,39,20,15,277,28*72
$GPGSV,3,3,11,07,12,093,33,24,06,294,13,11,04,055,*4E
$GLGSV,3,1,09,75,47,353,40,65,45,252,37,85,36,112,35,84,26,052,27*6B
$GLGSV,3,2,09,66,24,319,30,74,24,055,29,72,21,197,32,76,20,290,24*6B
$GLGSV,3,3,09,86,10,162,22*56
$BDGSV,2,1,07,205,45,140,26,212,38,147,,202,29,118,,214,29,222,*6E
$BDGSV,2,2,07,208,28,060,,210,22,074,,211,03,189,*68
$GPGSA,A,3,05,07,13,15,17,19,20,28,30,,,,2.9,1.5,2.5*3B
$GNGSA,A,3,05,07,13,15,17,19,20,28,30,,,,2.9,1.5,2.5*25
$GNGSA,A,3,65,66,72,75,76,84,85,86,,,,,2.9,1.5,2.5*2E
$QZGSA,A,3,,,,,,,,,,,,,2.9,1.5,2.5*26
$IMGSA,A,3,,,,,,,,,,,,,2.9,1.5,2.5*29
$BDGSA,A,3,,,,,,,,,,,,,2.9,1.5,2.5*2B
$GPRMC,064525.00,A,3205.025401,N,03448.152668,E,001.8,,170616,,,A*7D
$GPGGA,064526.00,3205.024790,N,03448.153494,E,1,17,1.2,10.6,M,19.2,M,,*5E
$GPGSV,3,1,11,13,69,308,25,28,55,029,39,17,51,132,37,30,35,077,30*71
$GPGSV,3,2,11,15,33,312,32,19,33,167,25,05,20,231,39,20,15,277,28*71
$GPGSV,3,3,11,07,12,093,32,24,06,294,13,11,04,055,*4F
$GLGSV,3,1,09,75,47,353,40,65,45,252,36,85,36,112,35,84,26,052,26*6B
$GLGSV,3,2,09,66,24,319,30,74,24,055,29,72,21,197,33,76,20,290,24*6A
$GLGSV,3,3,09,86,10,162,21*55
$BDGSV,2,1,07,205,45,140,25,212,38,147,,202,29,118,,214,29,222,*6D
$BDGSV,2,2,07,208,28,060,,210,22,074,,211,03,189,*68
$GPGSA,A,3,05,07,13,15,17,19,20,28,30,,,,2.6,1.4,2.2*32
$GNGSA,A,3,05,07,13,15,17,19,20,28,30,,,,2.6,1.4,2.2*2C
$GNGSA,A,3,65,66,72,75,76,84,85,86,,,,,2.6,1.4,2.2*27
$QZGSA,A,3,,,,,,,,,,,,,2.6,1.4,2.2*2F
$IMGSA,A,3,,,,,,,,,,,,,2.6,1.4,2.2*20
$BDGSA,A,3,,,,,,,,,,,,,2.6,1.4,2.2*22
$GPRMC,064526.00,A,3205.024790,N,03448.153494,E,001.7,,170616,,,A*7B
$GPGGA,064527.00,3205.023539,N,03448.155548,E,1,17,1.2,10.3,M,19.2,M,,*5A
$GPGSV,3,1,11,13,69,308,24,28,55,029,39,17,51,132,37,30,35,077,30*70
$GPGSV,3,2,11,15,33,312,34,19,33,167,25,05,20,231,38,20,15,277,27*79
$GPGSV,3,3,11,07,12,093,31,24,06,294,13,11,04,055,*4C
$GLGSV,3,1,09,75,47,353,40,65,45,252,36,85,36,112,34,84,26,052,26*6A
$GLGSV,3,2,09,66,24,319,29,74,24,055,29,72,21,197,32,76,20,290,23*64
$GLGSV,3,3,09,86,10,162,21*55
$BDGSV,2,1,07,205,45,140,25,212,38,147,,202,29,118,,214,29,222,*6D
$BDGSV,2,2,07,208,28,060,,210,22,074,,211,03,189,*68
$GPGSA,A,3,05,07,13,15,17,19,20,28,30,,,,3.1,1.6,2.7*33
$GNGSA,A,3,05,07,13,15,17,19,20,28,30,,,,3.1,1.6,2.7*2D
$GNGSA,A,3,65,66,72,75,76,84,85,86,,,,,3.1,1.6,2.7*26
$QZGSA,A,3,,,,,,,,,,,,,3.1,1.6,2.7*2E
$IMGSA,A,3,,,,,,,,,,,,,3.1,1.6,2.7*21
$BDGSA,A,3,,,,,,,,,,,,,3.1,1.6,2.7*23
$GPRMC,064527.00,A,3205.023539,N,03448.155548,E,001.7,,170616,,,A*7A
$GPGGA,064528.00,3205.023085,N,03448.156106,E,1,17,1.2,10.2,M,19.2,M,,*5B
$GPGSV,3,1,11,13,69,308,24,28,55,029,38,17,51,132,38,30,35,077,29*76
$GPGSV,3,2,11,15,33,312,34,19,33,167,26,05,20,231,37,20,15,277,27*75
$GPGSV,3,3,11,07,12,093,30,24,06,294,12,11,04,055,*4C
$GLGSV,3,1,09,75,47,353,40,65,45,252,36,85,36,112,33,84,26,052,26*6D
$GLGSV,3,2,09,66,24,319,28,74,24,055,29,72,21,197,32,76,20,290,23*65
$GLGSV,3,3,09,86,10,162,21*55
$BDGSV,2,1,07,205,45,140,24,212,38,147,,202,29,118,,214,29,222,*6C
$BDGSV,2,2,07,208,28,060,,210,22,074,,211,03,189,*68
$GPGSA,A,3,05,07,13,15,17,19,20,28,30,,,,3.1,1.6,2.7*33
$GNGSA,A,3,05,07,13,15,17,19,20,28,30,,,,3.1,1.6,2.7*2D
$GNGSA,A,3,65,66,72,75,76,84,85,86,,,,,3.1,1.6,2.7*26
$QZGSA,A,3,,,,,,,,,,,,,3.1,1.6,2.7*2E
$IMGSA,A,3,,,,,,,,,,,,,3.1,1.6,2.7*21
$BDGSA,A,3,,,,,,,,,,,,,3.1,1.6,2.7*23
$GPRMC,064528.00,A,3205.023085,N,03448.156106,E,001.8,,170616,,,A*75
$GPGGA,064529.00,3205.021189,N,03448.157204,E,1,17,1.6,10.0,M,19.2,M,,*53
$GPGSV,3,1,11,13,69,308,25,28,55,029,38,17,51,132,38,30,35,077,29*77
$GPGSV,3,2,11,15,33,312,34,19,33,167,26,05,20,231,36,20,15,277,27*74
$GPGSV,3,3,11,07,12,093,28,24,06,294,12,11,04,055,*45
$GLGSV,3,1,09,75,47,353,39,65,45,252,35,85,36,112,32,84,26,052,26*61
$GLGSV,3,2,09,66,24,319,28,74,24,055,29,72,21,197,32,76,20,290,23*65
$GLGSV,3,3,09,86,10,162,20*54
$BDGSV,2,1,07,205,45,140,24,212,38,147,,202,29,118,,214,29,222,*6C
$BDGSV,2,2,07,208,28,060,,210,22,074,,211,03,189,*68
$GPGSA,A,3,05,07,13,15,17,19,20,28,30,,,,3.1,1.6,2.7*33
$GNGSA,A,3,05,07,13,15,17,19,20,28,30,,,,3.1,1.6,2.7*2D
$GNGSA,A,3,65,66,72,75,76,84,85,86,,,,,3.1,1.6,2.7*26
$QZGSA,A,3,,,,,,,,,,,,,3.1,1.6,2.7*2E
$IMGSA,A,3,,,,,,,,,,,,,3.1,1.6,2.7*21
$BDGSA,A,3,,,,,,,,,,,,,3.1,1.6,2.7*23
$GPRMC,064529.00,A,3205.021189,N,03448.157204,E,001.8,,170616,,,A*7B
$GPGGA,064530.00,3205.020819,N,03448.157608,E,1,17,0.8,9.8,M,19.2,M,,*6D
$GPGSV,3,1,11,13,69,308,26,28,55,029,38,17,51,132,38,30,35,077,28*75
$GPGSV,3,2,11,15,33,312,34,19,33,167,26,05,20,231,35,20,15,277,26*76
$GPGSV,3,3,11,07,12,093,28,24,06,294,12,11,04,055,*45
$GLGSV,3,1,09,75,47,353,39,65,45,252,37,85,36,112,31,84,26,052,26*60
$GLGSV,3,2,09,66,24,319,27,74,24,055,31,72,21,197,31,76,20,290,22*61
$GLGSV,3,3,09,86,10,162,20*54
$BDGSV,2,1,07,205,45,140,24,212,38,147,,202,29,118,,214,29,222,*6C
$BDGSV,2,2,07,208,28,060,,210,22,074,,211,03,189,*68
$GPGSA,A,3,05,07,13,15,17,19,20,28,30,,,,2.8,1.4,2.4*3A
$GNGSA,A,3,05,07,13,15,17,19,20,28,30,,,,2.8,1.4,2.4*24
$GNGSA,A,3,65,66,72,75,76,84,85,86,,,,,2.8,1.4,2.4*2F
$QZGSA,A,3,,,,,,,,,,,,,2.8,1.4,2.4*27
$IMGSA,A,3,,,,,,,,,,,,,2.8,1.4,2.4*28
$BDGSA,A,3,,,,,,,,,,,,,2.8,1.4,2.4*2A
$GPRMC,064530.00,A,3205.020819,N,03448.157608,E,001.2,,170616,,,A*70
$GPGGA,064531.00,3205.020458,N,03448.158066,E,1,17,1.2,9.7,M,19.2,M,,*60
$GPGSV,3,1,11,13,69,308,31,28,55,029,37,17,51,132,37,30,35,077,28*73
$GPGSV,3,2,11,15,33,312,36,19,33,167,26,05,20,231,35,20,15,277,26*74
$GPGSV,3,3,11,07,12,093,27,24,06,294,11,11,04,055,*49
$GLGSV,3,1,09,75,47,353,39,65,45,252,37,85,36,112,31,84,26,052,29*6F
$GLGSV,3,2,09,66,24,319,27,74,24,055,32,72,21,197,31,76,20,290,21*61
$GLGSV,3,3,09,86,10,162,20*54
$BDGSV,2,1,07,205,45,140,29,212,38,147,,202,29,118,,214,29,222,*61
$BDGSV,2,2,07,208,28,060,,210,22,074,,211,03,189,*68
$GPGSA,A,3,05,07,13,15,17,19,20,28,30,,,,2.6,1.4,2.2*32
$GNGSA,A,3,05,07,13,15,17,19,20,28,30,,,,2.6,1.4,2.2*2C
$GNGSA,A,3,65,66,72,75,76,84,85,86,,,,,2.6,1.4,2.2*27
$QZGSA,A,3,,,,,,,,,,,,,2.6,1.4,2.2*2F
$IMGSA,A,3,,,,,,,,,,,,,2.6,1.4,2.2*20
$BDGSA,A,3,,,,,,,,,,,,,2.6,1.4,2.2*22
$GPRMC,064531.00,A,3205.020458,N,03448.158066,E,001.3,,170616,,,A*78
$GPGGA,064532.00,3205.020027,N,03448.158685,E,1,17,1.6,9.6,M,19.2,M,,*61
$GPGSV,3,1,11,13,69,307,31,28,55,029,37,17,51,132,37,30,35,077,28*7C
$GPGSV,3,2,11,15,33,312,35,19,33,167,26,05,20,231,34,20,15,276,26*77
$GPGSV,3,3,11,07,12,093,26,24,06,294,11,11,04,055,*48
$GLGSV,3,1,09,75,47,353,38,65,45,252,37,85,36,112,35,84,26,052,31*63
$GLGSV,3,2,09,66,24,319,26,74,24,055,32,72,21,197,31,76,20,290,21*60
$GLGSV,3,3,09,86,10,162,19*5E
$BDGSV,2,1,07,205,45,140,30,212,38,147,,202,29,118,,214,29,222,*69
$BDGSV,2,2,07,208,28,060,,210,22,074,,211,03,189,*68
$GPGSA,A,3,05,07,13,15,17,19,20,28,30,,,,2.3,1.3,1.9*38
$GNGSA,A,3,05,07,13,15,17,19,20,28,30,,,,2.3,1.3,1.9*26
$GNGSA,A,3,65,66,72,75,76,84,85,86,,,,,2.3,1.3,1.9*2D
$QZGSA,A,3,,,,,,,,,,,,,2.3,1.3,1.9*25
$IMGSA,A,3,,,,,,,,,,,,,2.3,1.3,1.9*2A
$BDGSA,A,3,,,,,,,,,,,,,2.3,1.3,1.9*28
$GPRMC,064532.00,A,3205.020027,N,03448.158685,E,001.7,,170616,,,A*78
$GPGGA,064533.00,3205.020027,N,03448.158689,E,1,17,1.2,9.6,M,19.2,M,,*68
$GPGSV,3,1,11,13,69,307,35,28,55,029,37,17,51,132,37,30,35,077,27*77
$GPGSV,3,2,11,15,33,312,35,19,33,167,26,05,20,231,33,20,15,276,26*70
$GPGSV,3,3,11,07,12,093,26,24,07,294,11,11,04,055,*49
$GLGSV,3,1,09,75,47,353,38,65,45,252,39,85,36,112,35,84,26,052,31*6D
$GLGSV,3,2,09,66,24,319,26,74,24,055,32,72,21,197,31,76,20,290,21*60
$GLGSV,3,3,09,86,10,162,19*5E
$BDGSV,2,1,07,205,45,140,30,212,38,147,,202,29,118,,214,29,222,*69
$BDGSV,2,2,07,208,28,060,,210,22,074,,211,03,189,*68
$GPGSA,A,3,05,07,13,15,17,19,20,28,30,,,,2.8,1.4,2.4*3A
$GNGSA,A,3,05,07,13,15,17,19,20,28,30,,,,2.8,1.4,2.4*24
$GNGSA,A,3,65,66,72,75,76,84,85,86,,,,,2.8,1.4,2.4*2F
$QZGSA,A,3,,,,,,,,,,,,,2.8,1.4,2.4*27
$IMGSA,A,3,,,,,,,,,,,,,2.8,1.4,2.4*28
$BDGSA,A,3,,,,,,,,,,,,,2.8,1.4,2.4*2A
$GPRMC,064533.00,A,3205.020027,N,03448.158689,E,000.0,,170616,,,A*73
$GPGGA,064534.00,3205.020027,N,03448.158689,E,1,17,1.6,9.7,M,19.2,M,,*6A
$GPGSV,3,1,11,13,69,307,37,28,55,029,37,17,51,132,36,30,35,077,27*74
$GPGSV,3,2,11,15,33,312,34,19,33,167,25,05,20,231,32,20,15,276,25*70
$GPGSV,3,3,11,07,12,093,26,24,07,294,11,11,04,055,*49
$GLGSV,3,1,09,75,47,353,38,65,45,252,39,85,36,112,35,84,26,052,31*6D
$GLGSV,3,2,09,66,24,319,25,74,24,055,31,72,21,197,30,76,20,290,20*60
$GLGSV,3,3,09,86,10,162,19*5E
$BDGSV,2,1,07,205,45,140,30,212,38,147,,202,29,118,,214,29,222,*69
$BDGSV,2,2,07,208,28,060,,210,22,074,,211,03,189,*68
$GPGSA,A,3,05,07,13,15,17,19,20,28,30,,,,2.3,1.3,2.0*32
$GNGSA,A,3,05,07,13,15,17,19,20,28,30,,,,2.3,1.3,2.0*2C
$GNGSA,A,3,65,66,72,75,76,84,85,86,,,,,2.3,1.3,2.0*27
$QZGSA,A,3,,,,,,,,,,,,,2.3,1.3,2.0*2F
$IMGSA,A,3,,,,,,,,,,,,,2.3,1.3,2.0*20
$BDGSA,A,3,,,,,,,,,,,,,2.3,1.3,2.0*22
$GPRMC,064534.00,A,3205.020027,N,03448.158689,E,000.0,,170616,,,A*74
$GPGGA,064535.00,3205.020027,N,03448.158689,E,1,17,1.6,9.7,M,19.2,M,,*6B
$GPGSV,3,1,11,13,69,307,38,28,55,029,36,17,51,132,36,30,35,077,27*7A
$GPGSV,3,2,11,15,33,312,34,19,33,167,25,05,20,231,31,20,15,276,25*73
$GPGSV,3,3,11,07,12,093,26,24,07,294,10,11,04,055,*48
$GLGSV,3,1,09,75,47,353,38,65,45,252,39,85,36,112,34,84,26,052,31*6C
$GLGSV,3,2,09,66,24,319,24,74,24,055,31,72,21,197,30,76,20,290,19*6B
$GLGSV,3,3,09,86,10,162,19*5E
$BDGSV,2,1,07,205,45,140,29,212,38,147,,202,29,118,,214,29,222,*61
$BDGSV,2,2,07,208,28,060,,210,22,074,,211,03,189,*68
$GPGSA,A,3,05,07,13,15,17,19,20,28,30,,,,2.5,1.3,2.1*35
$GNGSA,A,3,05,07,13,15,17,19,20,28,30,,,,2.5,1.3,2.1*2B
$GNGSA,A,3,65,66,72,75,76,84,85,86,,,,,2.5,1.3,2.1*20
$QZGSA,A,3,,,,,,,,,,,,,2.5,1.3,2.1*28
$IMGSA,A,3,,,,,,,,,,,,,2.5,1.3,2.1*27
$BDGSA,A,3,,,,,,,,,,,,,2.5,1.3,2.1*25
$GPRMC,064535.00,A,3205.020027,N,03448.158689,E,000.0,,170616,,,A*75
$GPGGA,064536.00,3205.019739,N,03448.159051,E,1,17,1.6,10.2,M,19.2,M,,*55
$GPGSV,3,1,11,13,69,307,38,28,55,029,36,17,51,132,37,30,35,077,26*7A
$GPGSV,3,2,11,15,33,312,37,19,33,167,25,05,20,231,31,20,15,276,25*70
$GPGSV,3,3,11,07,12,093,26,24,07,294,10,11,04,055,*48
$GLGSV,3,1,09,75,47,353,38,65,45,252,38,85,36,112,34,84,26,052,31*6D
$GLGSV,3,2,09,66,24,319,24,74,24,055,31,72,21,197,29,76,20,290,19*63
$GLGSV,3,3,09,86,10,162,19*5E
$BDGSV,2,1,07,205,45,140,29,212,38,147,,202,29,118,,214,29,222,*61
$BDGSV,2,2,07,208,28,060,,210,22,074,,211,03,189,*68
$GPGSA,A,3,05,07,13,15,17,19,20,28,30,,,,2.3,1.2,1.9*39
$GNGSA,A,3,05,07,13,15,17,19,20,28,30,,,,2.3,1.2,1.9*27
$GNGSA,A,3,65,66,72,75,76,84,85,86,,,,,2.3,1.2,1.9*2C
$QZGSA,A,3,,,,,,,,,,,,,2.3,1.2,1.9*24
$IMGSA,A,3,,,,,,,,,,,,,2.3,1.2,1.9*2B
$BDGSA,A,3,,,,,,,,,,,,,2.3,1.2,1.9*29
$GPRMC,064536.00,A,3205.019739,N,03448.159051,E,001.2,,170616,,,A*75
$GPGGA,064537.00,3205.019530,N,03448.159517,E,1,17,1.6,10.8,M,19.2,M,,*52
$GPGSV,3,1,11,13,69,307,37,28,55,029,36,17,51,132,37,30,35,077,26*75
$GPGSV,3,2,11,15,33,312,36,19,33,167,24,05,20,231,30,20,15,276,24*70
$GPGSV,3,3,11,07,12,093,25,24,07,294,10,11,04,055,*4B
$GLGSV,3,1,09,75,47,353,38,65,45,252,38,85,36,112,33,84,26,052,30*6B
$GLGSV,3,2,09,66,24,319,23,74,24,055,31,72,21,197,29,76,20,290,19*64
$GLGSV,3,3,09,86,10,162,20*54
$BDGSV,2,1,07,205,45,140,29,212,38,147,,202,29,118,,214,29,222,*61
$BDGSV,2,2,07,208,28,060,,210,22,074,,211,03,189,*68
$GPGSA,A,3,05,07,13,15,17,19,20,28,30,,,,2.8,1.4,2.4*3A
$GNGSA,A,3,05,07,13,15,17,19,20,28,30,,,,2.8,1.4,2.4*24
$GNGSA,A,3,65,66,72,75,76,84,85,86,,,,,2.8,1.4,2.4*2F
$QZGSA,A,3,,,,,,,,,,,,,2.8,1.4,2.4*27
$IMGSA,A,3,,,,,,,,,,,,,2.8,1.4,2.4*28
$BDGSA,A,3,,,,,,,,,,,,,2.8,1.4,2.4*2A
$GPRMC,064537.00,A,3205.019530,N,03448.159517,E,001.1,,170616,,,A*7B
$GPGGA,064538.00,3205.019251,N,03448.160090,E,1,17,1.6,11.3,M,19.2,M,,*57
$GPGSV,3,1,11,13,69,307,37,28,55,029,35,17,51,132,37,30,35,077,25*75
$GPGSV,3,2,11,15,33,312,36,19,33,167,24,05,20,231,30,20,15,276,26*72
$GPGSV,3,3,11,07,12,093,25,24,07,294,10,11,04,055,*4B
$GLGSV,3,1,09,75,47,353,38,65,45,252,38,85,36,112,33,84,26,052,30*6B
$GLGSV,3,2,09,66,24,319,25,74,24,055,35,72,21,197,29,76,20,290,18*67
$GLGSV,3,3,09,86,10,162,20*54
$BDGSV,2,1,07,205,45,140,29,212,39,147,,202,29,118,,214,29,222,*60
$BDGSV,2,2,07,208,28,060,,210,22,074,,211,03,189,*68
$GPGSA,A,3,05,07,13,15,17,19,20,28,30,,,,2.5,1.4,2.1*32
$GNGSA,A,3,05,07,13,15,17,19,20,28,30,,,,2.5,1.4,2.1*2C
$GNGSA,A,3,65,66,72,75,76,84,85,86,,,,,2.5,1.4,2.1*27
$QZGSA,A,3,,,,,,,,,,,,,2.5,1.4,2.1*2F
$IMGSA,A,3,,,,,,,,,,,,,2.5,1.4,2.1*20
$BDGSA,A,3,,,,,,,,,,,,,2.5,1.4,2.1*22
$GPRMC,064538.00,A,3205.019251,N,03448.160090,E,001.4,,170616,,,A*71
$GPGGA,064539.00,3205.018968,N,03448.160740,E,1,17,1.6,11.9,M,19.2,M,,*56
$GPGSV,3,1,11,13,69,307,36,28,55,029,34,17,51,132,37,30,35,077,25*75
$GPGSV,3,2,11,15,33,312,35,19,33,167,24,05,20,231,29,20,15,276,26*79
$GPGSV,3,3,11,07,12,093,24,24,07,294,10,11,04,055,*4A
$GLGSV,3,1,09,75,47,353,39,65,45,252,38,85,36,112,32,84,26,052,29*63
$GLGSV,3,2,09,66,24,319,28,74,24,055,36,72,21,197,28,76,20,290,18*68
$GLGSV,3,3,09,86,10,162,20*54
$BDGSV,2,1,07,205,45,140,29,212,39,147,,202,29,118,,214,29,222,*60
$BDGSV,2,2,07,208,28,060,,210,22,074,,211,03,189,*68
$GPGSA,A,3,05,07,13,15,17,19,20,28,30,,,,1.8,1.0,1.5*3F
$GNGSA,A,3,05,07,13,15,17,19,20,28,30,,,,1.8,1.0,1.5*21
$GNGSA,A,3,65,66,72,75,76,84,85,86,,,,,1.8,1.0,1.5*2A
$QZGSA,A,3,,,,,,,,,,,,,1.8,1.0,1.5*22
$IMGSA,A,3,,,,,,,,,,,,,1.8,1.0,1.5*2D
$BDGSA,A,3,,,,,,,,,,,,,1.8,1.0,1.5*2F
$GPRMC,064539.00,A,3205.018968,N,03448.160740,E,000.9,,170616,,,A*76
$GPGGA,064540.00,3205.018817,N,03448.161433,E,1,17,2.4,12.4,M,19.2,M,,*58
$GPGSV,3,1,11,13,69,307,35,28,55,029,33,17,51,132,37,30,35,077,24*70
$GPGSV,3,2,11,15,33,312,34,19,33,167,24,05,20,231,29,20,15,276,26*78
$GPGSV,3,3,11,07,12,093,24,24,07,294,10,11,04,055,*4A
$GLGSV,3,1,09,75,47,353,39,65,45,252,38,85,36,112,31,84,26,052,29*60
$GLGSV,3,2,09,66,24,319,28,74,24,055,36,72,21,197,28,76,20,290,18*68
$GLGSV,3,3,09,86,10,162,20*54
$BDGSV,2,1,07,205,45,140,28,212,39,147,,202,29,118,,214,29,222,*61
$BDGSV,2,2,07,208,28,060,,210,22,074,,211,03,189,*68
$GPGSA,A,3,05,07,13,15,17,19,20,28,30,,,,1.8,1.0,1.5*3F
$GNGSA,A,3,05,07,13,15,17,19,20,28,30,,,,1.8,1.0,1.5*21
$GNGSA,A,3,65,66,72,75,76,84,85,86,,,,,1.8,1.0,1.5*2A
$QZGSA,A,3,,,,,,,,,,,,,1.8,1.0,1.5*22
$IMGSA,A,3,,,,,,,,,,,,,1.8,1.0,1.5*2D
$BDGSA,A,3,,,,,,,,,,,,,1.8,1.0,1.5*2F
$GPRMC,064540.00,A,3205.018817,N,03448.161433,E,001.3,,170616,,,A*7C
$GPGGA,064541.00,3205.018840,N,03448.162066,E,1,17,2.4,12.9,M,19.2,M,,*51
$GPGSV,3,1,11,13,69,307,35,28,55,029,32,17,51,132,37,30,35,077,24*71
$GPGSV,3,2,11,15,33,312,33,19,33,167,23,05,20,231,29,20,15,276,28*76
$GPGSV,3,3,11,07,12,093,24,24,07,294,10,11,04,055,*4A
$GLGSV,3,1,09,75,47,353,39,65,45,252,38,85,36,112,30,84,26,052,29*61
$GLGSV,3,2,09,66,24,319,28,74,24,055,35,72,21,197,28,76,20,290,17*64
$GLGSV,3,3,09,86,10,162,19*5E
$BDGSV,2,1,07,205,45,140,27,212,39,147,,202,29,118,,214,29,222,*6E
$BDGSV,2,2,07,208,28,060,,210,22,074,,211,03,189,*68
$GPGSA,A,3,05,07,13,15,17,19,20,28,30,,,,2.2,1.2,1.8*39
$GNGSA,A,3,05,07,13,15,17,19,20,28,30,,,,2.2,1.2,1.8*27
$GNGSA,A,3,65,66,72,75,76,84,85,86,,,,,2.2,1.2,1.8*2C
$QZGSA,A,3,,,,,,,,,,,,,2.2,1.2,1.8*24
$IMGSA,A,3,,,,,,,,,,,,,2.2,1.2,1.8*2B
$BDGSA,A,3,,,,,,,,,,,,,2.2,1.2,1.8*29
$GPRMC,064541.00,A,3205.018840,N,03448.162066,E,001.5,,170616,,,A*7E
$GPGGA,064542.00,3205.020051,N,03448.162482,E,1,17,2.4,13.5,M,19.2,M,,*52
$GPGSV,3,1,11,13,69,307,34,28,55,029,31,17,51,132,36,30,35,077,24*72
$GPGSV,3,2,11,15,33,312,33,19,33,167,23,05,20,231,29,20,15,276,28*76
$GPGSV,3,3,11,07,12,093,24,24,07,294,09,11,04,055,*42
$GLGSV,3,1,09,75,47,353,39,65,45,252,38,85,36,112,30,84,26,052,28*60
$GLGSV,3,2,09,66,24,319,30,74,24,055,35,72,21,197,27,76,20,290,19*6C
$GLGSV,3,3,09,86,10,162,19*5E
$BDGSV,2,1,07,205,45,140,27,212,39,147,,202,29,118,,214,29,222,*6E
$BDGSV,2,2,07,208,28,060,,210,22,074,,211,03,189,*68
$GPGSA,A,3,05,07,13,15,17,19,20,28,30,,,,1.9,1.1,1.5*3F
$GNGSA,A,3,05,07,13,15,17,19,20,28,30,,,,1.9,1.1,1.5*21
$GNGSA,A,3,65,66,72,75,76,84,85,86,,,,,1.9,1.1,1.5*2A
$QZGSA,A,3,,,,,,,,,,,,,1.9,1.1,1.5*22
$IMGSA,A,3,,,,,,,,,,,,,1.9,1.1,1.5*2D
$BDGSA,A,3,,,,,,,,,,,,,1.9,1.1,1.5*2F
$GPRMC,064542.00,A,3205.020051,N,03448.162482,E,001.7,,170616,,,A*72
$GPGGA,064543.00,3205.021216,N,03448.162928,E,1,17,2.4,14.0,M,19.2,M,,*5C
$GPGSV,3,1,11,13,70,307,33,28,55,029,30,17,51,132,36,30,35,077,25*7D
$GPGSV,3,2,11,15,33,312,32,19,33,167,23,05,20,231,31,20,15,276,28*7E
$GPGSV,3,3,11,07,12,093,23,24,07,294,09,11,04,055,*45
$GLGSV,3,1,09,75,47,353,39,65,45,252,37,85,36,112,29,84,26,052,32*6C
$GLGSV,3,2,09,66,24,318,31,74,24,055,34,72,21,197,30,76,20,290,19*6B
$GLGSV,3,3,09,86,10,162,19*5E
$BDGSV,2,1,07,205,45,140,27,212,39,147,,202,29,118,,214,29,222,*6E
$BDGSV,2,2,07,208,28,060,,210,22,074,,211,03,189,*68
$GPGSA,A,3,05,07,13,15,17,19,20,28,30,,,,1.9,1.1,1.5*3F
$GNGSA,A,3,05,07,13,15,17,19,20,28,30,,,,1.9,1.1,1.5*21
$GNGSA,A,3,65,66,72,75,76,84,85,86,,,,,1.9,1.1,1.5*2A
$QZGSA,A,3,,,,,,,,,,,,,1.9,1.1,1.5*22
$IMGSA,A,3,,,,,,,,,,,,,1.9,1.1,1.5*2D
$BDGSA,A,3,,,,,,,,,,,,,1.9,1.1,1.5*2F
$GPRMC,064543.00,A,3205.021216,N,03448.162928,E,001.8,,170616,,,A*71
$GPGGA,064544.00,3205.023673,N,03448.163567,E,1,17,2.4,14.6,M,19.2,M,,*5E
$GPGSV,3,1,11,13,70,307,33,28,55,029,29,17,51,132,36,30,35,077,27*77
$GPGSV,3,2,11,15,33,312,32,19,33,167,23,05,20,231,35,20,15,276,33*70
$GPGSV,3,3,11,07,12,093,23,24,07,294,09,11,04,055,*45
$GLGSV,3,1,09,75,47,353,39,65,45,252,37,85,36,112,29,84,26,052,37*69
$GLGSV,3,2,09,66,24,318,33,74,24,055,33,72,21,197,30,76,20,290,24*60
$GLGSV,3,3,09,86,10,162,19*5E
$BDGSV,2,1,07,205,45,140,26,212,39,147,,202,29,118,,214,29,222,*6F
$BDGSV,2,2,07,208,28,060,,210,22,074,,211,03,189,*68
