$GPGGA,064916.10,,,,,0,00,999.9,,M,,M,,*6B
$GPGSV,3,1,11,13,71,304,,28,54,030,,17,53,129,,15,35,311,*7B
$GPGSV,3,2,11,19,35,166,,30,34,079,,05,19,229,,20,15,275,*7F
$GPGSV,3,3,11,07,11,094,,24,08,295,,11,04,053,*41
$GLGSV,3,1,09,75,47,356,,65,44,249,,85,37,110,,66,25,317,*68
$GLGSV,3,2,09,84,25,050,,74,23,057,,76,21,292,,72,19,196,*6B
$GLGSV,3,3,09,86,12,162,*54
$BDGSV,2,1,07,205,45,140,,212,40,146,,202,29,118,,208,28,059,*66
$BDGSV,2,2,07,214,28,221,,210,22,075,,211,04,189,*64
$GPGSA,A,1,,,,,,,,,,,,,140.0,99.0,99.0*35
$GNGSA,A,1,,,,,,,,,,,,,140.0,99.0,99.0*2B
$GNGSA,A,1,,,,,,,,,,,,,140.0,99.0,99.0*2B
$QZGSA,A,1,,,,,,,,,,,,,140.0,99.0,99.0*29
$IMGSA,A,1,,,,,,,,,,,,,140.0,99.0,99.0*26
$BDGSA,A,1,,,,,,,,,,,,,140.0,99.0,99.0*24
$GPRMC,064916.10,V,,,,,,,170616,,,N*77
$GPGGA,064916.89,,,,,0,00,999.9,,M,,M,,*6B
$GPGSV,3,1,11,17,53,129,30,13,71,304,,28,54,030,,19,35,166,*76
$GPGSV,3,2,11,15,35,311,,30,34,079,,05,19,229,,20,15,275,*71
$GPGSV,3,3,11,07,11,094,,24,08,295,,11,04,053,*41
$GLGSV,3,1,09,75,47,356,,65,44,249,,85,37,110,,66,25,317,*68
$GLGSV,3,2,09,84,25,050,,74,23,057,,76,21,292,,72,19,196,*6B
$GLGSV,3,3,09,86,12,162,*54
$BDGSV,2,1,07,205,45,140,,212,40,146,,202,29,118,,208,28,059,*66
$BDGSV,2,2,07,214,28,221,,210,22,075,,211,04,189,*64
$GPGSA,A,1,,,,,,,,,,,,,140.0,99.0,99.0*35
$GNGSA,A,1,,,,,,,,,,,,,140.0,99.0,99.0*2B
$GNGSA,A,1,,,,,,,,,,,,,140.0,99.0,99.0*2B
$QZGSA,A,1,,,,,,,,,,,,,140.0,99.0,99.0*29
$IMGSA,A,1,,,,,,,,,,,,,140.0,99.0,99.0*26
$BDGSA,A,1,,,,,,,,,,,,,140.0,99.0,99.0*24
$GPRMC,064916.89,V,,,,,,,170616,,,N*77
$GPGGA,064917.11,,,,,0,00,999.9,,M,,M,,*6B
$GPGSV,3,1,11,17,53,129,30,13,71,304,,28,54,030,,15,35,311,*78
$GPGSV,3,2,11,19,35,166,,30,34,079,,05,19,229,,20,15,275,*7F
$GPGSV,3,3,11,07,11,094,,24,08,295,,11,04,053,*41
$GLGSV,3,1,09,65,44,249,36,75,47,356,,85,37,110,,66,25,317,*6D
$GLGSV,3,2,09,84,25,050,,74,23,057,,76,21,292,,72,19,196,*6B
$GLGSV,3,3,09,86,12,162,*54
$BDGSV,2,1,07,205,45,140,,212,40,146,,202,29,118,,208,28,059,*66
$BDGSV,2,2,07,214,28,221,,210,22,075,,211,04,189,*64
$GPGSA,A,1,,,,,,,,,,,,,140.0,99.0,99.0*35
$GNGSA,A,1,,,,,,,,,,,,,140.0,99.0,99.0*2B
$GNGSA,A,1,,,,,,,,,,,,,140.0,99.0,99.0*2B
$QZGSA,A,1,,,,,,,,,,,,,140.0,99.0,99.0*29
$IMGSA,A,1,,,,,,,,,,,,,140.0,99.0,99.0*26
$BDGSA,A,1,,,,,,,,,,,,,140.0,99.0,99.0*24
$GPRMC,064917.11,V,,,,,,,170616,,,N*77
$GPGGA,064918.11,,,,,0,00,999.9,,M,,M,,*64
$GPGSV,3,1,11,17,53,129,31,30,34,079,32,13,71,304,,28,54,030,*73
$GPGSV,3,2,11,15,35,311,,19,35,166,,05,19,229,,20,15,275,*74
$GPGSV,3,3,11,07,11,094,,24,08,295,,11,04,053,*41
$GLGSV,3,1,09,65,44,249,37,66,25,317,32,75,47,356,,85,37,110,*6D
$GLGSV,3,2,09,84,25,050,,74,23,057,,76,21,292,,72,19,196,*6B
$GLGSV,3,3,09,86,12,162,*54
$BDGSV,2,1,07,205,45,140,,212,40,146,,202,29,118,,208,28,059,*66
$BDGSV,2,2,07,214,28,221,,210,22,075,,211,04,189,*64
$GPGSA,A,1,,,,,,,,,,,,,140.0,99.0,99.0*35
$GNGSA,A,1,,,,,,,,,,,,,140.0,99.0,99.0*2B
$GNGSA,A,1,,,,,,,,,,,,,140.0,99.0,99.0*2B
$QZGSA,A,1,,,,,,,,,,,,,140.0,99.0,99.0*29
$IMGSA,A,1,,,,,,,,,,,,,140.0,99.0,99.0*26
$BDGSA,A,1,,,,,,,,,,,,,140.0,99.0,99.0*24
$GPRMC,064918.11,V,,,,,,,170616,,,N*78
$GPGGA,064919.08,3205.023167,N,03448.156431,E,1,09,1.6,88.8,M,19.2,M,,*51
$GPGSV,3,1,11,13,71,304,26,28,54,030,29,17,53,129,35,19,35,166,30*7F
$GPGSV,3,2,11,15,35,311,23,30,34,079,32,20,15,275,25,05,19,229,*76
$GPGSV,3,3,11,07,11,094,,24,08,295,,11,04,053,*41
$GLGSV,3,1,09,65,44,249,43,66,25,317,32,74,23,057,29,75,47,356,*6C
$GLGSV,3,2,09,85,37,110,,84,25,050,,76,21,292,,72,19,196,*62
$GLGSV,3,3,09,86,12,162,*54
$BDGSV,2,1,07,212,40,146,30,205,45,140,,202,29,118,,214,28,221,*65
$BDGSV,2,2,07,208,28,059,,210,22,075,,211,04,189,*64
$GPGSA,A,3,13,15,17,19,20,28,30,,,,,,2.1,1.0,1.9*3B
$GNGSA,A,3,13,15,17,19,20,28,30,,,,,,2.1,1.0,1.9*25
$GNGSA,A,3,65,66,,,,,,,,,,,2.1,1.0,1.9*25
$QZGSA,A,3,,,,,,,,,,,,,2.1,1.0,1.9*24
$IMGSA,A,3,,,,,,,,,,,,,2.1,1.0,1.9*2B
$BDGSA,A,3,,,,,,,,,,,,,2.1,1.0,1.9*29
$GPRMC,064919.08,A,3205.023167,N,03448.156431,E,000.6,265.7,170616,,,A*58
$GPGGA,064920.05,3205.023391,N,03448.156272,E,1,10,3.2,86.1,M,19.2,M,,*55
$GPGSV,3,1,11,13,71,304,27,28,54,030,29,17,53,129,38,19,35,166,30*73
$GPGSV,3,2,11,15,35,311,25,30,34,079,32,20,15,275,26,05,19,229,*73
$GPGSV,3,3,11,07,11,094,,24,08,295,,11,04,053,*41
$GLGSV,3,1,09,75,47,356,29,65,44,249,42,66,25,317,31,74,23,057,28*64
$GLGSV,3,2,09,85,37,110,,84,25,050,,76,21,292,,72,19,196,*62
$GLGSV,3,3,09,86,12,162,*54
$BDGSV,2,1,07,205,45,140,26,212,40,146,32,202,29,118,,214,28,221,*63
$BDGSV,2,2,07,208,28,059,,210,22,075,,211,04,189,*64
$GPGSA,A,3,13,15,17,19,20,28,30,,,,,,2.2,1.1,1.9*39
$GNGSA,A,3,13,15,17,19,20,28,30,,,,,,2.2,1.1,1.9*27
$GNGSA,A,3,65,66,75,,,,,,,,,,2.2,1.1,1.9*25
$QZGSA,A,3,,,,,,,,,,,,,2.2,1.1,1.9*26
$IMGSA,A,3,,,,,,,,,,,,,2.2,1.1,1.9*29
$BDGSA,A,3,,,,,,,,,,,,,2.2,1.1,1.9*2B
$GPRMC,064920.05,A,3205.023391,N,03448.156272,E,,,170616,,,A*55
$GPGGA,064921.05,3205.023988,N,03448.156300,E,1,12,3.2,78.0,M,19.2,M,,*50
$GPGSV,3,1,11,13,71,304,28,28,54,030,29,17,53,129,40,15,35,311,30*7D
$GPGSV,3,2,11,19,35,166,32,30,34,079,31,05,19,229,18,20,15,275,27*70
$GPGSV,3,3,11,07,11,094,19,24,08,295,,11,04,053,*49
$GLGSV,3,1,09,75,47,356,33,65,44,249,42,66,25,317,31,74,23,057,28*6F
$GLGSV,3,2,09,85,37,110,,84,25,050,,76,21,292,,72,19,196,*62
$GLGSV,3,3,09,86,12,162,*54
$BDGSV,2,1,07,205,45,140,30,212,40,146,32,202,29,118,,208,28,059,*64
$BDGSV,2,2,07,214,28,221,,210,22,075,,211,04,189,*64
$GPGSA,A,3,05,07,13,15,17,19,20,28,30,,,,2.2,1.1,1.9*3B
$GNGSA,A,3,05,07,13,15,17,19,20,28,30,,,,2.2,1.1,1.9*25
$GNGSA,A,3,65,66,75,,,,,,,,,,2.2,1.1,1.9*25
$QZGSA,A,3,,,,,,,,,,,,,2.2,1.1,1.9*26
$IMGSA,A,3,,,,,,,,,,,,,2.2,1.1,1.9*29
$BDGSA,A,3,,,,,,,,,,,,,2.2,1.1,1.9*2B
$GPRMC,064921.05,A,3205.023988,N,03448.156300,E,000.0,,170616,,,A*7C
$GPGGA,064922.10,3205.024004,N,03448.154096,E,1,12,3.2,62.5,M,19.2,M,,*5D
$GPGSV,3,1,11,13,71,304,28,28,54,030,28,17,53,129,40,15,35,311,32*7E
$GPGSV,3,2,11,19,35,166,32,30,34,079,31,05,19,229,20,20,15,275,28*74
$GPGSV,3,3,11,07,11,094,25,24,08,295,,11,04,053,*46
$GLGSV,3,1,09,75,47,356,33,65,44,249,42,66,25,317,31,74,23,057,27*60
$GLGSV,3,2,09,85,37,110,,84,25,050,,76,21,292,,72,19,196,*62
$GLGSV,3,3,09,86,12,162,*54
$BDGSV,2,1,07,205,45,140,31,212,40,146,32,202,29,118,,208,28,059,*65
$BDGSV,2,2,07,214,28,221,,210,22,075,,211,04,189,*64
$GPGSA,A,3,05,07,13,15,17,19,20,28,30,,,,2.1,1.0,1.8*38
$GNGSA,A,3,05,07,13,15,17,19,20,28,30,,,,2.1,1.0,1.8*26
$GNGSA,A,3,65,66,75,,,,,,,,,,2.1,1.0,1.8*26
$QZGSA,A,3,,,,,,,,,,,,,2.1,1.0,1.8*25
$IMGSA,A,3,,,,,,,,,,,,,2.1,1.0,1.8*2A
$BDGSA,A,3,,,,,,,,,,,,,2.1,1.0,1.8*28
$GPRMC,064922.10,A,3205.024004,N,03448.154096,E,000.0,,170616,,,A*7F
$GPGGA,064923.10,3205.024001,N,03448.154080,E,1,13,3.2,53.2,M,19.2,M,,*5A
$GPGSV,3,1,11,13,71,304,28,28,54,030,28,17,53,129,40,19,35,166,32*70
$GPGSV,3,2,11,15,35,311,33,30,34,079,30,05,19,229,20,20,15,275,27*75
$GPGSV,3,3,11,07,11,094,25,24,08,295,,11,04,053,*46
$GLGSV,3,1,09,75,47,356,35,65,44,249,41,84,25,050,18,66,25,317,30*66
$GLGSV,3,2,09,74,23,057,27,85,37,110,,76,21,292,,72,19,196,*69
$GLGSV,3,3,09,86,12,162,*54
$BDGSV,2,1,07,205,45,140,31,212,40,146,32,202,29,118,,208,28,059,*65
$BDGSV,2,2,07,214,27,221,,210,22,075,,211,04,189,*6B
$GPGSA,A,3,05,07,13,15,17,19,20,28,30,,,,2.1,1.0,1.8*38
$GNGSA,A,3,05,07,13,15,17,19,20,28,30,,,,2.1,1.0,1.8*26
$GNGSA,A,3,65,66,75,84,,,,,,,,,2.1,1.0,1.8*2A
$QZGSA,A,3,,,,,,,,,,,,,2.1,1.0,1.8*25
$IMGSA,A,3,,,,,,,,,,,,,2.1,1.0,1.8*2A
$BDGSA,A,3,,,,,,,,,,,,,2.1,1.0,1.8*28
$GPRMC,064923.10,A,3205.024001,N,03448.154080,E,000.0,,170616,,,A*7C
$GPGGA,064924.00,3205.024001,N,03448.154079,E,1,14,4.8,46.2,M,19.2,M,,*54
$GPGSV,3,1,11,13,71,304,28,28,54,030,28,17,53,129,41,15,35,311,33*7E
$GPGSV,3,2,11,19,35,166,33,30,34,079,30,05,19,229,19,20,15,275,28*7E
$GPGSV,3,3,11,07,11,094,25,24,08,295,15,11,04,053,*42
$GLGSV,3,1,09,75,47,356,36,65,44,249,41,84,25,050,18,66,25,317,29*6D
$GLGSV,3,2,09,74,23,057,27,85,37,110,,76,21,292,,72,19,196,*69
$GLGSV,3,3,09,86,12,162,*54
$BDGSV,2,1,07,205,45,140,32,212,40,146,32,202,29,118,,208,28,059,*66
$BDGSV,2,2,07,214,27,221,,210,22,075,,211,04,189,*6B
$GPGSA,A,3,05,07,13,15,17,19,20,24,28,30,,,2.1,1.0,1.8*3E
$GNGSA,A,3,05,07,13,15,17,19,20,24,28,30,,,2.1,1.0,1.8*20
$GNGSA,A,3,65,66,75,84,,,,,,,,,2.1,1.0,1.8*2A
$QZGSA,A,3,,,,,,,,,,,,,2.1,1.0,1.8*25
$IMGSA,A,3,,,,,,,,,,,,,2.1,1.0,1.8*2A
$BDGSA,A,3,,,,,,,,,,,,,2.1,1.0,1.8*28
$GPRMC,064924.00,A,3205.024001,N,03448.154079,E,000.0,,170616,,,A*7C
$GPGGA,064925.00,3205.024001,N,03448.154079,E,1,13,3.2,37.0,M,19.2,M,,*5B
$GPGSV,3,1,11,13,71,304,28,28,54,030,28,17,53,129,40,15,35,311,33*7F
$GPGSV,3,2,11,19,35,166,34,30,34,079,29,05,19,229,18,20,15,275,28*70
$GPGSV,3,3,11,07,11,094,24,24,08,295,15,11,04,053,*43
$GLGSV,3,1,09,75,47,356,36,65,44,249,41,84,25,050,17,66,25,317,29*62
$GLGSV,3,2,09,74,23,057,27,85,37,110,,76,21,292,,72,19,196,*69
$GLGSV,3,3,09,86,12,162,*54
$BDGSV,2,1,07,205,45,140,32,212,40,146,32,202,29,118,,208,28,059,*66
$BDGSV,2,2,07,214,27,221,,210,22,075,,211,04,189,*6B
$GPGSA,A,3,07,13,15,17,19,20,24,28,30,,,,1.9,1.0,1.6*3E
$GNGSA,A,3,07,13,15,17,19,20,24,28,30,,,,1.9,1.0,1.6*20
$GNGSA,A,3,65,66,75,84,,,,,,,,,1.9,1.0,1.6*2F
$QZGSA,A,3,,,,,,,,,,,,,1.9,1.0,1.6*20
$IMGSA,A,3,,,,,,,,,,,,,1.9,1.0,1.6*2F
$BDGSA,A,3,,,,,,,,,,,,,1.9,1.0,1.6*2D
$GPRMC,064925.00,A,3205.024001,N,03448.154079,E,000.0,,170616,,,A*7D
$GPGGA,064926.00,3205.024001,N,03448.154079,E,1,13,3.2,32.1,M,19.2,M,,*5C
$GPGSV,3,1,11,13,71,304,27,28,54,030,28,17,53,129,40,19,35,166,33*7E
$GPGSV,3,2,11,15,35,311,33,30,34,079,29,05,19,229,18,20,15,275,28*79
$GPGSV,3,3,11,07,11,094,24,24,08,295,14,11,04,053,*42
$GLGSV,3,1,09,75,47,356,36,65,44,249,40,85,37,110,15,84,25,050,17*67
$GLGSV,3,2,09,66,25,317,28,74,23,057,27,76,21,292,,72,19,196,*68
$GLGSV,3,3,09,86,12,162,*54
$BDGSV,2,1,07,205,45,140,31,212,40,146,31,202,29,118,,208,28,059,*66
$BDGSV,2,2,07,214,27,221,,210,22,075,,211,04,189,*6B
$GPGSA,A,3,07,13,15,17,19,20,28,30,,,,,2.8,1.4,2.4*3F
$GNGSA,A,3,07,13,15,17,19,20,28,30,,,,,2.8,1.4,2.4*21
$GNGSA,A,3,65,66,75,84,85,,,,,,,,2.8,1.4,2.4*25
$QZGSA,A,3,,,,,,,,,,,,,2.8,1.4,2.4*27
$IMGSA,A,3,,,,,,,,,,,,,2.8,1.4,2.4*28
$BDGSA,A,3,,,,,,,,,,,,,2.8,1.4,2.4*2A
$GPRMC,064926.00,A,3205.024001,N,03448.154079,E,000.0,,170616,,,A*7E
$GPGGA,064927.00,3205.025393,N,03448.149739,E,1,14,1.6,30.4,M,19.2,M,,*5D
$GPGSV,3,1,11,13,71,304,27,28,54,030,27,17,53,129,39,19,35,166,33*7F
$GPGSV,3,2,11,15,35,311,32,30,34,079,28,05,19,229,17,20,15,275,27*79
$GPGSV,3,3,11,07,11,094,22,24,08,295,14,11,04,053,*44
$GLGSV,3,1,09,75,47,356,36,65,44,249,39,85,37,110,15,84,25,050,17*69
$GLGSV,3,2,09,66,25,317,27,74,23,057,26,86,12,162,16,76,21,292,*6A
$GLGSV,3,3,09,72,19,196,*5F
$BDGSV,2,1,07,205,45,140,31,212,40,146,31,202,29,118,,208,28,059,*66
$BDGSV,2,2,07,214,27,221,,210,22,075,,211,04,189,*6B
$GPGSA,A,3,07,13,15,17,19,20,28,30,,,,,2.1,1.0,1.8*3D
$GNGSA,A,3,07,13,15,17,19,20,28,30,,,,,2.1,1.0,1.8*23
$GNGSA,A,3,65,66,75,84,85,86,,,,,,,2.1,1.0,1.8*29
$QZGSA,A,3,,,,,,,,,,,,,2.1,1.0,1.8*25
$IMGSA,A,3,,,,,,,,,,,,,2.1,1.0,1.8*2A
$BDGSA,A,3,,,,,,,,,,,,,2.1,1.0,1.8*28
$GPRMC,064927.00,A,3205.025393,N,03448.149739,E,000.0,,170616,,,A*79
$GPGGA,064928.00,3205.026814,N,03448.148512,E,1,17,1.6,29.1,M,19.2,M,,*51
$GPGSV,3,1,11,13,71,304,27,28,54,030,27,17,53,129,39,15,35,311,31*73
$GPGSV,3,2,11,19,35,166,33,30,34,079,27,05,19,229,17,20,15,275,32*7D
$GPGSV,3,3,11,07,11,094,22,24,08,295,14,11,04,053,*44
$GLGSV,3,1,09,75,47,356,35,65,44,249,39,85,37,110,15,84,25,050,24*6A
$GLGSV,3,2,09,66,25,317,28,74,23,057,26,72,19,196,25,86,12,162,26*69
$GLGSV,3,3,09,76,21,292,*57
$BDGSV,2,1,07,205,45,140,31,212,40,146,30,202,29,118,,208,28,059,*67
$BDGSV,2,2,07,214,27,221,,210,22,075,,211,04,189,*6B
$GPGSA,A,3,05,07,13,15,17,19,20,24,28,30,,,2.5,1.1,2.3*33
$GNGSA,A,3,05,07,13,15,17,19,20,24,28,30,,,2.5,1.1,2.3*2D
$GNGSA,A,3,65,66,72,75,84,85,86,,,,,,2.5,1.1,2.3*21
$QZGSA,A,3,,,,,,,,,,,,,2.5,1.1,2.3*28
$IMGSA,A,3,,,,,,,,,,,,,2.5,1.1,2.3*27
$BDGSA,A,3,,,,,,,,,,,,,2.5,1.1,2.3*25
$GPRMC,064928.00,A,3205.026814,N,03448.148512,E,000.0,,170616,,,A*7B
$GPGGA,064929.00,3205.025697,N,03448.148838,E,1,17,1.6,30.0,M,19.2,M,,*5A
$GPGSV,3,1,11,13,71,304,28,28,54,030,28,17,53,129,39,15,35,311,31*73
$GPGSV,3,2,11,19,35,166,33,30,34,079,27,05,19,229,22,20,15,275,32*7B
$GPGSV,3,3,11,07,11,094,22,24,08,295,14,11,04,053,*44
$GLGSV,3,1,09,75,47,356,35,65,44,249,39,85,37,110,18,84,25,050,24*67
$GLGSV,3,2,09,66,25,317,28,74,23,057,26,72,19,196,25,86,12,162,29*66
$GLGSV,3,3,09,76,21,292,*57
$BDGSV,2,1,07,205,45,140,31,212,40,146,36,202,29,118,,208,28,059,*61
$BDGSV,2,2,07,214,27,221,,210,22,075,,211,04,189,*6B
$GPGSA,A,3,05,07,13,15,17,19,20,24,28,30,,,1.8,1.0,1.5*39
$GNGSA,A,3,05,07,13,15,17,19,20,24,28,30,,,1.8,1.0,1.5*27
$GNGSA,A,3,65,66,72,75,84,85,86,,,,,,1.8,1.0,1.5*2B
$QZGSA,A,3,,,,,,,,,,,,,1.8,1.0,1.5*22
$IMGSA,A,3,,,,,,,,,,,,,1.8,1.0,1.5*2D
$BDGSA,A,3,,,,,,,,,,,,,1.8,1.0,1.5*2F
$GPRMC,064929.00,A,3205.025697,N,03448.148838,E,000.0,,170616,,,A*79
$GPGGA,064930.00,3205.023935,N,03448.149678,E,1,17,1.6,32.2,M,19.2,M,,*58
$GPGSV,3,1,11,13,71,304,31,28,54,030,32,17,53,129,39,15,35,311,31*70
$GPGSV,3,2,11,19,35,166,32,30,34,079,27,05,19,229,23,20,15,275,34*7D
$GPGSV,3,3,11,07,11,094,21,24,08,295,15,11,04,053,*46
$GLGSV,3,1,09,75,47,356,35,65,44,249,38,85,37,110,18,84,25,050,24*66
$GLGSV,3,2,09,66,25,317,28,74,23,057,25,72,19,196,26,86,12,162,29*66
$GLGSV,3,3,09,76,21,292,*57
$BDGSV,2,1,07,205,45,140,31,212,40,146,36,202,29,118,,208,28,059,*61
$BDGSV,2,2,07,214,27,221,,210,22,075,,211,04,189,*6B
$GPGSA,A,3,05,07,13,15,17,19,20,24,28,30,,,2.0,1.2,1.6*33
$GNGSA,A,3,05,07,13,15,17,19,20,24,28,30,,,2.0,1.2,1.6*2D
$GNGSA,A,3,65,66,72,75,84,85,86,,,,,,2.0,1.2,1.6*21
$QZGSA,A,3,,,,,,,,,,,,,2.0,1.2,1.6*28
$IMGSA,A,3,,,,,,,,,,,,,2.0,1.2,1.6*27
$BDGSA,A,3,,,,,,,,,,,,,2.0,1.2,1.6*25
$GPRMC,064930.00,A,3205.023935,N,03448.149678,E,000.0,,170616,,,A*7B
$GPGGA,064931.00,3205.023174,N,03448.149067,E,1,17,1.2,33.9,M,19.2,M,,*52
$GPGSV,3,1,11,13,71,304,31,28,54,030,34,17,53,129,38,15,35,311,31*77
$GPGSV,3,2,11,19,35,166,32,30,34,079,27,05,19,229,22,20,15,275,34*7C
$GPGSV,3,3,11,07,11,094,21,24,08,295,18,11,04,053,*4B
$GLGSV,3,1,09,75,47,356,35,65,44,249,38,85,37,110,22,84,25,050,24*6F
$GLGSV,3,2,09,66,25,317,29,74,23,057,25,72,19,196,25,86,12,162,28*65
$GLGSV,3,3,09,76,21,292,*57
$BDGSV,2,1,07,205,45,140,30,212,40,146,36,202,29,118,,208,28,059,*60
$BDGSV,2,2,07,214,27,221,,210,22,075,,211,04,189,*6B
$GPGSA,A,3,05,07,13,15,17,19,20,24,28,30,,,2.1,1.2,1.8*3C
$GNGSA,A,3,05,07,13,15,17,19,20,24,28,30,,,2.1,1.2,1.8*22
$GNGSA,A,3,65,66,72,75,84,85,86,,,,,,2.1,1.2,1.8*2E
$QZGSA,A,3,,,,,,,,,,,,,2.1,1.2,1.8*27
$IMGSA,A,3,,,,,,,,,,,,,2.1,1.2,1.8*28
$BDGSA,A,3,,,,,,,,,,,,,2.1,1.2,1.8*2A
$GPRMC,064931.00,A,3205.023174,N,03448.149067,E,000.0,,170616,,,A*7F
$GPGGA,064932.00,3205.021764,N,03448.149162,E,1,17,1.2,35.1,M,19.2,M,,*5E
$GPGSV,3,1,11,13,71,304,31,28,54,030,38,17,53,129,38,15,35,311,31*7B
$GPGSV,3,2,11,19,35,166,31,30,34,079,26,05,19,229,26,20,15,275,36*78
$GPGSV,3,3,11,07,11,094,21,24,08,295,18,11,04,053,*4B
$GLGSV,3,1,09,75,47,356,35,65,44,249,38,85,37,110,24,84,25,050,24*69
$GLGSV,3,2,09,66,25,317,32,74,23,057,25,72,19,196,28,86,12,162,28*62
$GLGSV,3,3,09,76,21,292,*57
$BDGSV,2,1,07,205,45,140,33,212,40,146,37,202,29,118,,208,28,059,*62
$BDGSV,2,2,07,214,27,221,,210,22,075,,211,04,189,*6B
$GPGSA,A,3,05,07,13,15,17,19,20,24,28,30,,,1.9,1.2,1.5*3A
$GNGSA,A,3,05,07,13,15,17,19,20,24,28,30,,,1.9,1.2,1.5*24
$GNGSA,A,3,65,66,72,75,84,85,86,,,,,,1.9,1.2,1.5*28
$QZGSA,A,3,,,,,,,,,,,,,1.9,1.2,1.5*21
$IMGSA,A,3,,,,,,,,,,,,,1.9,1.2,1.5*2E
$BDGSA,A,3,,,,,,,,,,,,,1.9,1.2,1.5*2C
$GPRMC,064932.00,A,3205.021764,N,03448.149162,E,000.0,,170616,,,A*7D
$GPGGA,064933.00,3205.021659,N,03448.150367,E,1,17,1.2,44.1,M,19.2,M,,*59
$GPGSV,3,1,11,13,71,304,31,28,54,030,42,17,53,129,39,15,35,311,36*70
$GPGSV,3,2,11,19,35,166,31,30,34,079,26,05,19,229,26,20,15,275,38*76
$GPGSV,3,3,11,07,11,094,21,24,08,295,17,11,04,053,*44
$GLGSV,3,1,09,75,47,356,34,65,44,249,42,85,37,110,24,84,25,050,28*69
$GLGSV,3,2,09,66,25,317,33,74,23,057,24,72,19,196,28,86,12,162,27*6D
$GLGSV,3,3,09,76,21,292,*57
$BDGSV,2,1,07,205,45,140,33,212,40,146,37,202,29,118,,208,28,059,*62
$BDGSV,2,2,07,214,27,221,,210,22,075,,211,04,189,*6B
$GPGSA,A,3,05,07,13,15,17,19,20,24,28,30,,,1.8,1.1,1.5*38
$GNGSA,A,3,05,07,13,15,17,19,20,24,28,30,,,1.8,1.1,1.5*26
$GNGSA,A,3,65,66,72,75,84,85,86,,,,,,1.8,1.1,1.5*2A
$QZGSA,A,3,,,,,,,,,,,,,1.8,1.1,1.5*23
$IMGSA,A,3,,,,,,,,,,,,,1.8,1.1,1.5*2C
$BDGSA,A,3,,,,,,,,,,,,,1.8,1.1,1.5*2E
$GPRMC,064933.00,A,3205.021659,N,03448.150367,E,000.0,,170616,,,A*7C
$GPGGA,064934.00,3205.021774,N,03448.150331,E,1,17,0.8,41.2,M,19.2,M,,*5E
$GPGSV,3,1,11,13,71,304,31,28,54,030,42,17,53,129,39,15,35,311,36*70
$GPGSV,3,2,11,19,35,166,31,30,34,079,26,05,19,229,26,20,15,275,38*76
$GPGSV,3,3,11,07,11,094,24,24,08,295,21,11,04,053,*44
$GLGSV,3,1,09,75,47,356,36,65,44,249,42,85,37,110,26,84,25,050,28*69
$GLGSV,3,2,09,66,25,317,33,74,23,057,24,72,19,196,28,86,12,162,26*6C
$GLGSV,3,3,09,76,21,292,*57
$BDGSV,2,1,07,205,45,140,33,212,40,146,37,202,29,118,,208,28,059,*62
$BDGSV,2,2,07,214,27,221,,210,22,075,,211,04,189,*6B
$GPGSA,A,3,05,07,13,15,17,19,20,24,28,30,,,2.4,1.4,1.9*3E
$GNGSA,A,3,05,07,13,15,17,19,20,24,28,30,,,2.4,1.4,1.9*20
$GNGSA,A,3,65,66,72,75,84,85,86,,,,,,2.4,1.4,1.9*2C
$QZGSA,A,3,,,,,,,,,,,,,2.4,1.4,1.9*25
$IMGSA,A,3,,,,,,,,,,,,,2.4,1.4,1.9*2A
$BDGSA,A,3,,,,,,,,,,,,,2.4,1.4,1.9*28
$GPRMC,064934.00,A,3205.021774,N,03448.150331,E,000.0,,170616,,,A*76
$GPGGA,064935.00,3205.021966,N,03448.150747,E,1,17,0.8,34.9,M,19.2,M,,*5E
$GPGSV,3,1,11,13,71,304,35,28,54,030,42,17,53,129,40,15,35,311,37*7B
$GPGSV,3,2,11,19,35,166,30,30,34,079,26,05,19,229,26,20,15,275,38*77
$GPGSV,3,3,11,07,11,094,24,24,08,295,22,11,04,053,*47
$GLGSV,3,1,09,75,47,356,36,65,44,249,43,85,37,110,28,84,25,050,27*69
$GLGSV,3,2,09,66,25,317,32,74,23,057,25,72,19,196,30,86,12,162,26*65
$GLGSV,3,3,09,76,21,292,*57
$BDGSV,2,1,07,205,45,140,33,212,40,146,37,202,29,118,,208,28,059,*62
$BDGSV,2,2,07,214,27,221,,210,22,075,,211,04,189,*6B
$GPGSA,A,3,05,07,13,15,17,19,20,24,28,30,,,2.1,1.3,1.7*32
$GNGSA,A,3,05,07,13,15,17,19,20,24,28,30,,,2.1,1.3,1.7*2C
$GNGSA,A,3,65,66,72,75,84,85,86,,,,,,2.1,1.3,1.7*20
$QZGSA,A,3,,,,,,,,,,,,,2.1,1.3,1.7*29
$IMGSA,A,3,,,,,,,,,,,,,2.1,1.3,1.7*26
$BDGSA,A,3,,,,,,,,,,,,,2.1,1.3,1.7*24
$GPRMC,064935.00,A,3205.021966,N,03448.150747,E,000.0,,170616,,,A*7F
$GPGGA,064936.00,3205.021978,N,03448.150968,E,1,17,0.8,26.8,M,19.2,M,,*53
$GPGSV,3,1,11,13,71,304,35,28,54,030,42,17,53,129,40,15,35,311,37*7B
$GPGSV,3,2,11,19,35,166,30,30,34,079,26,05,19,229,26,20,15,275,38*77
$GPGSV,3,3,11,07,11,094,23,24,08,295,21,11,04,053,*43
$GLGSV,3,1,09,75,47,356,35,65,44,249,43,85,37,110,28,84,25,050,26*6B
$GLGSV,3,2,09,66,25,317,32,74,23,057,25,72,19,196,31,86,12,162,26*64
$GLGSV,3,3,09,76,21,292,*57
$BDGSV,2,1,07,205,45,140,33,212,40,146,37,202,29,118,,208,28,059,*62
$BDGSV,2,2,07,214,27,221,,210,22,075,,211,04,189,*6B
$GPGSA,A,3,05,07,13,15,17,19,20,24,28,30,,,2.1,1.3,1.7*32
$GNGSA,A,3,05,07,13,15,17,19,20,24,28,30,,,2.1,1.3,1.7*2C
$GNGSA,A,3,65,66,72,75,84,85,86,,,,,,2.1,1.3,1.7*20
$QZGSA,A,3,,,,,,,,,,,,,2.1,1.3,1.7*29
$IMGSA,A,3,,,,,,,,,,,,,2.1,1.3,1.7*26
$BDGSA,A,3,,,,,,,,,,,,,2.1,1.3,1.7*24
$GPRMC,064936.00,A,3205.021978,N,03448.150968,E,000.0,,170616,,,A*70
$GPGGA,064937.00,3205.022275,N,03448.150871,E,1,17,0.8,26.0,M,19.2,M,,*56
$GPGSV,3,1,11,13,71,304,35,28,54,030,41,17,53,129,39,15,35,311,36*77
$GPGSV,3,2,11,19,35,166,29,30,34,079,26,05,19,229,33,20,15,275,39*7A
$GPGSV,3,3,11,07,11,094,23,24,08,295,21,11,04,053,*43
$GLGSV,3,1,09,75,47,356,36,65,44,249,43,85,37,110,29,84,25,050,26*69
$GLGSV,3,2,09,66,25,317,31,74,23,057,25,72,19,196,34,86,12,162,25*61
$GLGSV,3,3,09,76,21,292,*57
$BDGSV,2,1,07,205,45,140,35,212,40,146,36,202,29,118,,208,28,059,*65
$BDGSV,2,2,07,214,27,221,,210,22,075,,211,04,189,*6B
$GPGSA,A,3,05,07,13,15,17,19,20,24,28,30,,,2.0,1.1,1.6*30
$GNGSA,A,3,05,07,13,15,17,19,20,24,28,30,,,2.0,1.1,1.6*2E
$GNGSA,A,3,65,66,72,75,84,85,86,,,,,,2.0,1.1,1.6*22
$QZGSA,A,3,,,,,,,,,,,,,2.0,1.1,1.6*2B
$IMGSA,A,3,,,,,,,,,,,,,2.0,1.1,1.6*24
$BDGSA,A,3,,,,,,,,,,,,,2.0,1.1,1.6*26
$GPRMC,064937.00,A,3205.022275,N,03448.150871,E,000.0,,170616,,,A*7D
$GPGGA,064938.00,3205.022492,N,03448.150338,E,1,17,0.6,28.1,M,19.2,M,,*51
$GPGSV,3,1,11,13,71,304,35,28,54,030,41,17,53,129,39,15,35,311,36*77
$GPGSV,3,2,11,19,35,166,29,30,34,079,26,05,19,229,33,20,15,275,40*74
$GPGSV,3,3,11,07,11,094,23,24,08,295,20,11,04,053,*42
$GLGSV,3,1,09,75,47,356,35,65,44,249,43,85,37,110,29,84,25,050,26*6A
$GLGSV,3,2,09,66,25,317,31,74,23,057,25,72,19,196,34,86,12,162,25*61
$GLGSV,3,3,09,76,21,292,*57
$BDGSV,2,1,07,205,45,140,35,212,40,146,35,202,29,118,,208,28,059,*66
$BDGSV,2,2,07,214,27,221,,210,22,075,,211,04,189,*6B
$GPGSA,A,3,05,07,13,15,17,19,20,24,28,30,,,2.3,1.4,1.9*39
$GNGSA,A,3,05,07,13,15,17,19,20,24,28,30,,,2.3,1.4,1.9*27
$GNGSA,A,3,65,66,72,75,84,85,86,,,,,,2.3,1.4,1.9*2B
$QZGSA,A,3,,,,,,,,,,,,,2.3,1.4,1.9*22
$IMGSA,A,3,,,,,,,,,,,,,2.3,1.4,1.9*2D
$BDGSA,A,3,,,,,,,,,,,,,2.3,1.4,1.9*2F
$GPRMC,064938.00,A,3205.022492,N,03448.150338,E,000.0,,170616,,,A*7B
$GPGGA,064939.00,3205.022678,N,03448.149667,E,1,17,0.6,29.1,M,19.2,M,,*50
$GPGSV,3,1,11,13,71,304,34,28,54,030,41,17,53,129,41,15,35,311,35*7A
$GPGSV,3,2,11,19,35,166,28,30,34,079,26,05,19,229,36,20,15,275,41*71
$GPGSV,3,3,11,07,11,094,23,24,08,295,20,11,04,053,*42
$GLGSV,3,1,09,75,47,356,37,65,44,249,42,85,37,110,28,84,25,050,26*68
$GLGSV,3,2,09,66,25,317,30,74,23,057,27,72,19,196,33,86,12,162,25*65
$GLGSV,3,3,09,76,21,292,*57
$BDGSV,2,1,07,205,45,140,34,212,40,146,34,202,29,118,,208,28,059,*66
$BDGSV,2,2,07,214,27,221,,210,22,075,,211,04,189,*6B
$GPGSA,A,3,05,07,13,15,17,19,20,24,28,30,,,2.3,1.4,1.9*39
$GNGSA,A,3,05,07,13,15,17,19,20,24,28,30,,,2.3,1.4,1.9*27
$GNGSA,A,3,65,66,72,75,84,85,86,,,,,,2.3,1.4,1.9*2B
$QZGSA,A,3,,,,,,,,,,,,,2.3,1.4,1.9*22
$IMGSA,A,3,,,,,,,,,,,,,2.3,1.4,1.9*2D
$BDGSA,A,3,,,,,,,,,,,,,2.3,1.4,1.9*2F
$GPRMC,064939.00,A,3205.022678,N,03448.149667,E,000.0,,170616,,,A*7B
$GPGGA,064940.00,3205.023014,N,03448.148988,E,1,17,0.8,31.6,M,19.2,M,,*5C
$GPGSV,3,1,11,13,71,304,33,28,54,030,41,17,53,129,41,15,35,311,35*7D
$GPGSV,3,2,11,19,35,166,28,30,34,079,25,05,19,229,35,20,15,275,42*72
$GPGSV,3,3,11,07,11,094,22,24,08,295,19,11,04,053,*49
$GLGSV,3,1,09,75,47,356,37,65,44,249,42,85,37,110,28,84,25,050,25*6B
$GLGSV,3,2,09,66,25,317,30,74,23,057,28,72,19,196,33,86,12,162,24*6B
$GLGSV,3,3,09,76,21,292,*57
$BDGSV,2,1,07,205,45,140,34,212,40,146,34,202,29,118,27,208,28,059,*63
$BDGSV,2,2,07,214,27,221,,210,22,075,,211,04,189,*6B
$GPGSA,A,3,05,07,13,15,17,19,20,24,28,30,,,2.3,1.4,1.9*39
$GNGSA,A,3,05,07,13,15,17,19,20,24,28,30,,,2.3,1.4,1.9*27
$GNGSA,A,3,65,66,72,75,84,85,86,,,,,,2.3,1.4,1.9*2B
$QZGSA,A,3,,,,,,,,,,,,,2.3,1.4,1.9*22
$IMGSA,A,3,,,,,,,,,,,,,2.3,1.4,1.9*2D
$BDGSA,A,3,,,,,,,,,,,,,2.3,1.4,1.9*2F
$GPRMC,064940.00,A,3205.023014,N,03448.148988,E,000.0,,170616,,,A*77
$GPGGA,064941.00,3205.023189,N,03448.148179,E,1,17,0.8,31.9,M,19.2,M,,*51
$GPGSV,3,1,11,13,71,304,33,28,54,030,41,17,53,129,40,15,35,311,35*7C
$GPGSV,3,2,11,19,35,166,27,30,34,079,25,05,19,229,35,20,15,275,42*7D
$GPGSV,3,3,11,07,11,094,22,24,08,295,19,11,04,053,*49
$GLGSV,3,1,09,75,47,356,36,65,44,249,42,85,37,110,28,84,25,050,25*6A
$GLGSV,3,2,09,66,25,317,30,74,23,057,29,72,19,196,33,86,12,162,24*6A
$GLGSV,3,3,09,76,21,292,*57
$BDGSV,2,1,07,205,45,140,33,212,40,146,33,202,29,118,26,208,28,059,*62
$BDGSV,2,2,07,214,27,221,,210,22,075,,211,04,189,*6B
$GPGSA,A,3,05,07,13,15,17,19,20,24,28,30,,,2.3,1.4,1.9*39
$GNGSA,A,3,05,07,13,15,17,19,20,24,28,30,,,2.3,1.4,1.9*27
$GNGSA,A,3,65,66,72,75,84,85,86,,,,,,2.3,1.4,1.9*2B
$QZGSA,A,3,,,,,,,,,,,,,2.3,1.4,1.9*22
$IMGSA,A,3,,,,,,,,,,,,,2.3,1.4,1.9*2D
$BDGSA,A,3,,,,,,,,,,,,,2.3,1.4,1.9*2F
$GPRMC,064941.00,A,3205.023189,N,03448.148179,E,002.4,,170616,,,A*73
$GPGGA,064942.00,3205.024052,N,03448.146919,E,1,18,0.8,22.3,M,19.2,M,,*55
$GPGSV,3,1,11,13,71,304,32,28,54,030,41,17,53,129,40,15,35,311,35*7D
$GPGSV,3,2,11,19,35,166,27,30,34,079,25,05,19,229,35,20,15,275,42*7D
$GPGSV,3,3,11,07,11,094,22,24,08,295,18,11,04,053,*48
$GLGSV,3,1,09,75,47,356,36,65,44,249,43,85,37,110,28,84,25,050,25*6B
$GLGSV,3,2,09,66,25,317,29,74,23,057,29,76,21,292,15,72,19,196,34*64
$GLGSV,3,3,09,86,12,162,24*52
$BDGSV,2,1,07,205,45,140,32,212,40,146,32,202,29,118,26,208,28,059,*62
$BDGSV,2,2,07,214,27,221,,210,22,075,,211,04,189,*6B
$GPGSA,A,3,05,07,13,15,17,19,20,24,28,30,,,2.3,1.4,1.9*39
$GNGSA,A,3,05,07,13,15,17,19,20,24,28,30,,,2.3,1.4,1.9*27
$GNGSA,A,3,65,66,72,75,76,84,85,86,,,,,2.3,1.4,1.9*2A
$QZGSA,A,3,,,,,,,,,,,,,2.3,1.4,1.9*22
$IMGSA,A,3,,,,,,,,,,,,,2.3,1.4,1.9*2D
$BDGSA,A,3,,,,,,,,,,,,,2.3,1.4,1.9*2F
$GPRMC,064942.00,A,3205.024052,N,03448.146919,E,000.0,,170616,,,A*76
$GPGGA,064943.00,3205.024381,N,03448.146448,E,1,18,0.8,15.1,M,19.2,M,,*56
$GPGSV,3,1,11,13,71,304,31,28,54,030,40,17,53,129,40,15,35,311,34*7E
$GPGSV,3,2,11,19,35,166,30,30,34,079,25,05,19,229,38,20,15,275,42*76
$GPGSV,3,3,11,07,11,094,21,24,08,295,18,11,04,053,*4B
$GLGSV,3,1,09,75,47,356,36,65,44,249,42,85,37,110,27,84,25,050,24*64
$GLGSV,3,2,09,66,25,317,29,74,23,057,28,76,21,292,15,72,19,196,34*65
$GLGSV,3,3,09,86,12,162,24*52
$BDGSV,2,1,07,205,45,140,31,212,40,146,32,202,29,118,26,208,28,059,*61
$BDGSV,2,2,07,214,27,221,,210,22,075,,211,04,189,*6B
$GPGSA,A,3,05,07,13,15,17,19,20,24,28,30,,,2.2,1.3,1.8*3E
$GNGSA,A,3,05,07,13,15,17,19,20,24,28,30,,,2.2,1.3,1.8*20
$GNGSA,A,3,65,66,72,75,76,84,85,86,,,,,2.2,1.3,1.8*2D
$QZGSA,A,3,,,,,,,,,,,,,2.2,1.3,1.8*25
$IMGSA,A,3,,,,,,,,,,,,,2.2,1.3,1.8*2A
$BDGSA,A,3,,,,,,,,,,,,,2.2,1.3,1.8*28
$GPRMC,064943.00,A,3205.024381,N,03448.146448,E,000.0,,170616,,,A*73
$GPGGA,064944.00,3205.024506,N,03448.145915,E,1,18,1.2,10.9,M,19.2,M,,*58
$GPGSV,3,1,11,13,71,304,30,28,54,030,40,17,53,129,40,15,35,311,33*78
$GPGSV,3,2,11,19,35,166,29,30,34,079,24,05,19,229,37,20,15,275,42*70
$GPGSV,3,3,11,07,11,094,21,24,08,295,17,11,04,053,*44
$GLGSV,3,1,09,75,47,356,36,65,44,249,42,85,37,110,27,84,25,050,24*64
$GLGSV,3,2,09,66,25,317,29,74,23,057,28,76,21,292,15,72,19,196,33*62
$GLGSV,3,3,09,86,12,162,24*52
$BDGSV,2,1,07,205,45,140,29,212,40,146,31,202,29,118,26,208,28,059,*6B
$BDGSV,2,2,07,214,27,221,,210,22,075,,211,04,189,*6B
$GPGSA,A,3,05,07,13,15,17,19,20,24,28,30,,,2.6,1.4,2.3*35
$GNGSA,A,3,05,07,13,15,17,19,20,24,28,30,,,2.6,1.4,2.3*2B
$GNGSA,A,3,65,66,72,75,76,84,85,86,,,,,2.6,1.4,2.3*26
$QZGSA,A,3,,,,,,,,,,,,,2.6,1.4,2.3*2E
$IMGSA,A,3,,,,,,,,,,,,,2.6,1.4,2.3*21
$BDGSA,A,3,,,,,,,,,,,,,2.6,1.4,2.3*23
$GPRMC,064944.00,A,3205.024506,N,03448.145915,E,000.0,,170616,,,A*7B
$GPGGA,064945.00,3205.026091,N,03448.144800,E,1,18,0.6,11.3,M,19.2,M,,*5A
$GPGSV,3,1,11,13,71,304,28,28,54,030,39,17,53,129,39,15,35,311,33*71
$GPGSV,3,2,11,19,35,166,29,30,34,079,23,05,19,229,37,20,15,275,41*74
$GPGSV,3,3,11,07,11,094,20,24,08,295,17,11,04,053,*45
$GLGSV,3,1,09,75,47,356,35,65,44,249,41,85,37,110,27,84,25,050,23*63
$GLGSV,3,2,09,66,25,317,28,74,23,057,27,76,21,292,15,72,19,196,33*6C
$GLGSV,3,3,09,86,12,162,23*55
$BDGSV,2,1,07,205,45,140,27,212,40,146,30,202,29,118,26,208,28,059,*64
$BDGSV,2,2,07,214,27,221,,210,22,075,,211,04,189,*6B
$GPGSA,A,3,05,07,13,15,17,19,20,24,28,30,,,2.3,1.4,1.9*39
$GNGSA,A,3,05,07,13,15,17,19,20,24,28,30,,,2.3,1.4,1.9*27
$GNGSA,A,3,65,66,72,75,76,84,85,86,,,,,2.3,1.4,1.9*2A
$QZGSA,A,3,,,,,,,,,,,,,2.3,1.4,1.9*22
$IMGSA,A,3,,,,,,,,,,,,,2.3,1.4,1.9*2D
$BDGSA,A,3,,,,,,,,,,,,,2.3,1.4,1.9*2F
$GPRMC,064945.00,A,3205.026091,N,03448.144800,E,000.0,,170616,,,A*77
$GPGGA,064946.00,3205.026091,N,03448.144800,E,1,17,0.6,11.5,M,19.2,M,,*50
$GPGSV,3,1,11,13,71,304,27,28,54,030,38,17,53,129,39,15,35,311,33*7F
$GPGSV,3,2,11,19,35,166,31,30,34,079,23,05,19,229,36,20,15,275,41*7C
$GPGSV,3,3,11,07,11,094,20,24,08,295,16,11,04,053,*44
$GLGSV,3,1,09,75,47,356,35,65,44,249,41,85,37,110,28,84,25,050,22*6D
$GLGSV,3,2,09,66,25,317,28,74,23,057,27,76,21,292,15,72,19,196,33*6C
$GLGSV,3,3,09,86,12,162,25*53
$BDGSV,2,1,07,205,45,140,26,212,40,146,29,202,29,118,27,208,28,059,*6C
$BDGSV,2,2,07,214,27,221,,210,22,075,,211,04,189,*6B
$GPGSA,A,3,05,07,13,15,17,19,20,28,30,,,,2.3,1.4,1.9*3F
$GNGSA,A,3,05,07,13,15,17,19,20,28,30,,,,2.3,1.4,1.9*21
$GNGSA,A,3,65,66,72,75,76,84,85,86,,,,,2.3,1.4,1.9*2A
$QZGSA,A,3,,,,,,,,,,,,,2.3,1.4,1.9*22
$IMGSA,A,3,,,,,,,,,,,,,2.3,1.4,1.9*2D
$BDGSA,A,3,,,,,,,,,,,,,2.3,1.4,1.9*2F
$GPRMC,064946.00,A,3205.026091,N,03448.144800,E,000.0,,170616,,,A*74
$GPGGA,064947.00,3205.026091,N,03448.144800,E,1,18,0.6,11.9,M,19.2,M,,*52
$GPGSV,3,1,11,13,71,304,26,28,54,030,38,17,53,129,39,15,35,311,38*75
$GPGSV,3,2,11,19,35,166,31,30,34,079,23,05,19,229,36,20,15,275,42*7F
$GPGSV,3,3,11,07,11,094,21,24,08,295,16,11,04,053,*45
$GLGSV,3,1,09,75,47,356,35,65,44,249,40,85,37,110,34,84,25,050,22*61
$GLGSV,3,2,09,66,25,317,28,74,23,057,27,76,21,292,15,72,19,196,36*69
$GLGSV,3,3,09,86,12,162,25*53
$BDGSV,2,1,07,205,45,140,24,212,40,146,29,202,29,118,30,208,28,059,*68
$BDGSV,2,2,07,214,27,221,,210,22,075,,211,04,189,*6B
$GPGSA,A,3,05,07,13,15,17,19,20,24,28,30,,,2.7,1.4,2.3*34
$GNGSA,A,3,05,07,13,15,17,19,20,24,28,30,,,2.7,1.4,2.3*2A
$GNGSA,A,3,65,66,72,75,76,84,85,86,,,,,2.7,1.4,2.3*27
$QZGSA,A,3,,,,,,,,,,,,,2.7,1.4,2.3*2F
$IMGSA,A,3,,,,,,,,,,,,,2.7,1.4,2.3*20
$BDGSA,A,3,,,,,,,,,,,,,2.7,1.4,2.3*22
$GPRMC,064947.00,A,3205.026091,N,03448.144800,E,000.0,,170616,,,A*75
$GPGGA,064948.00,3205.026091,N,03448.144800,E,1,17,0.6,12.1,M,19.2,M,,*59
$GPGSV,3,1,11,13,71,304,26,28,54,030,37,17,53,129,38,15,35,311,37*74
$GPGSV,3,2,11,19,35,166,30,30,34,079,23,05,19,229,36,20,15,275,42*7E
$GPGSV,3,3,11,07,11,094,21,24,08,295,15,11,04,053,*46
$GLGSV,3,1,09,75,47,356,34,65,44,249,40,85,37,110,35,84,25,050,21*62
$GLGSV,3,2,09,66,25,317,32,74,23,057,27,76,21,292,15,72,19,196,36*62
$GLGSV,3,3,09,86,12,162,25*53
$BDGSV,2,1,07,205,45,140,23,212,40,146,29,202,29,118,30,208,28,059,*6F
$BDGSV,2,2,07,214,27,221,,210,22,075,,211,04,189,*6B
$GPGSA,A,3,05,07,13,15,17,19,20,28,30,,,,2.7,1.4,2.3*32
$GNGSA,A,3,05,07,13,15,17,19,20,28,30,,,,2.7,1.4,2.3*2C
$GNGSA,A,3,65,66,72,75,76,84,85,86,,,,,2.7,1.4,2.3*27
$QZGSA,A,3,,,,,,,,,,,,,2.7,1.4,2.3*2F
$IMGSA,A,3,,,,,,,,,,,,,2.7,1.4,2.3*20
$BDGSA,A,3,,,,,,,,,,,,,2.7,1.4,2.3*22
$GPRMC,064948.00,A,3205.026091,N,03448.144800,E,000.0,,170616,,,A*7A
$GPGGA,064949.00,3205.026091,N,03448.144800,E,1,17,0.8,12.0,M,19.2,M,,*57
$GPGSV,3,1,11,13,71,304,25,28,54,030,37,17,53,129,38,15,35,311,38*78
$GPGSV,3,2,11,19,35,166,30,30,34,079,23,05,19,229,36,20,15,275,41*7D
$GPGSV,3,3,11,07,11,094,20,24,08,295,15,11,04,053,*47
$GLGSV,3,1,09,75,47,356,34,65,44,249,39,85,37,110,35,84,25,050,21*6C
$GLGSV,3,2,09,66,25,317,32,74,23,057,27,76,21,292,15,72,19,196,36*62
$GLGSV,3,3,09,86,12,162,25*53
$BDGSV,2,1,07,205,45,140,23,212,40,146,29,202,29,118,30,208,28,059,*6F
$BDGSV,2,2,07,214,27,221,,210,22,075,,211,04,189,*6B
$GPGSA,A,3,05,07,13,15,17,19,20,28,30,,,,2.7,1.4,2.3*32
$GNGSA,A,3,05,07,13,15,17,19,20,28,30,,,,2.7,1.4,2.3*2C
$GNGSA,A,3,65,66,72,75,76,84,85,86,,,,,2.7,1.4,2.3*27
$QZGSA,A,3,,,,,,,,,,,,,2.7,1.4,2.3*2F
$IMGSA,A,3,,,,,,,,,,,,,2.7,1.4,2.3*20
$BDGSA,A,3,,,,,,,,,,,,,2.7,1.4,2.3*22
$GPRMC,064949.00,A,3205.026091,N,03448.144800,E,000.0,,170616,,,A*7B
$GPGGA,064950.00,3205.026446,N,03448.141671,E,1,17,0.8,11.9,M,19.2,M,,*56
$GPGSV,3,1,11,13,71,304,24,28,54,030,38,17,53,129,37,15,35,311,38*79
$GPGSV,3,2,11,19,35,166,30,30,34,079,23,05,19,229,36,20,15,275,41*7D
$GPGSV,3,3,11,07,11,094,20,24,08,295,15,11,04,053,*47
$GLGSV,3,1,09,75,47,356,33,65,44,249,39,85,37,110,35,84,25,050,21*6B
$GLGSV,3,2,09,66,25,317,32,74,23,057,27,76,21,292,15,72,19,196,37*63
$GLGSV,3,3,09,86,12,162,24*52
$BDGSV,2,1,07,205,45,140,22,212,40,146,29,202,29,118,30,208,28,059,*6E
$BDGSV,2,2,07,214,27,221,,210,22,075,,211,04,189,*6B
$GPGSA,A,3,05,07,13,15,17,19,20,28,30,,,,2.7,1.4,2.3*32
$GNGSA,A,3,05,07,13,15,17,19,20,28,30,,,,2.7,1.4,2.3*2C
$GNGSA,A,3,65,66,72,75,76,84,85,86,,,,,2.7,1.4,2.3*27
$QZGSA,A,3,,,,,,,,,,,,,2.7,1.4,2.3*2F
$IMGSA,A,3,,,,,,,,,,,,,2.7,1.4,2.3*20
$BDGSA,A,3,,,,,,,,,,,,,2.7,1.4,2.3*22
$GPRMC,064950.00,A,3205.026446,N,03448.141671,E,001.5,,170616,,,A*74
$GPGGA,064951.00,3205.026333,N,03448.141035,E,1,17,0.8,11.9,M,19.2,M,,*54
$GPGSV,3,1,11,13,71,304,24,28,54,030,39,17,53,129,37,19,35,166,30*7E
$GPGSV,3,2,11,15,35,311,37,30,34,079,27,05,19,229,36,20,15,275,41*70
$GPGSV,3,3,11,07,11,094,20,24,08,295,14,11,04,053,*46
$GLGSV,3,1,09,75,47,356,33,65,44,249,38,85,37,110,35,66,25,317,32*64
$GLGSV,3,2,09,84,25,050,21,74,23,057,27,76,21,292,15,72,19,196,37*6D
$GLGSV,3,3,09,86,12,162,24*52
$BDGSV,2,1,07,214,27,221,25,205,45,140,22,212,40,146,29,202,29,118,31*67
$BDGSV,2,2,07,208,28,059,,210,22,075,,211,04,189,*64
$GPGSA,A,3,05,07,13,15,17,19,20,28,30,,,,2.8,1.6,2.3*3F
$GNGSA,A,3,05,07,13,15,17,19,20,28,30,,,,2.8,1.6,2.3*21
$GNGSA,A,3,65,66,72,75,76,84,85,86,,,,,2.8,1.6,2.3*2A
$QZGSA,A,3,,,,,,,,,,,,,2.8,1.6,2.3*22
$IMGSA,A,3,,,,,,,,,,,,,2.8,1.6,2.3*2D
$BDGSA,A,3,,,,,,,,,,,,,2.8,1.6,2.3*2F
$GPRMC,064951.00,A,3205.026333,N,03448.141035,E,000.7,,170616,,,A*75
$GPGGA,064952.00,3205.026226,N,03448.140292,E,1,17,0.8,11.9,M,19.2,M,,*5C
$GPGSV,3,1,11,13,71,304,24,28,54,030,39,17,53,129,37,19,35,166,30*7E
$GPGSV,3,2,11,15,35,311,37,30,34,079,27,05,19,229,38,20,15,275,40*7F
$GPGSV,3,3,11,07,11,094,20,24,08,295,14,11,04,053,*46
$GLGSV,3,1,09,75,47,356,32,65,44,249,38,85,37,110,34,66,25,317,31*67
$GLGSV,3,2,09,84,25,050,21,74,23,057,27,76,21,293,15,72,19,196,38*63
$GLGSV,3,3,09,86,12,162,24*52
$BDGSV,2,1,07,214,27,221,25,205,45,140,22,212,40,146,29,202,29,118,31*67
$BDGSV,2,2,07,208,28,059,,210,22,075,,211,04,189,*64
$GPGSA,A,3,05,07,13,15,17,19,20,28,30,,,,2.8,1.6,2.3*3F
$GNGSA,A,3,05,07,13,15,17,19,20,28,30,,,,2.8,1.6,2.3*21
$GNGSA,A,3,65,66,72,75,76,84,85,86,,,,,2.8,1.6,2.3*2A
$QZGSA,A,3,,,,,,,,,,,,,2.8,1.6,2.3*22
$IMGSA,A,3,,,,,,,,,,,,,2.8,1.6,2.3*2D
$BDGSA,A,3,,,,,,,,,,,,,2.8,1.6,2.3*2F
$GPRMC,064952.00,A,3205.026226,N,03448.140292,E,001.1,,170616,,,A*7A
$GPGGA,064953.00,3205.026049,N,03448.139618,E,1,17,0.8,11.9,M,19.2,M,,*5E
$GPGSV,3,1,11,13,71,304,23,28,54,030,39,17,53,129,37,19,35,166,29*71
$GPGSV,3,2,11,15,35,311,37,30,34,079,27,05,19,229,38,20,15,275,39*71
$GPGSV,3,3,11,07,11,094,24,24,08,295,14,11,04,053,*42
$GLGSV,3,1,09,75,47,356,31,65,44,249,37,85,37,110,34,66,25,317,31*6B
$GLGSV,3,2,09,84,25,050,21,74,23,057,28,76,21,293,15,72,19,196,38*6C
$GLGSV,3,3,09,86,12,162,24*52
$BDGSV,2,1,07,214,27,221,25,205,45,140,22,212,40,146,28,202,29,118,31*66
$BDGSV,2,2,07,208,28,059,,210,22,075,,211,04,189,*64
$GPGSA,A,3,05,07,13,15,17,19,20,28,30,,,,2.8,1.6,2.3*3F
$GNGSA,A,3,05,07,13,15,17,19,20,28,30,,,,2.8,1.6,2.3*21
$GNGSA,A,3,65,66,72,75,76,84,85,86,,,,,2.8,1.6,2.3*2A
$QZGSA,A,3,,,,,,,,,,,,,2.8,1.6,2.3*22
$IMGSA,A,3,,,,,,,,,,,,,2.8,1.6,2.3*2D
$BDGSA,A,3,,,,,,,,,,,,,2.8,1.6,2.3*2F
$GPRMC,064953.00,A,3205.026049,N,03448.139618,E,001.3,,170616,,,A*7A
$GPGGA,064954.00,3205.025839,N,03448.139040,E,1,17,0.8,11.9,M,19.2,M,,*5E
$GPGSV,3,1,11,13,71,304,23,28,54,030,38,17,53,129,37,19,35,166,29*70
$GPGSV,3,2,11,15,35,311,37,30,34,079,26,05,19,229,38,20,15,275,39*70
$GPGSV,3,3,11,07,11,094,27,24,08,295,13,11,04,053,*46
$GLGSV,3,1,09,75,47,356,31,65,44,249,37,85,37,110,33,66,25,317,30*6D
$GLGSV,3,2,09,84,25,050,22,74,23,057,28,76,21,293,15,72,19,196,38*6F
$GLGSV,3,3,09,86,12,162,24*52
$BDGSV,2,1,07,214,27,221,24,205,45,140,24,212,40,146,28,202,29,118,32*62
$BDGSV,2,2,07,208,28,059,,210,22,075,,211,04,189,*64
$GPGSA,A,3,05,07,13,15,17,19,20,28,30,,,,2.8,1.6,2.3*3F
$GNGSA,A,3,05,07,13,15,17,19,20,28,30,,,,2.8,1.6,2.3*21
$GNGSA,A,3,65,66,72,75,76,84,85,86,,,,,2.8,1.6,2.3*2A
$QZGSA,A,3,,,,,,,,,,,,,2.8,1.6,2.3*22
$IMGSA,A,3,,,,,,,,,,,,,2.8,1.6,2.3*2D
$BDGSA,A,3,,,,,,,,,,,,,2.8,1.6,2.3*2F
$GPRMC,064954.00,A,3205.025839,N,03448.139040,E,001.4,,170616,,,A*7D
$GPGGA,064955.00,3205.025642,N,03448.138425,E,1,17,1.2,12.0,M,19.2,M,,*5A
$GPGSV,3,1,11,13,71,304,23,28,54,030,38,17,53,129,37,19,35,166,29*70
$GPGSV,3,2,11,15,35,311,37,30,34,079,26,05,19,229,38,20,15,275,38*71
$GPGSV,3,3,11,07,11,094,26,24,08,295,13,11,04,053,*47
$GLGSV,3,1,09,75,47,356,30,65,44,249,37,85,37,110,33,66,25,317,30*6C
$GLGSV,3,2,09,84,25,050,22,74,23,057,28,76,21,293,15,72,19,196,37*60
$GLGSV,3,3,09,86,12,162,24*52
$BDGSV,2,1,07,214,27,221,23,205,45,140,27,212,40,146,28,202,29,118,32*66
$BDGSV,2,2,07,208,28,059,,210,22,075,,211,04,189,*64
$GPGSA,A,3,05,07,13,15,17,19,20,28,30,,,,2.9,1.7,2.4*38
$GNGSA,A,3,05,07,13,15,17,19,20,28,30,,,,2.9,1.7,2.4*26
$GNGSA,A,3,65,66,72,75,76,84,85,86,,,,,2.9,1.7,2.4*2D
$QZGSA,A,3,,,,,,,,,,,,,2.9,1.7,2.4*25
$IMGSA,A,3,,,,,,,,,,,,,2.9,1.7,2.4*2A
$BDGSA,A,3,,,,,,,,,,,,,2.9,1.7,2.4*28
$GPRMC,064955.00,A,3205.025642,N,03448.138425,E,001.5,,170616,,,A*79
$GPGGA,064956.00,3205.025473,N,03448.137670,E,1,17,2.4,12.0,M,19.2,M,,*51
$GPGSV,3,1,11,13,71,304,22,28,54,030,37,17,53,129,36,19,35,166,29*7F
$GPGSV,3,2,11,15,35,311,37,30,34,079,28,05,19,229,38,20,15,275,37*70
$GPGSV,3,3,11,07,11,094,26,24,08,295,13,11,04,053,*47
$GLGSV,3,1,09,75,47,356,30,65,44,249,36,85,37,110,32,66,25,317,30*6C
$GLGSV,3,2,09,84,25,050,23,74,23,057,28,76,21,293,15,72,19,196,38*6E
$GLGSV,3,3,09,86,12,162,24*52
$BDGSV,2,1,07,214,27,221,23,205,45,140,28,212,40,146,28,202,29,118,32*69
$BDGSV,2,2,07,208,28,059,,210,22,075,,211,04,189,*64
$GPGSA,A,3,05,07,13,15,17,19,20,28,30,,,,2.7,1.6,2.2*31
$GNGSA,A,3,05,07,13,15,17,19,20,28,30,,,,2.7,1.6,2.2*2F
$GNGSA,A,3,65,66,72,75,76,84,85,86,,,,,2.7,1.6,2.2*24
$QZGSA,A,3,,,,,,,,,,,,,2.7,1.6,2.2*2C
$IMGSA,A,3,,,,,,,,,,,,,2.7,1.6,2.2*23
$BDGSA,A,3,,,,,,,,,,,,,2.7,1.6,2.2*21
$GPRMC,064956.00,A,3205.025473,N,03448.137670,E,001.6,271.9,170616,,,A*57
$GPGGA,064957.00,3205.025357,N,03448.137003,E,1,17,1.6,12.1,M,19.2,M,,*53
$GPGSV,3,1,11,13,71,304,22,28,54,030,36,17,53,129,36,19,35,166,29*7E
$GPGSV,3,2,11,15,35,311,37,30,34,079,28,05,19,229,38,20,15,275,36*71
$GPGSV,3,3,11,07,11,094,25,24,08,295,12,11,04,053,*45
$GLGSV,3,1,09,75,47,356,29,65,44,249,36,85,37,110,35,66,25,317,31*62
$GLGSV,3,2,09,84,25,050,24,74,23,057,27,76,21,293,15,72,19,196,38*66
$GLGSV,3,3,09,86,12,162,24*52
$BDGSV,2,1,07,214,27,221,22,205,45,140,28,212,40,146,28,202,29,118,31*6B
$BDGSV,2,2,07,208,28,059,,210,22,075,,211,04,189,*64
$GPGSA,A,3,05,07,13,15,17,19,20,28,30,,,,3.8,2.5,2.9*34
$GNGSA,A,3,05,07,13,15,17,19,20,28,30,,,,3.8,2.5,2.9*2A
$GNGSA,A,3,65,66,72,75,76,84,85,86,,,,,3.8,2.5,2.9*21
$QZGSA,A,3,,,,,,,,,,,,,3.8,2.5,2.9*29
$IMGSA,A,3,,,,,,,,,,,,,3.8,2.5,2.9*26
$BDGSA,A,3,,,,,,,,,,,,,3.8,2.5,2.9*24
$GPRMC,064957.00,A,3205.025357,N,03448.137003,E,001.6,273.3,170616,,,A*5D
$GPGGA,064958.00,3205.025171,N,03448.135821,E,1,17,3.2,12.3,M,19.2,M,,*54
$GPGSV,3,1,11,13,71,304,24,28,54,030,35,17,53,129,37,19,35,166,29*7A
$GPGSV,3,2,11,15,35,311,36,30,34,079,28,05,19,229,38,20,15,275,35*73
$GPGSV,3,3,11,07,11,094,24,24,08,295,12,11,04,053,*44
$GLGSV,3,1,09,75,47,356,29,65,44,249,35,85,37,110,35,66,25,317,32*62
$GLGSV,3,2,09,84,25,050,24,74,23,057,29,76,21,293,15,72,19,196,38*68
$GLGSV,3,3,09,86,12,162,24*52
$BDGSV,2,1,07,214,27,221,22,205,45,140,28,212,40,146,28,202,29,118,31*6B
$BDGSV,2,2,07,208,28,059,,210,22,075,,211,04,189,*64
$GPGSA,A,3,05,07,13,15,17,19,20,28,30,,,,3.3,2.1,2.5*37
$GNGSA,A,3,05,07,13,15,17,19,20,28,30,,,,3.3,2.1,2.5*29
$GNGSA,A,3,65,66,72,75,76,84,85,86,,,,,3.3,2.1,2.5*22
$QZGSA,A,3,,,,,,,,,,,,,3.3,2.1,2.5*2A
$IMGSA,A,3,,,,,,,,,,,,,3.3,2.1,2.5*25
$BDGSA,A,3,,,,,,,,,,,,,3.3,2.1,2.5*27
$GPRMC,064958.00,A,3205.025171,N,03448.135821,E,001.6,267.9,170616,,,A*51
$GPGGA,064959.00,3205.024919,N,03448.132843,E,1,17,2.4,12.6,M,19.2,M,,*53
$GPGSV,3,1,11,13,71,304,24,28,54,030,35,17,53,129,37,19,35,166,29*7A
$GPGSV,3,2,11,15,35,311,36,30,34,079,27,05,19,229,38,20,15,275,34*7D
$GPGSV,3,3,11,07,11,094,24,24,08,295,12,11,04,053,*44
$GLGSV,3,1,09,75,47,356,29,65,44,249,34,85,37,110,36,66,25,317,34*66
$GLGSV,3,2,09,84,25,050,24,74,23,057,29,76,21,293,15,72,19,196,40*67
$GLGSV,3,3,09,86,12,162,24*52
$BDGSV,2,1,07,214,27,221,22,205,45,140,29,212,40,146,28,202,29,118,30*6B
$BDGSV,2,2,07,208,28,059,,210,22,075,,211,04,189,*64
$GPGSA,A,3,05,07,13,15,17,19,20,28,30,,,,2.8,1.7,2.2*3F
$GNGSA,A,3,05,07,13,15,17,19,20,28,30,,,,2.8,1.7,2.2*21
$GNGSA,A,3,65,66,72,75,76,84,85,86,,,,,2.8,1.7,2.2*2A
$QZGSA,A,3,,,,,,,,,,,,,2.8,1.7,2.2*22
$IMGSA,A,3,,,,,,,,,,,,,2.8,1.7,2.2*2D
$BDGSA,A,3,,,,,,,,,,,,,2.8,1.7,2.2*2F
$GPRMC,064959.00,A,3205.024919,N,03448.132843,E,001.7,268.7,170616,,,A*54
$GPGGA,065000.00,3205.024878,N,03448.130189,E,1,17,2.4,13.0,M,19.2,M,,*5B
$GPGSV,3,1,11,13,71,304,24,28,54,030,35,17,53,129,37,19,35,166,30*72
$GPGSV,3,2,11,15,35,311,36,30,34,079,27,05,19,229,38,20,15,275,33*7A
$GPGSV,3,3,11,07,11,094,23,24,08,295,12,11,04,053,*43
$GLGSV,3,1,09,75,47,356,28,65,44,249,34,85,37,110,39,66,25,316,35*68
$GLGSV,3,2,09,84,25,050,25,74,23,057,31,76,21,293,15,72,19,196,40*6F
$GLGSV,3,3,09,86,12,162,24*52
$BDGSV,2,1,07,214,27,221,22,205,45,140,31,212,40,146,28,202,29,118,30*62
$BDGSV,2,2,07,208,28,059,,210,22,075,,211,04,189,*64
$GPGSA,A,3,05,07,13,15,17,19,20,28,30,,,,2.8,1.7,2.2*3F
$GNGSA,A,3,05,07,13,15,17,19,20,28,30,,,,2.8,1.7,2.2*21
$GNGSA,A,3,65,66,72,75,76,84,85,86,,,,,2.8,1.7,2.2*2A
$QZGSA,A,3,,,,,,,,,,,,,2.8,1.7,2.2*22
$IMGSA,A,3,,,,,,,,,,,,,2.8,1.7,2.2*2D
$BDGSA,A,3,,,,,,,,,,,,,2.8,1.7,2.2*2F
$GPRMC,065000.00,A,3205.024878,N,03448.130189,E,001.7,273.4,170616,,,A*52
$GPGGA,065001.00,3205.024395,N,03448.129413,E,1,18,2.4,13.2,M,19.2,M,,*51
$GPGSV,3,1,11,13,71,304,23,28,54,030,35,17,53,129,38,19,35,166,37*7D
$GPGSV,3,2,11,15,35,311,36,30,34,079,27,05,19,229,37,20,15,275,33*75
$GPGSV,3,3,11,07,11,094,25,24,08,295,12,11,04,053,*45
$GLGSV,3,1,09,75,47,356,28,65,44,249,33,85,37,110,39,66,25,316,34*6E
$GLGSV,3,2,09,84,25,050,26,74,23,057,31,76,21,293,16,72,19,196,40*6F
$GLGSV,3,3,09,86,12,162,24*52
$BDGSV,2,1,07,214,27,221,22,205,45,140,31,212,40,146,27,202,29,118,29*65
$BDGSV,2,2,07,208,28,059,,210,22,075,,211,04,189,*64
$GPGSA,A,3,05,07,13,15,17,19,20,24,28,30,,,2.9,1.7,2.4*3E
$GNGSA,A,3,05,07,13,15,17,19,20,24,28,30,,,2.9,1.7,2.4*20
$GNGSA,A,3,65,66,72,75,76,84,85,86,,,,,2.9,1.7,2.4*2D
$QZGSA,A,3,,,,,,,,,,,,,2.9,1.7,2.4*25
$IMGSA,A,3,,,,,,,,,,,,,2.9,1.7,2.4*2A
$BDGSA,A,3,,,,,,,,,,,,,2.9,1.7,2.4*28
$GPRMC,065001.00,A,3205.024395,N,03448.129413,E,001.7,266.3,170616,,,A*56
$GPGGA,065002.00,3205.023557,N,03448.126821,E,1,18,2.4,13.4,M,19.2,M,,*59
$GPGSV,3,1,11,13,71,304,23,28,54,030,38,17,53,129,38,19,35,166,36*71
$GPGSV,3,2,11,15,35,311,36,30,34,079,27,05,19,229,38,20,15,275,32*7B
$GPGSV,3,3,11,07,11,094,25,24,08,295,13,11,04,053,*44
$GLGSV,3,1,09,75,47,356,28,65,44,249,33,85,37,110,42,66,25,316,36*60
$GLGSV,3,2,09,84,25,050,27,74,23,057,31,76,21,293,16,72,19,196,39*60
$GLGSV,3,3,09,86,12,162,24*52
$BDGSV,2,1,07,214,27,221,22,205,45,140,32,212,40,146,29,202,29,118,28*69
$BDGSV,2,2,07,208,28,059,,210,22,075,,211,04,189,*64
$GPGSA,A,3,05,07,13,15,17,19,20,24,28,30,,,2.2,1.4,1.7*36
$GNGSA,A,3,05,07,13,15,17,19,20,24,28,30,,,2.2,1.4,1.7*28
$GNGSA,A,3,65,66,72,75,76,84,85,86,,,,,2.2,1.4,1.7*25
$QZGSA,A,3,,,,,,,,,,,,,2.2,1.4,1.7*2D
$IMGSA,A,3,,,,,,,,,,,,,2.2,1.4,1.7*22
$BDGSA,A,3,,,,,,,,,,,,,2.2,1.4,1.7*20
$GPRMC,065002.00,A,3205.023557,N,03448.126821,E,001.7,264.7,170616,,,A*5E
$GPGGA,065003.00,3205.022616,N,03448.126246,E,1,18,1.6,13.6,M,19.2,M,,*57
$GPGSV,3,1,11,13,71,303,23,28,54,030,38,17,53,129,37,19,35,166,36*79
$GPGSV,3,2,11,15,35,311,36,30,34,079,27,05,19,229,38,20,15,275,31*78
$GPGSV,3,3,11,07,11,095,25,24,08,295,14,11,04,053,*42
$GLGSV,3,1,09,75,47,356,29,65,44,249,33,85,37,110,42,66,25,316,35*62
$GLGSV,3,2,09,84,25,050,27,74,23,057,31,76,21,293,16,72,19,196,39*60
$GLGSV,3,3,09,86,12,162,24*52
$BDGSV,2,1,07,214,27,221,22,205,45,140,32,212,40,146,29,202,29,118,28*69
$BDGSV,2,2,07,208,28,059,,210,22,075,,211,04,189,*64
$GPGSA,A,3,05,07,13,15,17,19,20,24,28,30,,,3.6,2.1,2.9*38
$GNGSA,A,3,05,07,13,15,17,19,20,24,28,30,,,3.6,2.1,2.9*26
$GNGSA,A,3,65,66,72,75,76,84,85,86,,,,,3.6,2.1,2.9*2B
$QZGSA,A,3,,,,,,,,,,,,,3.6,2.1,2.9*23
$IMGSA,A,3,,,,,,,,,,,,,3.6,2.1,2.9*2C
$BDGSA,A,3,,,,,,,,,,,,,3.6,2.1,2.9*2E
$GPRMC,065003.00,A,3205.022616,N,03448.126246,E,001.7,258.8,170616,,,A*53
$GPGGA,065004.00,3205.021910,N,03448.125728,E,1,18,2.4,13.8,M,19.2,M,,*5B
$GPGSV,3,1,11,13,71,303,22,28,54,030,37,17,53,129,37,19,35,166,36*77
$GPGSV,3,2,11,15,35,311,36,30,34,079,27,05,19,229,38,20,15,275,31*78
$GPGSV,3,3,11,07,11,095,24,24,08,295,14,11,04,053,*43
$GLGSV,3,1,09,75,47,356,28,65,44,249,33,85,37,110,42,66,25,316,35*63
$GLGSV,3,2,09,84,25,050,27,74,23,057,31,76,21,293,17,72,19,196,38*60
$GLGSV,3,3,09,86,12,162,24*52
$BDGSV,2,1,07,214,27,221,21,205,45,140,32,212,40,146,33,202,29,118,28*61
$BDGSV,2,2,07,208,28,059,,210,22,075,,211,04,189,*64
$GPGSA,A,3,05,07,13,15,17,19,20,24,28,30,,,2.6,1.4,2.1*37
$GNGSA,A,3,05,07,13,15,17,19,20,24,28,30,,,2.6,1.4,2.1*29
$GNGSA,A,3,65,66,72,75,76,84,85,86,,,,,2.6,1.4,2.1*24
$QZGSA,A,3,,,,,,,,,,,,,2.6,1.4,2.1*2C
$IMGSA,A,3,,,,,,,,,,,,,2.6,1.4,2.1*23
$BDGSA,A,3,,,,,,,,,,,,,2.6,1.4,2.1*21
$GPRMC,065004.00,A,3205.021910,N,03448.125728,E,001.7,258.3,170616,,,A*5B
$GPGGA,065005.00,3205.021091,N,03448.125260,E,1,18,2.4,14.0,M,19.2,M,,*5C
$GPGSV,3,1,11,13,71,303,22,17,53,129,37,28,53,030,37,19,35,166,36*70
$GPGSV,3,2,11,15,35,311,36,30,34,079,27,05,19,229,38,20,15,275,30*79
$GPGSV,3,3,11,07,11,095,24,24,08,295,14,11,04,053,*43
$GLGSV,3,1,09,75,47,356,28,65,44,249,33,85,37,110,42,66,25,316,35*63
$GLGSV,3,2,09,84,25,050,28,74,23,057,31,76,21,293,20,72,19,196,38*6B
$GLGSV,3,3,09,86,12,162,26*50
$BDGSV,2,1,07,214,27,221,21,205,45,140,32,212,40,146,35,202,29,118,28*67
$BDGSV,2,2,07,208,28,059,,210,22,075,,211,04,189,*64
$GPGSA,A,3,05,07,13,15,17,19,20,24,28,30,,,2.1,1.3,1.6*33
$GNGSA,A,3,05,07,13,15,17,19,20,24,28,30,,,2.1,1.3,1.6*2D
$GNGSA,A,3,65,66,72,75,76,84,85,86,,,,,2.1,1.3,1.6*20
$QZGSA,A,3,,,,,,,,,,,,,2.1,1.3,1.6*28
$IMGSA,A,3,,,,,,,,,,,,,2.1,1.3,1.6*27
$BDGSA,A,3,,,,,,,,,,,,,2.1,1.3,1.6*25
$GPRMC,065005.00,A,3205.021091,N,03448.125260,E,001.5,258.3,170616,,,A*51
$GPGGA,065006.00,3205.020427,N,03448.124794,E,1,18,2.4,14.3,M,19.2,M,,*5B
$GPGSV,3,1,11,13,71,303,22,17,53,129,39,28,53,030,37,19,35,166,37*7F
$GPGSV,3,2,11,15,35,311,36,30,34,079,27,05,19,229,37,20,15,275,29*7E
$GPGSV,3,3,11,07,11,095,24,24,08,295,14,11,04,053,*43
$GLGSV,3,1,09,75,47,356,28,65,44,249,32,85,37,110,41,66,25,316,35*61
$GLGSV,3,2,09,84,25,050,29,74,23,057,30,76,21,293,20,72,19,196,37*64
$GLGSV,3,3,09,86,12,162,26*50
$BDGSV,2,1,07,214,27,221,20,205,45,140,32,212,40,146,35,202,29,118,28*66
$BDGSV,2,2,07,208,28,059,,210,22,075,,211,04,189,*64
$GPGSA,A,3,05,07,13,15,17,19,20,24,28,30,,,2.6,1.4,2.1*37
$GNGSA,A,3,05,07,13,15,17,19,20,24,28,30,,,2.6,1.4,2.1*29
$GNGSA,A,3,65,66,72,75,76,84,85,86,,,,,2.6,1.4,2.1*24
$QZGSA,A,3,,,,,,,,,,,,,2.6,1.4,2.1*2C
$IMGSA,A,3,,,,,,,,,,,,,2.6,1.4,2.1*23
$BDGSA,A,3,,,,,,,,,,,,,2.6,1.4,2.1*21
$GPRMC,065006.00,A,3205.020427,N,03448.124794,E,001.7,268.1,170616,,,A*56
$GPGGA,065007.00,3205.019635,N,03448.124482,E,1,18,2.4,14.6,M,19.2,M,,*50
$GPGSV,3,1,11,13,71,303,22,17,53,129,39,28,53,030,36,19,35,166,37*7E
$GPGSV,3,2,11,15,35,311,36,30,34,079,26,05,19,229,37,20,15,274,29*7E
$GPGSV,3,3,11,07,11,095,23,24,08,295,14,11,04,053,*44
$GLGSV,3,1,09,75,47,356,27,65,44,249,32,85,37,110,41,66,25,316,34*6F
$GLGSV,3,2,09,84,25,050,29,74,23,057,31,76,21,293,21,72,19,196,37*64
$GLGSV,3,3,09,86,12,162,27*51
$BDGSV,2,1,07,214,27,221,20,205,45,140,32,212,40,146,35,202,29,118,28*66
$BDGSV,2,2,07,208,28,059,,210,22,075,,211,04,189,*64
$GPGSA,A,3,05,07,13,15,17,19,20,24,28,30,,,1.9,1.0,1.5*38
$GNGSA,A,3,05,07,13,15,17,19,20,24,28,30,,,1.9,1.0,1.5*26
$GNGSA,A,3,65,66,72,75,76,84,85,86,,,,,1.9,1.0,1.5*2B
$QZGSA,A,3,,,,,,,,,,,,,1.9,1.0,1.5*23
$IMGSA,A,3,,,,,,,,,,,,,1.9,1.0,1.5*2C
$BDGSA,A,3,,,,,,,,,,,,,1.9,1.0,1.5*2E
$GPRMC,065007.00,A,3205.019635,N,03448.124482,E,001.7,262.5,170616,,,A*56
$GPGGA,065008.00,3205.018747,N,03448.124046,E,1,18,2.4,14.9,M,19.2,M,,*59
$GPGSV,3,1,11,13,71,303,21,17,53,129,39,28,53,030,36,19,35,166,40*7D
$GPGSV,3,2,11,15,35,311,36,30,34,079,27,05,19,229,39,20,15,274,28*70
$GPGSV,3,3,11,07,11,095,23,24,08,295,14,11,04,053,*44
$GLGSV,3,1,09,75,47,357,27,65,44,249,32,85,37,110,40,66,25,316,34*6F
$GLGSV,3,2,09,84,25,050,29,74,23,057,31,76,21,293,21,72,19,196,36*65
$GLGSV,3,3,09,86,12,162,28*5E
$BDGSV,2,1,07,214,27,221,21,205,45,140,33,212,40,146,36,202,29,118,28*65
$BDGSV,2,2,07,208,28,059,,210,22,075,,211,04,189,*64
$GPGSA,A,3,05,07,13,15,17,19,20,24,28,30,,,2.7,1.6,2.2*37
$GNGSA,A,3,05,07,13,15,17,19,20,24,28,30,,,2.7,1.6,2.2*29
$GNGSA,A,3,65,66,72,75,76,84,85,86,,,,,2.7,1.6,2.2*24
$QZGSA,A,3,,,,,,,,,,,,,2.7,1.6,2.2*2C
$IMGSA,A,3,,,,,,,,,,,,,2.7,1.6,2.2*23
$BDGSA,A,3,,,,,,,,,,,,,2.7,1.6,2.2*21
$GPRMC,065008.00,A,3205.018747,N,03448.124046,E,001.8,258.6,170616,,,A*55
$GPGGA,065009.00,3205.017964,N,03448.123188,E,1,17,1.6,15.2,M,19.2,M,,*58
$GPGSV,3,1,11,13,71,303,21,17,53,129,39,28,53,030,36,19,35,166,43*7E
$GPGSV,3,2,11,15,35,311,36,30,34,079,27,05,19,229,40,20,15,274,27*71
$GPGSV,3,3,11,07,11,095,22,24,08,295,14,11,04,053,*45
$GLGSV,3,1,09,75,47,357,27,65,44,249,32,85,37,110,39,66,25,316,34*61
$GLGSV,3,2,09,84,25,050,28,74,23,057,31,76,21,293,20,72,19,196,36*65
$GLGSV,3,3,09,86,12,162,28*5E
$BDGSV,2,1,07,214,27,221,21,205,45,140,32,212,40,146,38,202,29,118,27*65
$BDGSV,2,2,07,208,28,059,,210,22,075,,211,04,189,*64
$GPGSA,A,3,05,07,13,15,17,19,20,28,30,,,,2.7,1.6,2.2*31
$GNGSA,A,3,05,07,13,15,17,19,20,28,30,,,,2.7,1.6,2.2*2F
$GNGSA,A,3,65,66,72,75,76,84,85,86,,,,,2.7,1.6,2.2*24
$QZGSA,A,3,,,,,,,,,,,,,2.7,1.6,2.2*2C
$IMGSA,A,3,,,,,,,,,,,,,2.7,1.6,2.2*23
$BDGSA,A,3,,,,,,,,,,,,,2.7,1.6,2.2*21
$GPRMC,065009.00,A,3205.017964,N,03448.123188,E,001.8,267.8,170616,,,A*52
$GPGGA,065010.00,3205.017366,N,03448.122205,E,1,18,1.6,15.5,M,19.2,M,,*57
$GPGSV,3,1,11,13,71,303,21,17,53,129,39,28,53,030,36,19,35,166,43*7E
$GPGSV,3,2,11,15,35,311,35,30,34,079,27,05,19,229,40,20,15,274,27*72
$GPGSV,3,3,11,07,11,095,22,24,08,295,13,11,04,053,*42
$GLGSV,3,1,09,75,47,357,26,65,44,249,31,85,37,110,39,66,25,316,34*63
$GLGSV,3,2,09,84,25,050,28,74,23,057,31,76,21,293,20,72,19,196,35*66
$GLGSV,3,3,09,86,12,162,29*5F
$BDGSV,2,1,07,214,27,221,21,205,45,140,32,212,40,146,38,202,29,118,27*65
$BDGSV,2,2,07,208,28,059,,210,22,075,,211,04,189,*64
$GPGSA,A,3,05,07,13,15,17,19,20,24,28,30,,,2.5,1.5,2.0*34
$GNGSA,A,3,05,07,13,15,17,19,20,24,28,30,,,2.5,1.5,2.0*2A
$GNGSA,A,3,65,66,72,75,76,84,85,86,,,,,2.5,1.5,2.0*27
$QZGSA,A,3,,,,,,,,,,,,,2.5,1.5,2.0*2F
$IMGSA,A,3,,,,,,,,,,,,,2.5,1.5,2.0*20
$BDGSA,A,3,,,,,,,,,,,,,2.5,1.5,2.0*22
$GPRMC,065010.00,A,3205.017366,N,03448.122205,E,001.9,259.5,170616,,,A*54
$GPGGA,065011.00,3205.016909,N,03448.119326,E,1,18,1.6,16.0,M,19.2,M,,*5A
$GPGSV,3,1,11,13,71,303,20,17,53,129,39,28,53,030,36,19,35,166,42*7E
$GPGSV,3,2,11,15,35,311,35,30,34,079,27,05,19,229,39,20,15,274,26*7D
$GPGSV,3,3,11,07,11,095,22,24,08,295,13,11,04,053,*42
$GLGSV,3,1,09,75,47,357,26,65,44,249,31,85,37,110,38,66,25,316,34*62
$GLGSV,3,2,09,84,25,050,28,74,23,057,30,76,21,293,20,72,19,196,35*67
$GLGSV,3,3,09,86,12,162,29*5F
$BDGSV,2,1,07,214,27,221,21,205,45,140,32,212,40,146,38,202,29,118,30*63
$BDGSV,2,2,07,208,28,059,,210,22,075,,211,04,189,*64
$GPGSA,A,3,05,07,13,15,17,19,20,24,28,30,,,2.2,1.2,1.9*3E
$GNGSA,A,3,05,07,13,15,17,19,20,24,28,30,,,2.2,1.2,1.9*20
$GNGSA,A,3,65,66,72,75,76,84,85,86,,,,,2.2,1.2,1.9*2D
$QZGSA,A,3,,,,,,,,,,,,,2.2,1.2,1.9*25
$IMGSA,A,3,,,,,,,,,,,,,2.2,1.2,1.9*2A
$BDGSA,A,3,,,,,,,,,,,,,2.2,1.2,1.9*28
$GPRMC,065011.00,A,3205.016909,N,03448.119326,E,001.9,270.3,170616,,,A*52
$GPGGA,065012.00,3205.016904,N,03448.119319,E,1,17,1.6,16.5,M,19.2,M,,*52
$GPGSV,3,1,11,13,71,303,22,17,53,129,39,28,53,030,36,19,35,166,42*7C
$GPGSV,3,2,11,15,35,311,35,30,34,080,27,05,19,229,39,20,15,274,26*7B
$GPGSV,3,3,11,07,11,095,22,24,08,295,13,11,04,053,*42
$GLGSV,3,1,09,75,47,357,25,65,44,249,31,85,37,110,37,66,25,316,33*69
$GLGSV,3,2,09,84,25,050,28,74,23,057,31,76,21,293,19,72,19,196,34*6D
$GLGSV,3,3,09,86,12,162,29*5F
$BDGSV,2,1,07,214,27,221,20,205,45,140,32,212,40,146,37,202,29,118,33*6E
$BDGSV,2,2,07,208,28,059,,210,22,075,,211,04,189,*64
$GPGSA,A,3,05,07,13,15,17,19,20,28,30,,,,2.3,1.3,1.9*38
$GNGSA,A,3,05,07,13,15,17,19,20,28,30,,,,2.3,1.3,1.9*26
$GNGSA,A,3,65,66,72,75,76,84,85,86,,,,,2.3,1.3,1.9*2D
$QZGSA,A,3,,,,,,,,,,,,,2.3,1.3,1.9*25
$IMGSA,A,3,,,,,,,,,,,,,2.3,1.3,1.9*2A
$BDGSA,A,3,,,,,,,,,,,,,2.3,1.3,1.9*28
$GPRMC,065012.00,A,3205.016904,N,03448.119319,E,000.8,270.3,170616,,,A*50
$GPGGA,065013.00,3205.016904,N,03448.119319,E,1,17,1.6,16.6,M,19.2,M,,*50
$GPGSV,3,1,11,13,71,303,22,17,53,129,39,28,53,030,36,19,35,166,41*7F
$GPGSV,3,2,11,15,35,311,35,30,34,080,29,05,19,229,38,20,15,274,26*74
$GPGSV,3,3,11,07,11,095,22,24,08,295,13,11,04,053,*42
$GLGSV,3,1,09,75,47,357,25,65,44,249,30,85,37,110,36,66,25,316,37*6D
$GLGSV,3,2,09,84,25,050,27,74,23,057,31,76,21,293,19,72,19,196,33*65
$GLGSV,3,3,09,86,12,162,29*5F
$BDGSV,2,1,07,214,27,221,19,205,45,140,31,212,40,146,37,202,29,118,33*67
$BDGSV,2,2,07,208,28,059,,210,22,075,,211,04,189,*64
$GPGSA,A,3,05,07,13,15,17,19,20,28,30,,,,1.9,1.2,1.5*3C
$GNGSA,A,3,05,07,13,15,17,19,20,28,30,,,,1.9,1.2,1.5*22
$GNGSA,A,3,65,66,72,75,76,84,85,86,,,,,1.9,1.2,1.5*29
$QZGSA,A,3,,,,,,,,,,,,,1.9,1.2,1.5*21
$IMGSA,A,3,,,,,,,,,,,,,1.9,1.2,1.5*2E
$BDGSA,A,3,,,,,,,,,,,,,1.9,1.2,1.5*2C
$GPRMC,065013.00,A,3205.016904,N,03448.119319,E,000.0,270.3,170616,,,A*59
$GPGGA,065014.00,3205.016904,N,03448.119319,E,1,17,1.6,16.6,M,19.2,M,,*57
$GPGSV,3,1,11,13,71,303,22,17,53,129,38,28,53,030,39,19,35,166,41*71
$GPGSV,3,2,11,15,35,311,35,30,34,080,29,05,19,229,37,20,15,274,25*78
$GPGSV,3,3,11,07,11,095,27,24,08,295,13,11,04,053,*47
$GLGSV,3,1,09,75,47,357,25,65,44,249,32,85,37,110,35,66,25,316,37*6C
$GLGSV,3,2,09,84,25,050,27,74,23,057,32,76,21,293,19,72,19,196,35*60
$GLGSV,3,3,09,86,12,161,29*5C
$BDGSV,2,1,07,214,27,221,19,205,45,140,31,212,40,146,37,202,29,118,32*66
$BDGSV,2,2,07,208,28,059,,210,22,075,,211,04,189,*64
$GPGSA,A,3,05,07,13,15,17,19,20,28,30,,,,2.5,1.4,2.1*32
$GNGSA,A,3,05,07,13,15,17,19,20,28,30,,,,2.5,1.4,2.1*2C
$GNGSA,A,3,65,66,72,75,76,84,85,86,,,,,2.5,1.4,2.1*27
$QZGSA,A,3,,,,,,,,,,,,,2.5,1.4,2.1*2F
$IMGSA,A,3,,,,,,,,,,,,,2.5,1.4,2.1*20
$BDGSA,A,3,,,,,,,,,,,,,2.5,1.4,2.1*22
$GPRMC,065014.00,A,3205.016904,N,03448.119319,E,000.0,270.3,170616,,,A*5E
$GPGGA,065015.00,3205.016904,N,03448.119319,E,1,18,1.6,17.4,M,19.2,M,,*5A
$GPGSV,3,1,11,13,71,303,24,17,53,129,38,28,53,030,39,19,35,166,41*77
$GPGSV,3,2,11,15,35,311,35,30,34,080,29,05,19,229,37,20,15,274,25*78
$GPGSV,3,3,11,07,11,095,30,24,08,295,13,11,04,053,*41
$GLGSV,3,1,09,75,47,357,25,65,44,249,32,85,37,110,35,66,25,316,37*6C
$GLGSV,3,2,09,84,25,050,27,74,23,057,32,76,21,293,18,72,19,196,35*61
$GLGSV,3,3,09,86,12,161,29*5C
$BDGSV,2,1,07,214,27,221,19,205,45,140,32,212,40,146,36,202,29,118,32*64
$BDGSV,2,2,07,208,28,059,,210,22,075,,211,04,189,*64
$GPGSA,A,3,05,07,11,13,15,17,19,20,28,30,,,2.4,1.4,1.9*38
$GNGSA,A,3,05,07,11,13,15,17,19,20,28,30,,,2.4,1.4,1.9*26
$GNGSA,A,3,65,66,72,75,76,84,85,86,,,,,2.4,1.4,1.9*2D
$QZGSA,A,3,,,,,,,,,,,,,2.4,1.4,1.9*25
$IMGSA,A,3,,,,,,,,,,,,,2.4,1.4,1.9*2A
$BDGSA,A,3,,,,,,,,,,,,,2.4,1.4,1.9*28
$GPRMC,065015.00,A,3205.016904,N,03448.119319,E,000.5,270.3,170616,,,A*5A
$GPGGA,065016.00,3205.016904,N,03448.119319,E,1,17,3.2,17.5,M,19.2,M,,*51
$GPGSV,3,1,11,13,71,303,24,17,53,129,38,28,53,030,39,19,35,166,40*76
$GPGSV,3,2,11,15,35,311,35,30,34,080,28,05,19,229,36,20,15,274,25*78
$GPGSV,3,3,11,07,11,095,31,24,08,295,13,11,04,053,*40
$GLGSV,3,1,09,75,47,357,24,65,44,249,31,85,37,110,34,66,25,316,38*60
$GLGSV,3,2,09,84,25,050,27,74,23,057,32,76,21,293,18,72,19,196,34*60
$GLGSV,3,3,09,86,12,161,29*5C
$BDGSV,2,1,07,214,27,221,18,205,45,140,32,212,40,146,36,202,29,118,31*66
$BDGSV,2,2,07,208,28,059,,210,22,075,,211,04,189,*64
$GPGSA,A,3,05,07,13,15,17,19,20,28,30,,,,2.3,1.2,1.9*39
$GNGSA,A,3,05,07,13,15,17,19,20,28,30,,,,2.3,1.2,1.9*27
$GNGSA,A,3,65,66,72,75,76,84,85,86,,,,,2.3,1.2,1.9*2C
$QZGSA,A,3,,,,,,,,,,,,,2.3,1.2,1.9*24
$IMGSA,A,3,,,,,,,,,,,,,2.3,1.2,1.9*2B
$BDGSA,A,3,,,,,,,,,,,,,2.3,1.2,1.9*29
$GPRMC,065016.00,A,3205.016904,N,03448.119319,E,000.0,270.3,170616,,,A*5C
$GPGGA,065017.00,3205.016904,N,03448.119319,E,1,17,2.4,17.6,M,19.2,M,,*54
$GPGSV,3,1,11,13,71,303,24,17,53,129,37,28,53,030,39,19,35,166,40*79
$GPGSV,3,2,11,15,35,311,35,30,34,080,28,05,19,229,36,20,15,274,25*78
$GPGSV,3,3,11,07,11,095,31,24,08,295,12,11,04,053,*41
$GLGSV,3,1,09,75,47,357,24,65,44,249,31,85,37,110,33,66,25,316,38*67
$GLGSV,3,2,09,84,25,050,27,74,23,057,36,76,21,293,18,72,19,196,34*64
$GLGSV,3,3,09,86,12,161,29*5C
$BDGSV,2,1,07,214,27,221,19,205,45,140,32,212,40,146,36,202,29,118,30*66
$BDGSV,2,2,07,208,28,059,,210,22,075,,211,04,189,*64
$GPGSA,A,3,05,07,13,15,17,19,20,28,30,,,,2.1,1.2,1.8*3A
$GNGSA,A,3,05,07,13,15,17,19,20,28,30,,,,2.1,1.2,1.8*24
$GNGSA,A,3,65,66,72,75,76,84,85,86,,,,,2.1,1.2,1.8*2F
$QZGSA,A,3,,,,,,,,,,,,,2.1,1.2,1.8*27
$IMGSA,A,3,,,,,,,,,,,,,2.1,1.2,1.8*28
$BDGSA,A,3,,,,,,,,,,,,,2.1,1.2,1.8*2A
$GPRMC,065017.00,A,3205.016904,N,03448.119319,E,000.0,270.3,170616,,,A*5D
$GPGGA,065018.00,3205.016839,N,03448.119585,E,1,17,3.2,18.2,M,19.2,M,,*5B
$GPGSV,3,1,11,13,71,303,23,17,53,129,37,28,53,030,38,19,35,166,39*71
$GPGSV,3,2,11,15,35,311,36,30,34,080,28,05,19,229,35,20,15,274,25*78
$GPGSV,3,3,11,07,11,095,31,24,08,295,12,11,04,053,*41
$GLGSV,3,1,09,75,47,357,24,65,44,249,31,85,37,110,33,66,25,316,37*68
$GLGSV,3,2,09,84,25,050,26,74,23,057,35,76,21,293,17,72,19,196,34*69
$GLGSV,3,3,09,86,12,161,28*5D
$BDGSV,2,1,07,214,27,221,19,205,45,140,31,212,40,146,35,202,29,118,29*6E
$BDGSV,2,2,07,208,28,059,,210,22,075,,211,04,189,*64
$GPGSA,A,3,05,07,13,15,17,19,20,28,30,,,,2.3,1.4,1.9*3F
$GNGSA,A,3,05,07,13,15,17,19,20,28,30,,,,2.3,1.4,1.9*21
$GNGSA,A,3,65,66,72,75,76,84,85,86,,,,,2.3,1.4,1.9*2A
$QZGSA,A,3,,,,,,,,,,,,,2.3,1.4,1.9*22
$IMGSA,A,3,,,,,,,,,,,,,2.3,1.4,1.9*2D
$BDGSA,A,3,,,,,,,,,,,,,2.3,1.4,1.9*2F
$GPRMC,065018.00,A,3205.016839,N,03448.119585,E,001.3,270.3,170616,,,A*5C
$GPGGA,065019.00,3205.016246,N,03448.119833,E,1,17,2.4,18.9,M,19.2,M,,*54
$GPGSV,3,1,11,13,71,303,22,17,53,129,36,28,53,030,37,19,35,166,38*7F
$GPGSV,3,2,11,15,35,311,35,30,34,080,27,05,19,229,34,20,15,274,25*75
$GPGSV,3,3,11,07,11,095,30,24,08,295,12,11,04,053,*40
$GLGSV,3,1,09,75,47,357,23,65,44,249,30,85,37,110,32,66,25,316,37*6F
$GLGSV,3,2,09,84,25,050,26,74,23,057,35,76,21,293,17,72,19,196,33*6E
$GLGSV,3,3,09,86,12,161,27*52
$BDGSV,2,1,07,214,27,221,19,205,45,140,31,212,40,146,34,202,29,118,28*6E
$BDGSV,2,2,07,208,28,059,,210,22,075,,211,04,189,*64
$GPGSA,A,3,05,07,13,15,17,19,20,28,30,,,,2.2,1.2,1.9*38
$GNGSA,A,3,05,07,13,15,17,19,20,28,30,,,,2.2,1.2,1.9*26
$GNGSA,A,3,65,66,72,75,76,84,85,86,,,,,2.2,1.2,1.9*2D
$QZGSA,A,3,,,,,,,,,,,,,2.2,1.2,1.9*25
$IMGSA,A,3,,,,,,,,,,,,,2.2,1.2,1.9*2A
$BDGSA,A,3,,,,,,,,,,,,,2.2,1.2,1.9*28
$GPRMC,065019.00,A,3205.016246,N,03448.119833,E,001.2,270.3,170616,,,A*5E
$GPGGA,065020.00,3205.015542,N,03448.120044,E,1,18,2.4,19.6,M,19.2,M,,*5D
$GPGSV,3,1,11,13,71,303,22,17,53,129,35,28,53,030,37,19,35,166,37*73
$GPGSV,3,2,11,15,35,311,39,30,34,080,27,05,19,229,33,20,15,274,27*7C
$GPGSV,3,3,11,07,11,095,29,24,08,295,12,11,04,053,*48
$GLGSV,3,1,09,75,47,357,24,65,44,249,30,85,37,110,32,66,25,316,36*69
$GLGSV,3,2,09,84,25,050,25,74,23,057,35,76,21,293,17,72,19,196,33*6D
$GLGSV,3,3,09,86,12,161,27*52
$BDGSV,2,1,07,214,27,221,19,205,45,140,32,212,40,146,33,202,29,118,27*65
$BDGSV,2,2,07,208,28,059,,210,22,075,,211,04,189,*64
$GPGSA,A,3,05,07,11,13,15,17,19,20,28,30,,,2.6,1.7,2.0*33
$GNGSA,A,3,05,07,11,13,15,17,19,20,28,30,,,2.6,1.7,2.0*2D
$GNGSA,A,3,65,66,72,75,76,84,85,86,,,,,2.6,1.7,2.0*26
$QZGSA,A,3,,,,,,,,,,,,,2.6,1.7,2.0*2E
$IMGSA,A,3,,,,,,,,,,,,,2.6,1.7,2.0*21
$BDGSA,A,3,,,,,,,,,,,,,2.6,1.7,2.0*23
$GPRMC,065020.00,A,3205.015542,N,03448.120044,E,000.8,270.3,170616,,,A*5D
$GPGGA,065021.00,3205.012391,N,03448.122248,E,1,17,4.8,20.2,M,19.2,M,,*54
$GPGSV,3,1,11,13,71,303,22,17,53,129,38,28,53,030,36,19,35,166,37*7F
$GPGSV,3,2,11,15,35,311,39,30,34,080,27,05,19,229,33,20,15,274,27*7C
$GPGSV,3,3,11,07,11,095,29,24,08,295,12,11,04,053,*48
$GLGSV,3,1,09,75,47,357,27,65,44,249,30,85,37,110,33,66,25,316,36*6B
$GLGSV,3,2,09,84,25,050,26,74,23,057,34,76,21,293,16,72,19,196,33*6E
$GLGSV,3,3,09,86,12,161,26*53
$BDGSV,2,1,07,214,27,221,19,205,45,140,32,212,40,146,33,202,29,118,26*64
$BDGSV,2,2,07,208,28,059,,210,22,075,,211,05,189,*65
$GPGSA,A,3,05,07,13,15,17,19,20,28,30,,,,2.2,1.0,1.9*3A
