$GPGGA,065255.93,,,,,0,00,999.9,,M,,M,,*6D
$GPGSV,3,1,11,13,72,300,,17,54,127,,28,52,031,,15,36,310,*70
$GPGSV,3,2,11,19,36,165,,30,33,081,,05,18,228,,20,15,273,*79
$GPGSV,3,3,11,07,10,096,,24,09,296,,11,04,052,*41
$GLGSV,3,1,09,75,47,359,,65,43,247,,85,38,108,,66,26,315,*69
$GLGSV,3,2,09,84,25,048,,76,22,294,,74,22,058,,72,17,195,*64
$GLGSV,3,3,09,86,13,161,*56
$BDGSV,2,1,07,205,45,140,,212,41,145,,202,29,118,,208,28,058,*65
$BDGSV,2,2,07,214,26,220,,210,22,076,,211,05,189,*69
$GPGSA,A,1,,,,,,,,,,,,,140.0,99.0,99.0*35
$GNGSA,A,1,,,,,,,,,,,,,140.0,99.0,99.0*2B
$GNGSA,A,1,,,,,,,,,,,,,140.0,99.0,99.0*2B
$QZGSA,A,1,,,,,,,,,,,,,140.0,99.0,99.0*29
$IMGSA,A,1,,,,,,,,,,,,,140.0,99.0,99.0*26
$BDGSA,A,1,,,,,,,,,,,,,140.0,99.0,99.0*24
$GPRMC,065255.93,V,,,,,,,170616,,,N*71
$GPGGA,065256.73,,,,,0,00,999.9,,M,,M,,*60
$GPGSV,3,1,11,20,15,273,37,13,72,300,,17,54,127,,28,52,031,*77
$GPGSV,3,2,11,19,36,165,,15,36,310,,30,33,081,,05,18,228,*7A
$GPGSV,3,3,11,07,10,096,,24,09,296,,11,04,052,*41
$GLGSV,3,1,09,75,47,359,,65,43,247,,85,38,108,,66,26,315,*69
$GLGSV,3,2,09,84,25,048,,74,22,058,,76,22,294,,72,17,195,*64
$GLGSV,3,3,09,86,13,161,*56
$BDGSV,2,1,07,205,45,140,,212,41,145,,202,29,118,,208,28,058,*65
$BDGSV,2,2,07,214,26,220,,210,22,076,,211,05,189,*69
$GPGSA,A,1,,,,,,,,,,,,,140.0,99.0,99.0*35
$GNGSA,A,1,,,,,,,,,,,,,140.0,99.0,99.0*2B
$GNGSA,A,1,,,,,,,,,,,,,140.0,99.0,99.0*2B
$QZGSA,A,1,,,,,,,,,,,,,140.0,99.0,99.0*29
$IMGSA,A,1,,,,,,,,,,,,,140.0,99.0,99.0*26
$BDGSA,A,1,,,,,,,,,,,,,140.0,99.0,99.0*24
$GPRMC,065256.73,V,,,,,,,170616,,,N*7C
$GPGGA,065256.93,,,,,0,00,999.9,,M,,M,,*6E
$GPGSV,3,1,11,13,72,300,29,17,54,127,37,28,52,031,27,19,36,165,32*77
$GPGSV,3,2,11,15,36,310,28,05,18,228,22,20,15,273,37,30,33,081,*7B
$GPGSV,3,3,11,07,10,096,,24,09,296,,11,04,052,*41
$GLGSV,3,1,09,75,47,359,,65,43,247,,85,38,108,,66,26,315,*69
$GLGSV,3,2,09,84,25,048,,76,22,294,,74,22,058,,72,17,195,*64
$GLGSV,3,3,09,86,13,161,*56
$BDGSV,2,1,07,212,41,145,37,205,45,140,,202,29,118,,208,28,058,*61
$BDGSV,2,2,07,214,26,220,,210,22,076,,211,05,189,*69
$GPGSA,A,1,,,,,,,,,,,,,140.0,99.0,99.0*35
$GNGSA,A,1,,,,,,,,,,,,,140.0,99.0,99.0*2B
$GNGSA,A,1,,,,,,,,,,,,,140.0,99.0,99.0*2B
$QZGSA,A,1,,,,,,,,,,,,,140.0,99.0,99.0*29
$IMGSA,A,1,,,,,,,,,,,,,140.0,99.0,99.0*26
$BDGSA,A,1,,,,,,,,,,,,,140.0,99.0,99.0*24
$GPRMC,065256.93,V,,,,,,,170616,,,N*72
$GPGGA,065257.86,3205.013478,N,03448.163444,E,1,07,3.2,80.0,M,19.2,M,,*53
$GPGSV,3,1,11,13,72,300,29,17,54,127,37,28,52,031,28,19,36,165,32*78
$GPGSV,3,2,11,15,36,310,28,05,18,228,23,20,15,273,37,30,33,081,*7A
$GPGSV,3,3,11,07,10,096,,24,09,296,,11,04,052,*41
$GLGSV,3,1,09,75,47,359,,65,43,247,,85,38,108,,66,26,315,*69
$GLGSV,3,2,09,84,25,048,,74,22,058,,76,22,294,,72,17,195,*64
$GLGSV,3,3,09,86,13,161,*56
$BDGSV,2,1,07,205,45,140,29,212,41,145,37,202,29,118,,208,28,058,*6A
$BDGSV,2,2,07,214,26,220,,210,22,076,,211,05,189,*69
$GPGSA,A,3,05,13,15,17,19,20,28,,,,,,3.4,1.6,2.9*3C
$GNGSA,A,3,05,13,15,17,19,20,28,,,,,,3.4,1.6,2.9*22
$GNGSA,A,3,,,,,,,,,,,,,3.4,1.6,2.9*27
$QZGSA,A,3,,,,,,,,,,,,,3.4,1.6,2.9*25
$IMGSA,A,3,,,,,,,,,,,,,3.4,1.6,2.9*2A
$BDGSA,A,3,,,,,,,,,,,,,3.4,1.6,2.9*28
$GPRMC,065257.86,A,3205.013478,N,03448.163444,E,002.9,280.4,170616,,,A*57
$GPGGA,065258.94,3205.027843,N,03448.167326,E,1,08,1.6,49.8,M,19.2,M,,*5F
$GPGSV,3,1,11,13,72,300,28,17,54,127,36,28,52,031,32,15,36,310,28*74
$GPGSV,3,2,11,19,36,165,31,30,33,081,24,05,18,228,22,20,15,273,37*79
$GPGSV,3,3,11,07,10,096,13,24,09,296,16,11,04,052,*44
$GLGSV,3,1,09,84,25,048,26,75,47,359,,65,43,247,,85,38,108,*69
$GLGSV,3,2,09,66,26,315,,76,22,294,,74,22,059,,72,17,195,*61
$GLGSV,3,3,09,86,13,161,*56
$BDGSV,2,1,07,205,45,140,29,212,41,145,37,202,29,118,,208,28,058,*6A
$BDGSV,2,2,07,214,26,220,,210,22,076,,211,05,189,*69
$GPGSA,A,3,05,13,15,17,19,20,28,30,,,,,2.6,1.2,2.3*32
$GNGSA,A,3,05,13,15,17,19,20,28,30,,,,,2.6,1.2,2.3*2C
$GNGSA,A,3,,,,,,,,,,,,,2.6,1.2,2.3*2A
$QZGSA,A,3,,,,,,,,,,,,,2.6,1.2,2.3*28
$IMGSA,A,3,,,,,,,,,,,,,2.6,1.2,2.3*27
$BDGSA,A,3,,,,,,,,,,,,,2.6,1.2,2.3*25
$GPRMC,065258.94,A,3205.027843,N,03448.167326,E,001.8,312.7,170616,,,A*54
$GPGGA,065259.92,3205.027321,N,03448.164995,E,1,12,4.8,22.6,M,19.2,M,,*55
$GPGSV,3,1,11,13,72,300,28,17,54,127,36,28,52,031,34,15,36,310,28*72
$GPGSV,3,2,11,19,36,165,31,30,33,081,24,05,18,228,22,20,15,273,40*79
$GPGSV,3,3,11,07,10,096,13,24,09,296,18,11,04,052,*4A
$GLGSV,3,1,09,75,47,359,31,65,43,247,34,84,25,048,25,85,38,108,*6F
$GLGSV,3,2,09,66,26,315,,76,22,294,,74,22,059,,72,17,195,*61
$GLGSV,3,3,09,86,13,161,*56
$BDGSV,2,1,07,205,45,140,30,212,41,145,37,202,29,118,,208,28,058,*62
$BDGSV,2,2,07,214,26,220,,210,22,076,,211,05,189,*69
$GPGSA,A,3,05,13,15,17,19,20,24,28,30,,,,2.8,1.4,2.4*3B
$GNGSA,A,3,05,13,15,17,19,20,24,28,30,,,,2.8,1.4,2.4*25
$GNGSA,A,3,65,75,84,,,,,,,,,,2.8,1.4,2.4*28
$QZGSA,A,3,,,,,,,,,,,,,2.8,1.4,2.4*27
$IMGSA,A,3,,,,,,,,,,,,,2.8,1.4,2.4*28
$BDGSA,A,3,,,,,,,,,,,,,2.8,1.4,2.4*2A
$GPRMC,065259.92,A,3205.027321,N,03448.164995,E,,,170616,,,A*53
$GPGGA,065300.92,3205.026457,N,03448.162935,E,1,15,3.2,0.0,M,19.2,M,,*6F
$GPGSV,3,1,11,13,72,300,28,17,54,127,37,28,52,031,37,19,36,165,31*74
$GPGSV,3,2,11,15,36,310,28,30,33,081,26,05,18,228,23,20,15,273,40*7E
$GPGSV,3,3,11,07,10,096,12,24,09,296,19,11,04,052,*4A
$GLGSV,3,1,09,75,47,359,31,65,43,247,33,66,26,315,25,84,25,048,25*63
$GLGSV,3,2,09,72,17,195,23,86,13,161,20,85,38,108,,74,22,059,*6A
$GLGSV,3,3,09,76,22,294,*52
$BDGSV,2,1,07,205,45,140,31,212,41,145,38,202,29,118,,208,28,058,*6C
$BDGSV,2,2,07,214,26,220,,210,22,076,,211,05,189,*69
$GPGSA,A,3,05,13,15,17,19,20,24,28,30,,,,2.1,1.3,1.6*34
$GNGSA,A,3,05,13,15,17,19,20,24,28,30,,,,2.1,1.3,1.6*2A
$GNGSA,A,3,65,66,72,75,84,86,,,,,,,2.1,1.3,1.6*2C
$QZGSA,A,3,,,,,,,,,,,,,2.1,1.3,1.6*28
$IMGSA,A,3,,,,,,,,,,,,,2.1,1.3,1.6*27
$BDGSA,A,3,,,,,,,,,,,,,2.1,1.3,1.6*25
$GPRMC,065300.92,A,3205.026457,N,03448.162935,E,000.0,,170616,,,A*7B
$GPGGA,065301.92,3205.025655,N,03448.161853,E,1,15,3.2,0.0,M,19.2,M,,*6F
$GPGSV,3,1,11,13,72,300,29,17,54,127,37,28,52,031,38,19,36,165,30*7B
$GPGSV,3,2,11,15,36,310,29,30,33,081,27,05,18,228,23,20,15,273,41*7F
$GPGSV,3,3,11,07,10,096,12,24,09,296,20,11,04,052,*40
$GLGSV,3,1,09,75,47,359,31,65,43,247,37,66,26,315,26,84,25,048,26*67
$GLGSV,3,2,09,72,17,195,26,86,13,161,20,85,38,108,,74,22,059,*6F
$GLGSV,3,3,09,76,22,294,*52
$BDGSV,2,1,07,205,45,140,32,212,41,145,38,202,29,118,,208,28,058,*6F
$BDGSV,2,2,07,214,26,220,,210,22,076,,211,05,189,*69
$GPGSA,A,3,05,13,15,17,19,20,24,28,30,,,,2.6,1.7,2.0*32
$GNGSA,A,3,05,13,15,17,19,20,24,28,30,,,,2.6,1.7,2.0*2C
$GNGSA,A,3,65,66,72,75,84,86,,,,,,,2.6,1.7,2.0*2A
$QZGSA,A,3,,,,,,,,,,,,,2.6,1.7,2.0*2E
$IMGSA,A,3,,,,,,,,,,,,,2.6,1.7,2.0*21
$BDGSA,A,3,,,,,,,,,,,,,2.6,1.7,2.0*23
$GPRMC,065301.92,A,3205.025655,N,03448.161853,E,000.0,,170616,,,A*7B
$GPGGA,065302.93,3205.024168,N,03448.160500,E,1,16,1.6,0.0,M,19.2,M,,*6A
$GPGSV,3,1,11,13,72,300,29,17,54,127,37,28,52,031,41,19,36,165,29*7D
$GPGSV,3,2,11,15,36,310,29,30,33,081,27,05,18,228,23,20,15,273,41*7F
$GPGSV,3,3,11,07,10,096,11,24,09,296,20,11,04,052,*43
$GLGSV,3,1,09,75,47,359,34,65,43,247,37,85,38,108,21,66,26,315,29*62
$GLGSV,3,2,09,84,25,048,26,72,17,195,26,86,13,161,20,74,22,059,*63
$GLGSV,3,3,09,76,22,294,*52
$BDGSV,2,1,07,205,45,140,32,212,41,145,38,202,29,118,,208,28,058,*6F
$BDGSV,2,2,07,214,26,220,,210,22,076,,211,05,189,*69
$GPGSA,A,3,05,13,15,17,19,20,24,28,30,,,,1.9,1.1,1.6*3D
$GNGSA,A,3,05,13,15,17,19,20,24,28,30,,,,1.9,1.1,1.6*23
$GNGSA,A,3,65,66,72,75,84,85,86,,,,,,1.9,1.1,1.6*28
$QZGSA,A,3,,,,,,,,,,,,,1.9,1.1,1.6*21
$IMGSA,A,3,,,,,,,,,,,,,1.9,1.1,1.6*2E
$BDGSA,A,3,,,,,,,,,,,,,1.9,1.1,1.6*2C
$GPRMC,065302.93,A,3205.024168,N,03448.160500,E,000.0,,170616,,,A*7B
$GPGGA,065303.93,3205.023250,N,03448.158979,E,1,16,1.2,0.0,M,19.2,M,,*69
$GPGSV,3,1,11,13,72,300,29,17,54,127,37,28,52,031,41,19,36,165,29*7D
$GPGSV,3,2,11,15,36,310,37,30,33,081,27,05,18,228,25,20,15,273,41*76
$GPGSV,3,3,11,07,10,096,11,24,09,296,20,11,04,052,*43
$GLGSV,3,1,09,75,47,359,34,65,43,247,37,85,38,108,24,66,26,315,30*6F
$GLGSV,3,2,09,84,25,048,26,72,17,195,28,86,13,161,20,74,22,059,*6D
$GLGSV,3,3,09,76,22,294,*52
$BDGSV,2,1,07,205,45,140,31,212,41,145,38,202,29,118,,208,28,058,*6C
$BDGSV,2,2,07,214,26,220,,210,22,076,,211,05,189,*69
$GPGSA,A,3,05,13,15,17,19,20,24,28,30,,,,2.1,1.3,1.6*34
$GNGSA,A,3,05,13,15,17,19,20,24,28,30,,,,2.1,1.3,1.6*2A
$GNGSA,A,3,65,66,72,75,84,85,86,,,,,,2.1,1.3,1.6*21
$QZGSA,A,3,,,,,,,,,,,,,2.1,1.3,1.6*28
$IMGSA,A,3,,,,,,,,,,,,,2.1,1.3,1.6*27
$BDGSA,A,3,,,,,,,,,,,,,2.1,1.3,1.6*25
$GPRMC,065303.93,A,3205.023250,N,03448.158979,E,000.0,,170616,,,A*7C
$GPGGA,065305.00,3205.022441,N,03448.158340,E,1,16,0.6,1.0,M,19.2,M,,*66
$GPGSV,3,1,11,13,72,300,29,17,54,127,38,28,52,031,40,19,36,165,28*72
$GPGSV,3,2,11,15,36,310,37,30,33,081,27,05,18,228,28,20,15,273,41*7B
$GPGSV,3,3,11,07,10,096,10,24,09,296,20,11,04,052,*42
$GLGSV,3,1,09,75,47,359,34,65,43,247,40,85,38,108,24,66,26,315,30*6F
$GLGSV,3,2,09,84,25,048,25,74,22,059,21,72,17,195,28,86,13,161,23*6E
$GLGSV,3,3,09,76,22,294,*52
$BDGSV,2,1,07,205,45,140,32,212,41,145,39,202,29,118,,208,28,058,*6E
$BDGSV,2,2,07,214,26,220,,210,22,076,,211,05,189,*69
$GPGSA,A,3,05,13,15,17,19,20,24,28,30,,,,2.4,1.4,2.0*33
$GNGSA,A,3,05,13,15,17,19,20,24,28,30,,,,2.4,1.4,2.0*2D
$GNGSA,A,3,65,66,72,75,84,85,86,,,,,,2.4,1.4,2.0*26
$QZGSA,A,3,,,,,,,,,,,,,2.4,1.4,2.0*2F
$IMGSA,A,3,,,,,,,,,,,,,2.4,1.4,2.0*20
$BDGSA,A,3,,,,,,,,,,,,,2.4,1.4,2.0*22
$GPRMC,065305.00,A,3205.022441,N,03448.158340,E,000.0,,170616,,,A*77
$GPGGA,065306.00,3205.021284,N,03448.158062,E,1,16,0.8,4.1,M,19.2,M,,*60
$GPGSV,3,1,11,13,72,300,30,17,54,127,38,28,52,031,40,19,36,165,28*7A
$GPGSV,3,2,11,15,36,310,37,30,33,081,26,05,18,228,28,20,15,273,42*79
$GPGSV,3,3,11,24,09,296,20,07,10,096,08,11,04,052,*4B
$GLGSV,3,1,09,75,47,359,34,65,43,247,43,85,38,108,23,66,26,315,30*6B
$GLGSV,3,2,09,84,25,048,25,74,22,059,21,72,17,195,30,86,13,161,23*67
$GLGSV,3,3,09,76,22,294,*52
$BDGSV,2,1,07,205,45,140,33,212,41,145,39,202,29,118,,208,28,058,*6F
$BDGSV,2,2,07,214,26,220,,210,22,076,,211,05,189,*69
$GPGSA,A,3,05,13,15,17,19,20,24,28,30,,,,2.4,1.4,2.0*33
$GNGSA,A,3,05,13,15,17,19,20,24,28,30,,,,2.4,1.4,2.0*2D
$GNGSA,A,3,65,66,72,75,84,85,86,,,,,,2.4,1.4,2.0*26
$QZGSA,A,3,,,,,,,,,,,,,2.4,1.4,2.0*2F
$IMGSA,A,3,,,,,,,,,,,,,2.4,1.4,2.0*20
$BDGSA,A,3,,,,,,,,,,,,,2.4,1.4,2.0*22
$GPRMC,065306.00,A,3205.021284,N,03448.158062,E,000.0,,170616,,,A*7B
$GPGGA,065307.00,3205.020121,N,03448.157577,E,1,17,0.8,7.1,M,19.2,M,,*60
$GPGSV,3,1,11,13,72,300,33,17,54,127,37,28,52,031,40,19,36,165,27*79
$GPGSV,3,2,11,15,36,310,37,30,33,081,27,05,18,228,28,20,15,273,43*79
$GPGSV,3,3,11,24,09,296,21,07,10,096,,11,04,052,*42
$GLGSV,3,1,09,75,47,359,34,65,43,247,43,85,38,108,25,66,26,315,29*65
$GLGSV,3,2,09,84,25,048,25,74,22,059,21,76,22,294,15,72,17,195,30*66
$GLGSV,3,3,09,86,13,161,22*56
$BDGSV,2,1,07,205,45,140,34,212,41,145,38,202,29,118,28,208,28,058,*63
$BDGSV,2,2,07,214,26,220,,210,22,076,,211,05,189,*69
$GPGSA,A,3,05,13,15,17,19,20,24,28,30,,,,2.0,1.2,1.6*34
$GNGSA,A,3,05,13,15,17,19,20,24,28,30,,,,2.0,1.2,1.6*2A
$GNGSA,A,3,65,66,72,75,76,84,85,86,,,,,2.0,1.2,1.6*20
$QZGSA,A,3,,,,,,,,,,,,,2.0,1.2,1.6*28
$IMGSA,A,3,,,,,,,,,,,,,2.0,1.2,1.6*27
$BDGSA,A,3,,,,,,,,,,,,,2.0,1.2,1.6*25
$GPRMC,065307.00,A,3205.020121,N,03448.157577,E,000.0,,170616,,,A*79
$GPGGA,065308.00,3205.020357,N,03448.156724,E,1,17,0.8,9.6,M,19.2,M,,*60
$GPGSV,3,1,11,13,72,300,33,17,54,127,37,28,52,031,40,19,36,165,27*79
$GPGSV,3,2,11,15,36,310,37,30,33,081,27,05,18,228,28,20,15,273,43*79
$GPGSV,3,3,11,24,09,296,21,07,10,096,,11,04,052,*42
$GLGSV,3,1,09,75,47,359,34,65,43,247,42,85,38,108,24,66,26,315,29*65
$GLGSV,3,2,09,84,25,048,24,74,22,059,22,76,22,294,16,72,17,195,29*6F
$GLGSV,3,3,09,86,13,161,22*56
$BDGSV,2,1,07,205,45,140,34,212,41,145,37,202,29,118,28,208,28,058,*6C
$BDGSV,2,2,07,214,26,220,,210,22,076,,211,05,189,*69
$GPGSA,A,3,05,13,15,17,19,20,24,28,30,,,,2.3,1.4,1.8*3F
$GNGSA,A,3,05,13,15,17,19,20,24,28,30,,,,2.3,1.4,1.8*21
$GNGSA,A,3,65,66,72,75,76,84,85,86,,,,,2.3,1.4,1.8*2B
$QZGSA,A,3,,,,,,,,,,,,,2.3,1.4,1.8*23
$IMGSA,A,3,,,,,,,,,,,,,2.3,1.4,1.8*2C
$BDGSA,A,3,,,,,,,,,,,,,2.3,1.4,1.8*2E
$GPRMC,065308.00,A,3205.020357,N,03448.156724,E,000.0,,170616,,,A*70
$GPGGA,065309.00,3205.020573,N,03448.155764,E,1,17,1.2,12.9,M,19.2,M,,*58
$GPGSV,3,1,11,13,72,300,33,17,54,127,37,28,52,031,39,19,36,165,26*76
$GPGSV,3,2,11,15,36,310,36,30,33,081,26,05,18,228,33,20,15,273,43*73
$GPGSV,3,3,11,24,09,296,21,07,10,096,,11,04,052,*42
$GLGSV,3,1,09,75,47,359,34,65,43,247,42,85,38,108,25,66,26,315,28*65
$GLGSV,3,2,09,84,25,048,24,74,22,059,25,76,22,294,16,72,17,195,29*68
$GLGSV,3,3,09,86,13,161,22*56
$BDGSV,2,1,07,205,45,140,33,212,41,145,36,202,29,118,27,208,28,058,*65
$BDGSV,2,2,07,214,26,220,,210,22,076,,211,05,189,*69
$GPGSA,A,3,05,13,15,17,19,20,24,28,30,,,,1.9,1.0,1.6*3C
$GNGSA,A,3,05,13,15,17,19,20,24,28,30,,,,1.9,1.0,1.6*22
$GNGSA,A,3,65,66,72,75,76,84,85,86,,,,,1.9,1.0,1.6*28
$QZGSA,A,3,,,,,,,,,,,,,1.9,1.0,1.6*20
$IMGSA,A,3,,,,,,,,,,,,,1.9,1.0,1.6*2F
$BDGSA,A,3,,,,,,,,,,,,,1.9,1.0,1.6*2D
$GPRMC,065309.00,A,3205.020573,N,03448.155764,E,000.0,,170616,,,A*76
$GPGGA,065310.00,3205.020901,N,03448.154939,E,1,17,1.2,12.2,M,19.2,M,,*55
$GPGSV,3,1,11,13,72,300,32,17,54,127,37,28,52,031,39,19,36,165,26*77
$GPGSV,3,2,11,15,36,310,36,30,33,081,27,05,18,228,32,20,15,273,43*73
$GPGSV,3,3,11,24,09,296,21,07,10,096,,11,04,052,*42
$GLGSV,3,1,09,75,47,359,36,65,43,247,42,85,38,108,28,66,26,315,28*6A
$GLGSV,3,2,09,84,25,048,24,74,22,059,25,76,22,294,16,72,17,195,29*68
$GLGSV,3,3,09,86,13,161,21*55
$BDGSV,2,1,07,205,45,140,33,212,41,145,35,202,29,118,27,208,28,058,*66
$BDGSV,2,2,07,214,26,220,,210,22,076,,211,05,189,*69
$GPGSA,A,3,05,13,15,17,19,20,24,28,30,,,,1.9,1.2,1.6*3E
$GNGSA,A,3,05,13,15,17,19,20,24,28,30,,,,1.9,1.2,1.6*20
$GNGSA,A,3,65,66,72,75,76,84,85,86,,,,,1.9,1.2,1.6*2A
$QZGSA,A,3,,,,,,,,,,,,,1.9,1.2,1.6*22
$IMGSA,A,3,,,,,,,,,,,,,1.9,1.2,1.6*2D
$BDGSA,A,3,,,,,,,,,,,,,1.9,1.2,1.6*2F
$GPRMC,065310.00,A,3205.020901,N,03448.154939,E,000.0,,170616,,,A*70
$GPGGA,065311.00,3205.021531,N,03448.153906,E,1,17,1.2,15.2,M,19.2,M,,*56
$GPGSV,3,1,11,13,72,300,31,17,54,127,37,28,52,031,40,19,36,165,26*7A
$GPGSV,3,2,11,15,36,310,35,30,33,081,27,05,18,228,37,20,15,273,42*74
$GPGSV,3,3,11,24,09,296,20,07,10,096,,11,04,052,*43
$GLGSV,3,1,09,75,47,359,36,65,43,247,42,85,38,108,28,66,26,315,28*6A
$GLGSV,3,2,09,84,25,048,24,74,22,059,25,76,22,294,16,72,17,195,30*60
$GLGSV,3,3,09,86,14,161,21*52
$BDGSV,2,1,07,205,45,140,32,212,41,145,33,202,29,118,27,208,28,058,*61
$BDGSV,2,2,07,214,26,220,,210,22,076,,211,05,188,*68
$GPGSA,A,3,05,13,15,17,19,20,24,28,30,,,,1.9,1.2,1.6*3E
$GNGSA,A,3,05,13,15,17,19,20,24,28,30,,,,1.9,1.2,1.6*20
$GNGSA,A,3,65,66,72,75,76,84,85,86,,,,,1.9,1.2,1.6*2A
$QZGSA,A,3,,,,,,,,,,,,,1.9,1.2,1.6*22
$IMGSA,A,3,,,,,,,,,,,,,1.9,1.2,1.6*2D
$BDGSA,A,3,,,,,,,,,,,,,1.9,1.2,1.6*2F
$GPRMC,065311.00,A,3205.021531,N,03448.153906,E,000.0,,170616,,,A*74
$GPGGA,065312.00,3205.021539,N,03448.152940,E,1,17,0.8,18.8,M,19.2,M,,*52
$GPGSV,3,1,11,13,72,300,30,17,54,127,37,28,52,031,41,19,36,165,26*7A
$GPGSV,3,2,11,15,36,310,35,30,33,081,27,05,18,228,37,20,15,273,42*74
$GPGSV,3,3,11,24,09,296,20,07,10,096,,11,04,052,*43
$GLGSV,3,1,09,75,47,359,36,65,43,247,42,85,38,108,29,66,26,315,30*62
$GLGSV,3,2,09,84,25,048,24,74,22,059,26,76,22,294,16,72,17,195,30*63
$GLGSV,3,3,09,86,14,161,20*53
$BDGSV,2,1,07,205,45,140,31,212,41,145,32,202,29,118,26,208,28,058,*62
$BDGSV,2,2,07,214,26,220,,210,22,076,,211,05,188,*68
$GPGSA,A,3,05,13,15,17,19,20,24,28,30,,,,2.3,1.4,1.8*3F
$GNGSA,A,3,05,13,15,17,19,20,24,28,30,,,,2.3,1.4,1.8*21
$GNGSA,A,3,65,66,72,75,76,84,85,86,,,,,2.3,1.4,1.8*2B
$QZGSA,A,3,,,,,,,,,,,,,2.3,1.4,1.8*23
$IMGSA,A,3,,,,,,,,,,,,,2.3,1.4,1.8*2C
$BDGSA,A,3,,,,,,,,,,,,,2.3,1.4,1.8*2E
$GPRMC,065312.00,A,3205.021539,N,03448.152940,E,000.0,,170616,,,A*7C
$GPGGA,065313.00,3205.021096,N,03448.152224,E,1,17,0.8,16.7,M,19.2,M,,*5B
$GPGSV,3,1,11,13,72,300,29,17,54,127,37,28,52,031,41,19,36,165,26*72
$GPGSV,3,2,11,15,36,310,34,30,33,081,27,05,18,228,36,20,15,273,42*74
$GPGSV,3,3,11,24,09,296,20,07,10,096,,11,04,052,*43
$GLGSV,3,1,09,75,47,359,36,65,43,247,42,85,38,108,31,66,26,315,30*6B
$GLGSV,3,2,09,84,25,048,24,74,22,059,26,76,22,294,16,72,17,195,30*63
$GLGSV,3,3,09,86,14,161,21*52
$BDGSV,2,1,07,205,45,140,29,212,41,145,32,202,29,118,26,208,28,058,*6B
$BDGSV,2,2,07,214,26,220,,210,22,076,,211,06,188,*6B
$GPGSA,A,3,05,13,15,17,19,20,24,28,30,,,,2.3,1.4,1.8*3F
$GNGSA,A,3,05,13,15,17,19,20,24,28,30,,,,2.3,1.4,1.8*21
$GNGSA,A,3,65,66,72,75,76,84,85,86,,,,,2.3,1.4,1.8*2B
$QZGSA,A,3,,,,,,,,,,,,,2.3,1.4,1.8*23
$IMGSA,A,3,,,,,,,,,,,,,2.3,1.4,1.8*2C
$BDGSA,A,3,,,,,,,,,,,,,2.3,1.4,1.8*2E
$GPRMC,065313.00,A,3205.021096,N,03448.152224,E,000.0,,170616,,,A*74
$GPGGA,065314.00,3205.021267,N,03448.151479,E,1,17,0.8,17.4,M,19.2,M,,*5F
$GPGSV,3,1,11,13,72,300,28,17,54,127,37,28,52,031,40,19,36,165,26*72
$GPGSV,3,2,11,15,36,310,34,30,33,081,27,05,18,228,39,20,15,273,41*78
$GPGSV,3,3,11,24,09,296,21,07,10,096,,11,04,052,*42
$GLGSV,3,1,09,75,47,359,36,65,43,247,41,85,38,108,31,66,26,315,30*68
$GLGSV,3,2,09,84,25,048,23,74,22,059,26,76,22,294,18,72,17,195,30*6A
$GLGSV,3,3,09,86,14,161,23*50
$BDGSV,2,1,07,205,45,140,28,212,41,145,31,202,29,118,26,208,28,058,*69
$BDGSV,2,2,07,214,26,220,,210,22,076,,211,06,188,*6B
$GPGSA,A,3,05,13,15,17,19,20,24,28,30,,,,2.3,1.4,1.8*3F
$GNGSA,A,3,05,13,15,17,19,20,24,28,30,,,,2.3,1.4,1.8*21
$GNGSA,A,3,65,66,72,75,76,84,85,86,,,,,2.3,1.4,1.8*2B
$QZGSA,A,3,,,,,,,,,,,,,2.3,1.4,1.8*23
$IMGSA,A,3,,,,,,,,,,,,,2.3,1.4,1.8*2C
$BDGSA,A,3,,,,,,,,,,,,,2.3,1.4,1.8*2E
$GPRMC,065314.00,A,3205.021267,N,03448.151479,E,000.0,,170616,,,A*72
$GPGGA,065315.00,3205.021376,N,03448.150684,E,1,17,0.8,21.7,M,19.2,M,,*58
$GPGSV,3,1,11,13,72,300,27,17,54,127,36,28,52,031,39,19,36,165,26*72
$GPGSV,3,2,11,15,36,310,38,30,33,081,27,05,18,228,39,20,15,273,41*74
$GPGSV,3,3,11,24,09,296,21,07,10,096,,11,04,052,*42
$GLGSV,3,1,09,75,47,359,36,65,43,247,41,85,38,108,34,66,26,315,29*65
$GLGSV,3,2,09,84,25,048,23,74,22,059,26,76,22,294,17,72,17,195,31*64
$GLGSV,3,3,09,86,14,161,23*50
$BDGSV,2,1,07,205,45,140,27,212,41,145,30,202,29,118,28,208,28,058,*69
$BDGSV,2,2,07,214,26,220,,210,22,076,,211,06,188,*6B
$GPGSA,A,3,05,13,15,17,19,20,24,28,30,,,,2.7,1.5,2.3*32
$GNGSA,A,3,05,13,15,17,19,20,24,28,30,,,,2.7,1.5,2.3*2C
$GNGSA,A,3,65,66,72,75,76,84,85,86,,,,,2.7,1.5,2.3*26
$QZGSA,A,3,,,,,,,,,,,,,2.7,1.5,2.3*2E
$IMGSA,A,3,,,,,,,,,,,,,2.7,1.5,2.3*21
$BDGSA,A,3,,,,,,,,,,,,,2.7,1.5,2.3*23
$GPRMC,065315.00,A,3205.021376,N,03448.150684,E,000.0,,170616,,,A*73
$GPGGA,065316.00,3205.021226,N,03448.150076,E,1,17,0.6,20.5,M,19.2,M,,*59
$GPGSV,3,1,11,13,72,300,27,17,54,127,36,28,52,031,39,19,36,165,26*72
$GPGSV,3,2,11,15,36,310,38,30,33,081,27,05,18,228,38,20,15,273,41*75
$GPGSV,3,3,11,24,09,296,23,07,10,096,,11,04,052,*40
$GLGSV,3,1,09,75,47,359,37,65,43,247,40,85,38,108,34,66,26,315,29*65
$GLGSV,3,2,09,84,25,048,22,74,22,059,26,76,22,294,17,72,17,195,31*65
$GLGSV,3,3,09,86,14,161,23*50
$BDGSV,2,1,07,205,45,140,27,212,42,145,30,202,29,118,28,208,28,058,*6A
$BDGSV,2,2,07,214,26,220,,210,22,076,,211,06,188,*6B
$GPGSA,A,3,05,13,15,17,19,20,24,28,30,,,,2.3,1.4,1.8*3F
$GNGSA,A,3,05,13,15,17,19,20,24,28,30,,,,2.3,1.4,1.8*21
$GNGSA,A,3,65,66,72,75,76,84,85,86,,,,,2.3,1.4,1.8*2B
$QZGSA,A,3,,,,,,,,,,,,,2.3,1.4,1.8*23
$IMGSA,A,3,,,,,,,,,,,,,2.3,1.4,1.8*2C
$BDGSA,A,3,,,,,,,,,,,,,2.3,1.4,1.8*2E
$GPRMC,065316.00,A,3205.021226,N,03448.150076,E,000.0,,170616,,,A*7F
$GPGGA,065317.00,3205.020576,N,03448.149326,E,1,17,0.8,16.7,M,19.2,M,,*5C
$GPGSV,3,1,11,13,72,300,26,17,54,127,36,28,52,031,38,19,36,165,27*73
$GPGSV,3,2,11,15,36,310,38,30,33,081,27,05,18,228,38,20,15,273,41*75
$GPGSV,3,3,11,24,09,296,23,07,10,096,,11,04,052,*40
$GLGSV,3,1,09,75,47,359,37,65,43,247,40,85,38,108,34,66,26,315,29*65
$GLGSV,3,2,09,84,25,048,22,74,22,059,26,76,22,294,17,72,17,195,31*65
$GLGSV,3,3,09,86,14,161,23*50
$BDGSV,2,1,07,205,45,140,26,212,42,145,29,202,29,118,28,208,28,058,*63
$BDGSV,2,2,07,214,26,220,,210,22,076,,211,06,188,*6B
$GPGSA,A,3,05,13,15,17,19,20,24,28,30,,,,2.3,1.4,1.8*3F
$GNGSA,A,3,05,13,15,17,19,20,24,28,30,,,,2.3,1.4,1.8*21
$GNGSA,A,3,65,66,72,75,76,84,85,86,,,,,2.3,1.4,1.8*2B
$QZGSA,A,3,,,,,,,,,,,,,2.3,1.4,1.8*23
$IMGSA,A,3,,,,,,,,,,,,,2.3,1.4,1.8*2C
$BDGSA,A,3,,,,,,,,,,,,,2.3,1.4,1.8*2E
$GPRMC,065317.00,A,3205.020576,N,03448.149326,E,000.0,,170616,,,A*73
$GPGGA,065318.00,3205.020034,N,03448.148745,E,1,17,0.8,16.1,M,19.2,M,,*56
$GPGSV,3,1,11,13,72,300,26,17,54,127,36,28,52,031,37,19,36,165,28*73
$GPGSV,3,2,11,15,36,310,37,30,33,081,27,05,18,228,37,20,15,273,41*75
$GPGSV,3,3,11,24,09,296,23,07,10,096,,11,04,052,*40
$GLGSV,3,1,09,75,47,359,36,65,43,247,40,85,38,108,33,66,26,315,29*63
$GLGSV,3,2,09,84,25,048,22,74,22,059,27,76,22,294,17,72,17,195,31*64
$GLGSV,3,3,09,86,14,161,23*50
$BDGSV,2,1,07,205,45,140,25,212,42,145,29,202,29,118,28,208,28,058,*60
$BDGSV,2,2,07,214,26,220,,210,22,076,,211,06,188,*6B
$GPGSA,A,3,05,13,15,17,19,20,24,28,30,,,,2.7,1.5,2.3*32
$GNGSA,A,3,05,13,15,17,19,20,24,28,30,,,,2.7,1.5,2.3*2C
$GNGSA,A,3,65,66,72,75,76,84,85,86,,,,,2.7,1.5,2.3*26
$QZGSA,A,3,,,,,,,,,,,,,2.7,1.5,2.3*2E
$IMGSA,A,3,,,,,,,,,,,,,2.7,1.5,2.3*21
$BDGSA,A,3,,,,,,,,,,,,,2.7,1.5,2.3*23
$GPRMC,065318.00,A,3205.020034,N,03448.148745,E,000.0,,170616,,,A*7F
$GPGGA,065319.00,3205.019910,N,03448.148187,E,1,17,0.8,13.6,M,19.2,M,,*58
$GPGSV,3,1,11,13,72,300,25,17,54,127,36,28,52,031,37,19,36,165,28*70
$GPGSV,3,2,11,15,36,310,37,30,33,081,27,05,18,228,37,20,15,273,40*74
$GPGSV,3,3,11,24,09,296,22,07,10,096,,11,04,052,*41
$GLGSV,3,1,09,75,47,359,36,65,43,247,39,85,38,108,33,66,26,315,29*6D
$GLGSV,3,2,09,84,25,048,21,74,22,059,27,76,22,294,16,72,17,195,33*64
$GLGSV,3,3,09,86,14,161,22*51
$BDGSV,2,1,07,205,45,140,25,212,42,145,29,202,29,118,28,208,28,058,*60
$BDGSV,2,2,07,214,26,220,,210,22,076,,211,06,188,*6B
$GPGSA,A,3,05,13,15,17,19,20,24,28,30,,,,2.3,1.4,1.8*3F
$GNGSA,A,3,05,13,15,17,19,20,24,28,30,,,,2.3,1.4,1.8*21
$GNGSA,A,3,65,66,72,75,76,84,85,86,,,,,2.3,1.4,1.8*2B
$QZGSA,A,3,,,,,,,,,,,,,2.3,1.4,1.8*23
$IMGSA,A,3,,,,,,,,,,,,,2.3,1.4,1.8*2C
$BDGSA,A,3,,,,,,,,,,,,,2.3,1.4,1.8*2E
$GPRMC,065319.00,A,3205.019910,N,03448.148187,E,000.0,,170616,,,A*73
$GPGGA,065320.00,3205.019962,N,03448.147715,E,1,17,0.8,12.4,M,19.2,M,,*56
$GPGSV,3,1,11,13,72,300,25,17,54,127,37,28,52,031,37,19,36,165,28*71
$GPGSV,3,2,11,15,36,310,37,30,33,081,26,05,18,228,36,20,15,273,40*74
$GPGSV,3,3,11,24,09,296,21,07,10,096,,11,04,052,*42
$GLGSV,3,1,09,75,47,359,36,65,43,247,39,85,38,108,33,66,26,315,28*6C
$GLGSV,3,2,09,84,25,048,21,74,22,059,27,76,22,294,17,72,17,195,34*62
$GLGSV,3,3,09,86,14,161,22*51
$BDGSV,2,1,07,205,45,140,25,212,42,145,28,202,29,118,28,208,28,058,*61
$BDGSV,2,2,07,214,26,220,,210,22,076,,211,06,188,*6B
$GPGSA,A,3,05,13,15,17,19,20,24,28,30,,,,2.4,1.5,1.9*38
$GNGSA,A,3,05,13,15,17,19,20,24,28,30,,,,2.4,1.5,1.9*26
$GNGSA,A,3,65,66,72,75,76,84,85,86,,,,,2.4,1.5,1.9*2C
$QZGSA,A,3,,,,,,,,,,,,,2.4,1.5,1.9*24
$IMGSA,A,3,,,,,,,,,,,,,2.4,1.5,1.9*2B
$BDGSA,A,3,,,,,,,,,,,,,2.4,1.5,1.9*29
$GPRMC,065320.00,A,3205.019962,N,03448.147715,E,002.3,,170616,,,A*7F
$GPGGA,065321.00,3205.019919,N,03448.146863,E,1,17,0.8,11.8,M,19.2,M,,*5B
$GPGSV,3,1,11,13,73,300,25,17,54,127,37,28,52,031,39,19,36,165,27*71
$GPGSV,3,2,11,15,36,310,37,30,33,081,26,05,18,228,36,20,15,273,40*74
$GPGSV,3,3,11,24,09,296,21,07,10,096,,11,04,052,*42
$GLGSV,3,1,09,75,47,359,35,65,43,247,39,85,38,108,33,66,26,315,28*6F
$GLGSV,3,2,09,84,25,048,21,74,22,059,27,76,22,294,17,72,17,195,34*62
$GLGSV,3,3,09,86,14,161,22*51
$BDGSV,2,1,07,205,45,140,24,212,42,145,28,202,29,118,28,208,28,058,*60
$BDGSV,2,2,07,214,26,220,,210,22,076,,211,06,188,*6B
$GPGSA,A,3,05,13,15,17,19,20,24,28,30,,,,2.4,1.5,1.9*38
$GNGSA,A,3,05,13,15,17,19,20,24,28,30,,,,2.4,1.5,1.9*26
$GNGSA,A,3,65,66,72,75,76,84,85,86,,,,,2.4,1.5,1.9*2C
$QZGSA,A,3,,,,,,,,,,,,,2.4,1.5,1.9*24
$IMGSA,A,3,,,,,,,,,,,,,2.4,1.5,1.9*2B
$BDGSA,A,3,,,,,,,,,,,,,2.4,1.5,1.9*29
$GPRMC,065321.00,A,3205.019919,N,03448.146863,E,002.8,,170616,,,A*76
$GPGGA,065322.00,3205.019733,N,03448.146337,E,1,17,0.8,12.7,M,19.2,M,,*58
$GPGSV,3,1,11,13,73,300,24,17,54,127,37,28,52,031,39,19,36,165,27*70
$GPGSV,3,2,11,15,36,310,37,30,33,081,25,05,18,228,35,20,15,273,39*7A
$GPGSV,3,3,11,24,09,296,21,07,10,096,,11,04,052,*42
$GLGSV,3,1,09,75,47,359,35,65,43,247,39,85,38,108,32,66,26,315,28*6E
$GLGSV,3,2,09,84,25,048,21,74,22,059,27,76,22,294,19,72,17,195,36*6E
$GLGSV,3,3,09,86,14,161,22*51
$BDGSV,2,1,07,205,45,140,24,212,42,145,28,202,29,118,28,208,28,058,*60
$BDGSV,2,2,07,214,26,220,,210,22,076,,211,06,188,*6B
$GPGSA,A,3,05,13,15,17,19,20,24,28,30,,,,2.4,1.5,1.9*38
$GNGSA,A,3,05,13,15,17,19,20,24,28,30,,,,2.4,1.5,1.9*26
$GNGSA,A,3,65,66,72,75,76,84,85,86,,,,,2.4,1.5,1.9*2C
$QZGSA,A,3,,,,,,,,,,,,,2.4,1.5,1.9*24
$IMGSA,A,3,,,,,,,,,,,,,2.4,1.5,1.9*2B
$BDGSA,A,3,,,,,,,,,,,,,2.4,1.5,1.9*29
$GPRMC,065322.00,A,3205.019733,N,03448.146337,E,000.0,,170616,,,A*73
$GPGGA,065323.00,3205.019550,N,03448.145797,E,1,17,0.8,14.3,M,19.2,M,,*51
$GPGSV,3,1,11,13,73,300,24,17,54,127,37,28,52,031,38,19,36,165,27*71
$GPGSV,3,2,11,15,36,310,37,30,33,081,28,05,18,228,35,20,15,273,39*77
$GPGSV,3,3,11,24,09,296,20,07,10,096,,11,04,052,*43
$GLGSV,3,1,09,75,47,359,34,65,43,247,39,85,38,108,31,66,26,315,28*6C
$GLGSV,3,2,09,84,25,048,21,74,22,059,27,76,22,294,19,72,17,195,37*6F
$GLGSV,3,3,09,86,14,161,24*57
$BDGSV,2,1,07,205,45,140,24,212,42,145,27,202,29,118,28,208,28,058,*6F
$BDGSV,2,2,07,214,26,220,,210,22,076,,211,06,188,*6B
$GPGSA,A,3,05,13,15,17,19,20,24,28,30,,,,3.0,2.1,2.0*30
$GNGSA,A,3,05,13,15,17,19,20,24,28,30,,,,3.0,2.1,2.0*2E
$GNGSA,A,3,65,66,72,75,76,84,85,86,,,,,3.0,2.1,2.0*24
$QZGSA,A,3,,,,,,,,,,,,,3.0,2.1,2.0*2C
$IMGSA,A,3,,,,,,,,,,,,,3.0,2.1,2.0*23
$BDGSA,A,3,,,,,,,,,,,,,3.0,2.1,2.0*21
$GPRMC,065323.00,A,3205.019550,N,03448.145797,E,000.0,,170616,,,A*78
$GPGGA,065324.00,3205.019462,N,03448.145473,E,1,17,0.8,16.1,M,19.2,M,,*5F
$GPGSV,3,1,11,13,73,300,24,17,54,127,38,28,52,031,38,19,36,165,27*7E
$GPGSV,3,2,11,15,36,310,39,30,33,081,28,05,18,228,34,20,15,273,38*79
$GPGSV,3,3,11,24,09,296,20,07,10,096,,11,04,052,*43
$GLGSV,3,1,09,75,47,359,34,65,43,247,38,85,38,108,31,66,26,315,29*6C
$GLGSV,3,2,09,84,25,048,21,74,22,059,27,76,22,294,18,72,17,195,37*6E
$GLGSV,3,3,09,86,14,161,24*57
$BDGSV,2,1,07,205,45,140,25,212,42,145,27,202,29,118,30,208,28,058,*67
$BDGSV,2,2,07,214,26,220,,210,22,076,,211,06,188,*6B
$GPGSA,A,3,05,13,15,17,19,20,24,28,30,,,,2.5,1.5,2.0*33
$GNGSA,A,3,05,13,15,17,19,20,24,28,30,,,,2.5,1.5,2.0*2D
$GNGSA,A,3,65,66,72,75,76,84,85,86,,,,,2.5,1.5,2.0*27
$QZGSA,A,3,,,,,,,,,,,,,2.5,1.5,2.0*2F
$IMGSA,A,3,,,,,,,,,,,,,2.5,1.5,2.0*20
$BDGSA,A,3,,,,,,,,,,,,,2.5,1.5,2.0*22
$GPRMC,065324.00,A,3205.019462,N,03448.145473,E,000.0,,170616,,,A*76
$GPGGA,065325.00,3205.019461,N,03448.145459,E,1,17,1.2,18.3,M,19.2,M,,*52
$GPGSV,3,1,11,13,73,300,23,17,54,127,38,28,52,031,40,19,36,165,27*76
$GPGSV,3,2,11,15,36,310,39,30,33,081,28,05,18,228,34,20,15,273,37*76
$GPGSV,3,3,11,24,09,296,20,07,10,096,,11,04,052,*43
$GLGSV,3,1,09,75,47,359,33,65,43,247,38,85,38,108,36,66,26,315,29*6C
$GLGSV,3,2,09,84,25,048,24,74,22,059,27,76,22,294,18,72,17,195,38*64
$GLGSV,3,3,09,86,14,161,23*50
$BDGSV,2,1,07,205,45,140,26,212,42,145,27,202,29,118,30,208,28,058,*64
$BDGSV,2,2,07,214,26,220,,210,22,076,,211,06,188,*6B
$GPGSA,A,3,05,13,15,17,19,20,24,28,30,,,,2.5,1.5,2.0*33
$GNGSA,A,3,05,13,15,17,19,20,24,28,30,,,,2.5,1.5,2.0*2D
$GNGSA,A,3,65,66,72,75,76,84,85,86,,,,,2.5,1.5,2.0*27
$QZGSA,A,3,,,,,,,,,,,,,2.5,1.5,2.0*2F
$IMGSA,A,3,,,,,,,,,,,,,2.5,1.5,2.0*20
$BDGSA,A,3,,,,,,,,,,,,,2.5,1.5,2.0*22
$GPRMC,065325.00,A,3205.019461,N,03448.145459,E,000.0,,170616,,,A*7C
$GPGGA,065326.00,3205.019461,N,03448.145459,E,1,17,1.2,20.1,M,19.2,M,,*58
$GPGSV,3,1,11,13,73,300,23,17,54,127,38,28,52,031,39,19,36,165,27*78
$GPGSV,3,2,11,15,36,310,39,30,33,081,28,05,18,228,34,20,15,273,36*77
$GPGSV,3,3,11,24,09,296,19,07,10,096,,11,04,052,*49
$GLGSV,3,1,09,75,47,359,32,65,43,247,38,85,38,108,37,66,26,315,29*6C
$GLGSV,3,2,09,84,25,048,24,74,22,059,28,76,22,294,18,72,17,195,37*64
$GLGSV,3,3,09,86,14,161,23*50
$BDGSV,2,1,07,205,45,140,26,212,42,145,28,202,29,118,30,208,28,058,*6B
$BDGSV,2,2,07,214,26,220,,210,22,076,,211,06,188,*6B
$GPGSA,A,3,05,13,15,17,19,20,24,28,30,,,,2.5,1.5,2.0*33
$GNGSA,A,3,05,13,15,17,19,20,24,28,30,,,,2.5,1.5,2.0*2D
$GNGSA,A,3,65,66,72,75,76,84,85,86,,,,,2.5,1.5,2.0*27
$QZGSA,A,3,,,,,,,,,,,,,2.5,1.5,2.0*2F
$IMGSA,A,3,,,,,,,,,,,,,2.5,1.5,2.0*20
$BDGSA,A,3,,,,,,,,,,,,,2.5,1.5,2.0*22
$GPRMC,065326.00,A,3205.019461,N,03448.145459,E,000.0,,170616,,,A*7F
$GPGGA,065327.00,3205.019461,N,03448.145459,E,1,17,0.8,21.0,M,19.2,M,,*52
$GPGSV,3,1,11,13,73,300,23,17,54,127,38,28,52,031,39,19,36,165,28*77
$GPGSV,3,2,11,15,36,310,38,30,33,081,27,05,18,228,33,20,15,273,35*7D
$GPGSV,3,3,11,24,09,296,19,07,10,096,,11,04,052,*49
$GLGSV,3,1,09,75,47,359,31,65,42,247,38,85,38,108,37,66,26,315,31*67
$GLGSV,3,2,09,84,25,048,23,74,22,059,28,76,22,294,18,72,17,195,37*63
$GLGSV,3,3,09,86,14,161,23*50
$BDGSV,2,1,07,205,45,140,30,212,42,145,28,202,29,118,30,208,28,058,*6C
$BDGSV,2,2,07,214,26,220,,210,22,076,,211,06,188,*6B
$GPGSA,A,3,05,13,15,17,19,20,24,28,30,,,,2.5,1.5,2.0*33
$GNGSA,A,3,05,13,15,17,19,20,24,28,30,,,,2.5,1.5,2.0*2D
$GNGSA,A,3,65,66,72,75,76,84,85,86,,,,,2.5,1.5,2.0*27
$QZGSA,A,3,,,,,,,,,,,,,2.5,1.5,2.0*2F
$IMGSA,A,3,,,,,,,,,,,,,2.5,1.5,2.0*20
$BDGSA,A,3,,,,,,,,,,,,,2.5,1.5,2.0*22
$GPRMC,065327.00,A,3205.019461,N,03448.145459,E,000.0,,170616,,,A*7E
$GPGGA,065328.00,3205.019461,N,03448.145459,E,1,17,0.8,21.1,M,19.2,M,,*5C
$GPGSV,3,1,11,13,73,300,23,17,54,127,38,28,52,031,39,19,36,165,28*77
$GPGSV,3,2,11,15,36,310,40,30,33,081,28,05,18,228,35,20,15,273,34*7A
$GPGSV,3,3,11,24,09,296,19,07,10,096,,11,04,052,*49
$GLGSV,3,1,09,75,47,359,31,65,42,247,37,85,38,108,37,66,26,315,33*6A
$GLGSV,3,2,09,84,25,048,25,74,22,059,28,76,22,294,17,72,17,195,37*6A
$GLGSV,3,3,09,86,14,161,25*56
$BDGSV,2,1,07,205,45,140,29,212,42,145,28,202,29,118,29,208,28,058,*6C
$BDGSV,2,2,07,214,26,220,,210,22,076,,211,06,188,*6B
$GPGSA,A,3,05,13,15,17,19,20,24,28,30,,,,2.5,1.5,2.0*33
$GNGSA,A,3,05,13,15,17,19,20,24,28,30,,,,2.5,1.5,2.0*2D
$GNGSA,A,3,65,66,72,75,76,84,85,86,,,,,2.5,1.5,2.0*27
$QZGSA,A,3,,,,,,,,,,,,,2.5,1.5,2.0*2F
$IMGSA,A,3,,,,,,,,,,,,,2.5,1.5,2.0*20
$BDGSA,A,3,,,,,,,,,,,,,2.5,1.5,2.0*22
$GPRMC,065328.00,A,3205.019461,N,03448.145459,E,000.0,,170616,,,A*71
$GPGGA,065329.00,3205.019461,N,03448.145458,E,1,17,0.8,21.1,M,19.2,M,,*5C
$GPGSV,3,1,11,13,73,300,23,17,54,127,39,28,52,031,38,19,36,165,28*77
$GPGSV,3,2,11,15,36,310,42,30,33,081,28,05,18,228,35,20,15,273,34*78
$GPGSV,3,3,11,24,09,296,18,07,10,096,,11,04,052,*48
$GLGSV,3,1,09,75,47,359,30,65,42,247,37,85,38,108,39,66,26,315,34*62
$GLGSV,3,2,09,84,25,048,25,74,22,059,29,76,22,294,17,72,17,195,37*6B
$GLGSV,3,3,09,86,14,161,25*56
$BDGSV,2,1,07,205,45,140,29,212,42,145,30,202,29,118,29,208,28,058,*65
$BDGSV,2,2,07,214,26,220,,210,22,076,,211,06,188,*6B
$GPGSA,A,3,05,13,15,17,19,20,24,28,30,,,,2.5,1.5,2.0*33
$GNGSA,A,3,05,13,15,17,19,20,24,28,30,,,,2.5,1.5,2.0*2D
$GNGSA,A,3,65,66,72,75,76,84,85,86,,,,,2.5,1.5,2.0*27
$QZGSA,A,3,,,,,,,,,,,,,2.5,1.5,2.0*2F
$IMGSA,A,3,,,,,,,,,,,,,2.5,1.5,2.0*20
$BDGSA,A,3,,,,,,,,,,,,,2.5,1.5,2.0*22
$GPRMC,065329.00,A,3205.019461,N,03448.145458,E,000.0,,170616,,,A*71
$GPGGA,065330.00,3205.019461,N,03448.145458,E,1,17,1.2,21.1,M,19.2,M,,*5F
$GPGSV,3,1,11,13,73,300,22,17,54,127,41,28,52,031,37,19,36,165,28*76
$GPGSV,3,2,11,15,36,310,42,30,33,081,27,05,18,228,35,20,15,273,33*70
$GPGSV,3,3,11,24,09,296,18,07,10,096,,11,04,052,*48
$GLGSV,3,1,09,75,47,359,30,65,42,247,37,85,38,108,39,66,26,315,34*62
$GLGSV,3,2,09,84,25,048,25,74,22,059,29,76,22,294,17,72,17,195,39*65
$GLGSV,3,3,09,86,14,161,25*56
$BDGSV,2,1,07,205,45,140,32,212,42,145,31,202,29,118,28,208,28,058,*6F
$BDGSV,2,2,07,214,26,220,,210,22,076,,211,06,188,*6B
$GPGSA,A,3,05,13,15,17,19,20,24,28,30,,,,2.8,1.7,2.3*3F
$GNGSA,A,3,05,13,15,17,19,20,24,28,30,,,,2.8,1.7,2.3*21
$GNGSA,A,3,65,66,72,75,76,84,85,86,,,,,2.8,1.7,2.3*2B
$QZGSA,A,3,,,,,,,,,,,,,2.8,1.7,2.3*23
$IMGSA,A,3,,,,,,,,,,,,,2.8,1.7,2.3*2C
$BDGSA,A,3,,,,,,,,,,,,,2.8,1.7,2.3*2E
$GPRMC,065330.00,A,3205.019461,N,03448.145458,E,000.6,,170616,,,A*7F
$GPGGA,065331.00,3205.019461,N,03448.145458,E,1,17,1.6,21.2,M,19.2,M,,*59
$GPGSV,3,1,11,13,73,300,22,17,54,127,40,28,52,031,36,19,36,165,28*76
$GPGSV,3,2,11,15,36,310,41,30,33,081,27,05,18,228,34,20,15,273,32*73
$GPGSV,3,3,11,24,09,296,18,07,10,096,,11,04,052,*48
$GLGSV,3,1,09,75,47,359,29,65,42,246,36,85,38,108,40,66,26,315,33*63
$GLGSV,3,2,09,84,25,048,28,74,22,059,29,76,22,294,17,72,17,195,38*69
$GLGSV,3,3,09,86,14,161,25*56
$BDGSV,2,1,07,205,45,140,32,212,42,145,32,202,29,118,27,208,28,058,*63
$BDGSV,2,2,07,214,26,220,,210,22,076,,211,06,188,*6B
$GPGSA,A,3,05,13,15,17,19,20,24,28,30,,,,2.5,1.3,2.1*34
$GNGSA,A,3,05,13,15,17,19,20,24,28,30,,,,2.5,1.3,2.1*2A
$GNGSA,A,3,65,66,72,75,76,84,85,86,,,,,2.5,1.3,2.1*20
$QZGSA,A,3,,,,,,,,,,,,,2.5,1.3,2.1*28
$IMGSA,A,3,,,,,,,,,,,,,2.5,1.3,2.1*27
$BDGSA,A,3,,,,,,,,,,,,,2.5,1.3,2.1*25
$GPRMC,065331.00,A,3205.019461,N,03448.145458,E,000.0,,170616,,,A*78
$GPGGA,065332.00,3205.019257,N,03448.144931,E,1,17,1.2,21.2,M,19.2,M,,*5E
$GPGSV,3,1,11,13,73,300,22,17,54,127,42,28,52,031,36,19,36,165,27*7B
$GPGSV,3,2,11,15,36,310,41,30,33,081,27,05,18,228,36,20,15,273,32*71
$GPGSV,3,3,11,24,09,296,18,07,10,096,,11,04,052,*48
$GLGSV,3,1,09,75,47,359,28,65,42,246,36,85,38,108,40,66,26,315,33*62
$GLGSV,3,2,09,84,25,048,29,74,22,059,29,76,22,294,16,72,17,195,38*69
$GLGSV,3,3,09,86,14,161,25*56
$BDGSV,2,1,07,205,45,140,33,212,42,145,32,202,29,118,26,208,28,058,*63
$BDGSV,2,2,07,214,26,220,,210,22,076,,211,06,188,*6B
$GPGSA,A,3,05,13,15,17,19,20,24,28,30,,,,2.7,1.7,2.2*31
$GNGSA,A,3,05,13,15,17,19,20,24,28,30,,,,2.7,1.7,2.2*2F
$GNGSA,A,3,65,66,72,75,76,84,85,86,,,,,2.7,1.7,2.2*25
$QZGSA,A,3,,,,,,,,,,,,,2.7,1.7,2.2*2D
$IMGSA,A,3,,,,,,,,,,,,,2.7,1.7,2.2*22
$BDGSA,A,3,,,,,,,,,,,,,2.7,1.7,2.2*20
$GPRMC,065332.00,A,3205.019257,N,03448.144931,E,001.2,,170616,,,A*78
$GPGGA,065333.00,3205.019256,N,03448.144929,E,1,17,1.6,21.4,M,19.2,M,,*55
$GPGSV,3,1,11,13,73,300,22,17,54,127,42,28,52,031,36,19,36,165,31*7C
$GPGSV,3,2,11,15,36,310,41,30,33,081,26,05,18,228,35,20,14,273,31*71
$GPGSV,3,3,11,24,09,296,18,07,10,096,,11,04,052,*48
$GLGSV,3,1,09,75,47,359,28,65,42,246,36,85,38,108,40,66,26,315,34*65
$GLGSV,3,2,09,84,25,048,28,74,22,059,29,76,22,294,16,72,17,195,38*68
$GLGSV,3,3,09,86,14,161,25*56
$BDGSV,2,1,07,205,45,140,33,212,42,145,32,202,29,118,25,208,28,058,*60
$BDGSV,2,2,07,214,26,220,,210,22,076,,211,06,188,*6B
$GPGSA,A,3,05,13,15,17,19,20,24,28,30,,,,2.8,2.0,2.0*38
$GNGSA,A,3,05,13,15,17,19,20,24,28,30,,,,2.8,2.0,2.0*26
$GNGSA,A,3,65,66,72,75,76,84,85,86,,,,,2.8,2.0,2.0*2C
$QZGSA,A,3,,,,,,,,,,,,,2.8,2.0,2.0*24
$IMGSA,A,3,,,,,,,,,,,,,2.8,2.0,2.0*2B
$BDGSA,A,3,,,,,,,,,,,,,2.8,2.0,2.0*29
$GPRMC,065333.00,A,3205.019256,N,03448.144929,E,000.9,,170616,,,A*7B
$GPGGA,065334.00,3205.019256,N,03448.144929,E,1,15,1.6,21.5,M,19.2,M,,*51
$GPGSV,3,1,11,13,73,300,22,17,54,127,41,28,52,031,36,19,36,165,31*7F
$GPGSV,3,2,11,15,36,310,40,30,33,081,26,05,18,228,35,20,14,273,30*71
$GPGSV,3,3,11,24,09,296,17,07,10,096,,11,04,052,*47
$GLGSV,3,1,09,75,47,359,27,65,42,246,36,85,38,108,39,66,26,315,34*64
$GLGSV,3,2,09,84,25,048,28,74,22,059,29,76,22,294,15,72,17,195,37*64
$GLGSV,3,3,09,86,14,161,25*56
$BDGSV,2,1,07,205,45,140,33,212,42,145,31,202,29,118,24,208,28,058,*62
$BDGSV,2,2,07,214,26,220,,210,22,076,,211,06,188,*6B
$GPGSA,A,3,05,13,15,17,19,20,28,30,,,,,2.6,1.6,2.1*34
$GNGSA,A,3,05,13,15,17,19,20,28,30,,,,,2.6,1.6,2.1*2A
$GNGSA,A,3,65,66,72,75,84,85,86,,,,,,2.6,1.6,2.1*27
$QZGSA,A,3,,,,,,,,,,,,,2.6,1.6,2.1*2E
$IMGSA,A,3,,,,,,,,,,,,,2.6,1.6,2.1*21
$BDGSA,A,3,,,,,,,,,,,,,2.6,1.6,2.1*23
$GPRMC,065334.00,A,3205.019256,N,03448.144929,E,000.9,,170616,,,A*7C
$GPGGA,065335.00,3205.018998,N,03448.144282,E,1,15,1.6,21.6,M,19.2,M,,*51
$GPGSV,3,1,11,13,73,300,21,17,54,127,40,28,52,031,35,19,36,165,30*7F
$GPGSV,3,2,11,15,36,310,39,30,33,081,25,05,18,228,35,20,14,273,30*7C
$GPGSV,3,3,11,24,09,296,17,07,10,096,,11,04,052,*47
$GLGSV,3,1,09,75,47,359,27,65,42,246,35,85,38,108,38,66,26,315,34*66
$GLGSV,3,2,09,84,25,048,27,74,22,059,28,76,22,294,15,72,17,195,36*6B
$GLGSV,3,3,09,86,14,161,25*56
$BDGSV,2,1,07,205,45,140,32,212,42,145,31,202,29,118,21,208,28,058,*66
$BDGSV,2,2,07,214,26,220,,210,22,076,,211,06,188,*6B
$GPGSA,A,3,05,13,15,17,19,20,28,30,,,,,2.8,1.8,2.1*34
$GNGSA,A,3,05,13,15,17,19,20,28,30,,,,,2.8,1.8,2.1*2A
$GNGSA,A,3,65,66,72,75,84,85,86,,,,,,2.8,1.8,2.1*27
$QZGSA,A,3,,,,,,,,,,,,,2.8,1.8,2.1*2E
$IMGSA,A,3,,,,,,,,,,,,,2.8,1.8,2.1*21
$BDGSA,A,3,,,,,,,,,,,,,2.8,1.8,2.1*23
$GPRMC,065335.00,A,3205.018998,N,03448.144282,E,001.4,,170616,,,A*73
$GPGGA,065336.00,3205.018609,N,03448.143263,E,1,15,0.8,21.7,M,19.2,M,,*53
$GPGSV,3,1,11,13,73,300,21,17,54,127,42,28,52,031,35,19,36,165,30*7D
$GPGSV,3,2,11,15,36,310,39,30,33,081,26,05,18,228,34,20,14,273,29*76
$GPGSV,3,3,11,24,09,296,16,07,10,096,,11,04,052,*46
$GLGSV,3,1,09,75,47,359,26,65,42,246,35,85,38,108,37,66,26,315,35*69
$GLGSV,3,2,09,84,25,048,26,74,22,059,29,76,22,294,15,72,17,195,36*6B
$GLGSV,3,3,09,86,14,161,25*56
$BDGSV,2,1,07,205,45,140,32,212,42,145,31,202,29,118,20,208,28,058,*67
$BDGSV,2,2,07,214,26,220,,210,22,076,,211,06,188,*6B
$GPGSA,A,3,05,13,15,17,19,20,28,30,,,,,2.5,1.4,2.0*34
$GNGSA,A,3,05,13,15,17,19,20,28,30,,,,,2.5,1.4,2.0*2A
$GNGSA,A,3,65,66,72,75,84,85,86,,,,,,2.5,1.4,2.0*27
$QZGSA,A,3,,,,,,,,,,,,,2.5,1.4,2.0*2E
$IMGSA,A,3,,,,,,,,,,,,,2.5,1.4,2.0*21
$BDGSA,A,3,,,,,,,,,,,,,2.5,1.4,2.0*23
$GPRMC,065336.00,A,3205.018609,N,03448.143263,E,000.9,,170616,,,A*73
$GPGGA,065337.00,3205.017895,N,03448.140756,E,1,17,1.2,21.7,M,19.2,M,,*5F
$GPGSV,3,1,11,13,73,300,22,17,54,127,41,28,52,031,35,19,37,165,36*7A
$GPGSV,3,2,11,15,36,310,38,30,33,081,26,05,18,228,34,20,14,273,29*77
$GPGSV,3,3,11,24,09,296,16,07,10,096,,11,04,052,*46
$GLGSV,3,1,09,75,47,359,26,65,42,246,34,85,38,108,36,66,26,315,35*69
$GLGSV,3,2,09,84,25,048,26,74,22,059,29,76,22,294,14,72,17,195,36*6A
$GLGSV,3,3,09,86,14,161,26*55
$BDGSV,2,1,07,205,45,140,33,212,42,145,31,202,29,118,20,208,28,058,*66
$BDGSV,2,2,07,214,26,220,,210,22,076,,211,06,188,*6B
$GPGSA,A,3,05,13,15,17,19,20,24,28,30,,,,2.5,1.4,2.0*32
$GNGSA,A,3,05,13,15,17,19,20,24,28,30,,,,2.5,1.4,2.0*2C
$GNGSA,A,3,65,66,72,75,76,84,85,86,,,,,2.5,1.4,2.0*26
$QZGSA,A,3,,,,,,,,,,,,,2.5,1.4,2.0*2E
$IMGSA,A,3,,,,,,,,,,,,,2.5,1.4,2.0*21
$BDGSA,A,3,,,,,,,,,,,,,2.5,1.4,2.0*23
$GPRMC,065337.00,A,3205.017895,N,03448.140756,E,001.5,,170616,,,A*7B
$GPGGA,065338.00,3205.017279,N,03448.138185,E,1,17,1.2,21.8,M,19.2,M,,*50
$GPGSV,3,1,11,13,73,300,22,17,54,127,41,28,52,031,35,19,37,165,40*7B
$GPGSV,3,2,11,15,36,310,38,30,33,081,26,05,18,228,34,20,14,273,28*76
$GPGSV,3,3,11,24,09,296,16,07,10,096,,11,04,052,*46
$GLGSV,3,1,09,75,47,359,26,65,42,246,34,85,38,108,36,66,26,315,35*69
$GLGSV,3,2,09,84,25,048,25,74,22,059,29,76,22,294,14,72,17,195,35*6A
$GLGSV,3,3,09,86,14,161,26*55
$BDGSV,2,1,07,205,45,140,33,212,42,145,31,202,29,118,20,208,28,058,*66
$BDGSV,2,2,07,214,26,220,,210,22,076,,211,06,188,*6B
$GPGSA,A,3,05,13,15,17,19,20,24,28,30,,,,2.5,1.4,2.0*32
$GNGSA,A,3,05,13,15,17,19,20,24,28,30,,,,2.5,1.4,2.0*2C
$GNGSA,A,3,65,66,72,75,76,84,85,86,,,,,2.5,1.4,2.0*26
$QZGSA,A,3,,,,,,,,,,,,,2.5,1.4,2.0*2E
$IMGSA,A,3,,,,,,,,,,,,,2.5,1.4,2.0*21
$BDGSA,A,3,,,,,,,,,,,,,2.5,1.4,2.0*23
$GPRMC,065338.00,A,3205.017279,N,03448.138185,E,001.3,,170616,,,A*7D
$GPGGA,065339.00,3205.016851,N,03448.137436,E,1,17,1.2,21.8,M,19.2,M,,*52
$GPGSV,3,1,11,13,73,300,23,17,54,127,41,28,52,031,34,19,37,165,40*7B
$GPGSV,3,2,11,15,36,310,39,30,33,081,25,05,18,228,34,20,14,273,28*74
$GPGSV,3,3,11,24,09,296,15,07,10,096,,11,04,052,*45
$GLGSV,3,1,09,75,47,359,26,65,42,246,33,85,38,108,35,66,26,315,35*6D
$GLGSV,3,2,09,84,25,048,25,74,22,059,29,76,22,294,18,72,17,195,35*66
$GLGSV,3,3,09,86,14,161,27*54
$BDGSV,2,1,07,205,45,140,32,212,42,145,31,202,29,118,20,208,28,058,*67
$BDGSV,2,2,07,214,26,220,,210,22,076,,211,06,188,*6B
$GPGSA,A,3,05,13,15,17,19,20,24,28,30,,,,2.5,1.4,2.0*32
$GNGSA,A,3,05,13,15,17,19,20,24,28,30,,,,2.5,1.4,2.0*2C
$GNGSA,A,3,65,66,72,75,76,84,85,86,,,,,2.5,1.4,2.0*26
$QZGSA,A,3,,,,,,,,,,,,,2.5,1.4,2.0*2E
$IMGSA,A,3,,,,,,,,,,,,,2.5,1.4,2.0*21
$BDGSA,A,3,,,,,,,,,,,,,2.5,1.4,2.0*23
$GPRMC,065339.00,A,3205.016851,N,03448.137436,E,001.6,,170616,,,A*7A
$GPGGA,065340.00,3205.015993,N,03448.134932,E,1,17,0.8,21.8,M,19.2,M,,*51
$GPGSV,3,1,11,13,73,300,23,17,54,127,41,28,52,031,34,19,37,165,39*75
$GPGSV,3,2,11,15,36,310,39,30,33,081,25,05,18,228,35,20,14,273,27*7A
$GPGSV,3,3,11,24,09,296,15,07,10,096,,11,04,052,*45
$GLGSV,3,1,09,75,47,359,25,65,42,246,33,85,38,108,34,66,26,315,34*6E
$GLGSV,3,2,09,84,25,048,24,74,22,059,29,76,22,294,18,72,17,195,35*67
$GLGSV,3,3,09,86,14,161,29*5A
$BDGSV,2,1,07,205,45,140,32,212,42,145,30,202,29,118,22,208,28,058,*64
$BDGSV,2,2,07,214,26,220,,210,22,076,,211,06,188,*6B
$GPGSA,A,3,05,13,15,17,19,20,24,28,30,,,,2.5,1.4,2.0*32
$GNGSA,A,3,05,13,15,17,19,20,24,28,30,,,,2.5,1.4,2.0*2C
$GNGSA,A,3,65,66,72,75,76,84,85,86,,,,,2.5,1.4,2.0*26
$QZGSA,A,3,,,,,,,,,,,,,2.5,1.4,2.0*2E
$IMGSA,A,3,,,,,,,,,,,,,2.5,1.4,2.0*21
$BDGSA,A,3,,,,,,,,,,,,,2.5,1.4,2.0*23
$GPRMC,065340.00,A,3205.015993,N,03448.134932,E,001.7,,170616,,,A*73
$GPGGA,065341.00,3205.015639,N,03448.134509,E,1,17,1.6,21.8,M,19.2,M,,*54
$GPGSV,3,1,11,13,73,300,23,17,54,127,42,28,52,031,34,19,37,165,41*79
$GPGSV,3,2,11,15,36,310,39,30,33,081,25,05,18,228,36,20,14,273,27*79
$GPGSV,3,3,11,24,09,296,15,07,10,096,,11,04,052,*45
$GLGSV,3,1,09,75,47,359,25,65,42,246,33,85,38,108,34,66,26,315,34*6E
$GLGSV,3,2,09,84,25,048,24,74,22,059,30,76,22,294,19,72,17,195,34*6F
$GLGSV,3,3,09,86,14,161,33*51
$BDGSV,2,1,07,205,45,140,32,212,42,145,33,202,29,118,19,208,28,058,*6F
$BDGSV,2,2,07,214,26,220,,210,22,076,,211,06,188,*6B
$GPGSA,A,3,05,13,15,17,19,20,24,28,30,,,,2.4,1.5,1.9*38
$GNGSA,A,3,05,13,15,17,19,20,24,28,30,,,,2.4,1.5,1.9*26
$GNGSA,A,3,65,66,72,75,76,84,85,86,,,,,2.4,1.5,1.9*2C
$QZGSA,A,3,,,,,,,,,,,,,2.4,1.5,1.9*24
$IMGSA,A,3,,,,,,,,,,,,,2.4,1.5,1.9*2B
$BDGSA,A,3,,,,,,,,,,,,,2.4,1.5,1.9*29
$GPRMC,065341.00,A,3205.015639,N,03448.134509,E,001.3,,170616,,,A*7D
$GPGGA,065342.00,3205.015334,N,03448.133898,E,1,17,1.6,21.9,M,19.2,M,,*5C
$GPGSV,3,1,11,13,73,300,23,17,54,127,41,28,52,031,34,19,37,165,40*7B
$GPGSV,3,2,11,15,36,310,38,30,33,081,25,05,18,228,38,20,14,273,26*77
$GPGSV,3,3,11,24,09,296,15,07,10,096,,11,04,052,*45
$GLGSV,3,1,09,75,47,359,25,65,42,246,32,85,38,108,33,66,26,315,34*68
$GLGSV,3,2,09,84,25,048,24,74,22,059,30,76,22,294,21,72,17,195,34*64
$GLGSV,3,3,09,86,14,161,33*51
$BDGSV,2,1,07,205,45,140,32,212,42,145,36,202,29,118,16,208,28,058,*65
$BDGSV,2,2,07,214,26,220,,210,22,076,,211,06,188,*6B
$GPGSA,A,3,05,13,15,17,19,20,24,28,30,,,,2.4,1.5,1.9*38
$GNGSA,A,3,05,13,15,17,19,20,24,28,30,,,,2.4,1.5,1.9*26
$GNGSA,A,3,65,66,72,75,76,84,85,86,,,,,2.4,1.5,1.9*2C
$QZGSA,A,3,,,,,,,,,,,,,2.4,1.5,1.9*24
$IMGSA,A,3,,,,,,,,,,,,,2.4,1.5,1.9*2B
$BDGSA,A,3,,,,,,,,,,,,,2.4,1.5,1.9*29
$GPRMC,065342.00,A,3205.015334,N,03448.133898,E,001.7,,170616,,,A*70
$GPGGA,065343.00,3205.014710,N,03448.131610,E,1,17,1.2,22.0,M,19.2,M,,*5C
$GPGSV,3,1,11,13,73,299,26,17,54,127,41,28,52,031,34,19,37,165,40*7F
$GPGSV,3,2,11,15,36,310,38,30,33,081,25,05,18,228,37,20,14,273,26*78
$GPGSV,3,3,11,24,09,296,15,07,10,096,,11,04,052,*45
$GLGSV,3,1,09,75,47,359,25,65,42,246,32,85,38,108,32,66,26,315,34*69
$GLGSV,3,2,09,84,25,048,23,74,22,059,30,76,22,294,21,72,17,195,33*64
$GLGSV,3,3,09,86,14,161,33*51
$BDGSV,2,1,07,205,45,140,33,212,42,145,35,202,29,118,11,208,28,058,*60
$BDGSV,2,2,07,214,26,220,,210,22,076,,211,06,188,*6B
$GPGSA,A,3,05,13,15,17,19,20,24,28,30,,,,2.6,1.5,2.1*31
$GNGSA,A,3,05,13,15,17,19,20,24,28,30,,,,2.6,1.5,2.1*2F
$GNGSA,A,3,65,66,72,75,76,84,85,86,,,,,2.6,1.5,2.1*25
$QZGSA,A,3,,,,,,,,,,,,,2.6,1.5,2.1*2D
$IMGSA,A,3,,,,,,,,,,,,,2.6,1.5,2.1*22
$BDGSA,A,3,,,,,,,,,,,,,2.6,1.5,2.1*20
$GPRMC,065343.00,A,3205.014710,N,03448.131610,E,001.4,,170616,,,A*7D
$GPGGA,065344.00,3205.014709,N,03448.131611,E,1,17,1.6,22.2,M,19.2,M,,*54
$GPGSV,3,1,11,13,73,299,27,17,54,127,41,28,52,031,36,19,37,165,43*7F
$GPGSV,3,2,11,15,36,310,37,30,33,081,25,05,18,228,37,20,14,273,25*74
$GPGSV,3,3,11,24,09,296,15,07,10,096,,11,04,052,*45
$GLGSV,3,1,09,75,47,359,25,65,42,246,32,85,38,107,32,66,26,315,34*66
$GLGSV,3,2,09,84,25,048,23,74,22,059,33,76,22,294,20,72,17,195,33*66
$GLGSV,3,3,09,86,14,161,32*50
$BDGSV,2,1,07,205,45,140,36,212,42,145,35,202,29,118,,208,28,058,*65
$BDGSV,2,2,07,214,26,220,,210,22,076,,211,06,188,*6B
$GPGSA,A,3,05,13,15,17,19,20,24,28,30,,,,2.6,1.5,2.1*31
$GNGSA,A,3,05,13,15,17,19,20,24,28,30,,,,2.6,1.5,2.1*2F
$GNGSA,A,3,65,66,72,75,76,84,85,86,,,,,2.6,1.5,2.1*25
$QZGSA,A,3,,,,,,,,,,,,,2.6,1.5,2.1*2D
$IMGSA,A,3,,,,,,,,,,,,,2.6,1.5,2.1*22
$BDGSA,A,3,,,,,,,,,,,,,2.6,1.5,2.1*20
$GPRMC,065344.00,A,3205.014709,N,03448.131611,E,000.6,,170616,,,A*70
$GPGGA,065345.00,3205.014709,N,03448.131611,E,1,17,1.2,22.4,M,19.2,M,,*57
$GPGSV,3,1,11,13,73,299,27,17,54,127,41,28,52,031,37,19,37,165,42*7F
$GPGSV,3,2,11,15,36,310,37,30,33,081,26,05,18,228,36,20,14,273,25*76
$GPGSV,3,3,11,24,09,296,15,07,10,096,,11,04,052,*45
$GLGSV,3,1,09,75,47,359,24,65,42,246,31,85,38,107,31,66,26,315,34*67
$GLGSV,3,2,09,84,25,048,23,74,22,059,33,76,22,294,20,72,17,195,32*67
$GLGSV,3,3,09,86,14,161,32*50
$BDGSV,2,1,07,205,45,140,35,212,42,145,35,202,29,118,,208,28,058,*66
$BDGSV,2,2,07,214,26,220,,210,22,076,,211,06,188,*6B
$GPGSA,A,3,05,13,15,17,19,20,24,28,30,,,,3.0,2.0,2.3*32
$GNGSA,A,3,05,13,15,17,19,20,24,28,30,,,,3.0,2.0,2.3*2C
$GNGSA,A,3,65,66,72,75,76,84,85,86,,,,,3.0,2.0,2.3*26
$QZGSA,A,3,,,,,,,,,,,,,3.0,2.0,2.3*2E
$IMGSA,A,3,,,,,,,,,,,,,3.0,2.0,2.3*21
$BDGSA,A,3,,,,,,,,,,,,,3.0,2.0,2.3*23
$GPRMC,065345.00,A,3205.014709,N,03448.131611,E,000.7,,170616,,,A*70
$GPGGA,065346.00,3205.014709,N,03448.131611,E,1,17,1.6,22.4,M,19.2,M,,*50
$GPGSV,3,1,11,13,73,299,26,17,54,127,41,28,52,031,39,19,37,165,42*70
$GPGSV,3,2,11,15,36,310,36,30,33,081,28,05,18,228,35,20,14,273,26*79
$GPGSV,3,3,11,24,09,296,15,07,10,096,,11,04,052,*45
$GLGSV,3,1,09,75,47,359,24,65,42,246,31,85,38,107,31,66,26,315,34*67
$GLGSV,3,2,09,84,25,048,23,74,22,059,33,76,22,294,19,72,17,195,32*6D
$GLGSV,3,3,09,86,14,161,31*53
$BDGSV,2,1,07,205,45,140,35,212,42,145,35,202,29,118,,208,28,058,*66
$BDGSV,2,2,07,214,26,220,,210,22,076,,211,06,188,*6B
$GPGSA,A,3,05,13,15,17,19,20,24,28,30,,,,2.7,1.8,2.0*3C
$GNGSA,A,3,05,13,15,17,19,20,24,28,30,,,,2.7,1.8,2.0*22
$GNGSA,A,3,65,66,72,75,76,84,85,86,,,,,2.7,1.8,2.0*28
$QZGSA,A,3,,,,,,,,,,,,,2.7,1.8,2.0*20
$IMGSA,A,3,,,,,,,,,,,,,2.7,1.8,2.0*2F
$BDGSA,A,3,,,,,,,,,,,,,2.7,1.8,2.0*2D
$GPRMC,065346.00,A,3205.014709,N,03448.131611,E,000.0,,170616,,,A*74
$GPGGA,065347.00,3205.014709,N,03448.131611,E,1,17,1.2,22.7,M,19.2,M,,*56
$GPGSV,3,1,11,13,73,299,26,17,54,127,40,28,52,031,38,19,37,165,41*73
$GPGSV,3,2,11,15,36,310,36,30,33,081,29,05,18,228,35,20,14,273,28*76
$GPGSV,3,3,11,24,09,296,15,07,10,096,,11,04,052,*45
$GLGSV,3,1,09,75,47,359,24,65,42,246,31,85,38,107,30,66,26,315,34*66
$GLGSV,3,2,09,84,25,048,26,74,22,059,36,76,22,294,19,72,17,195,32*6D
$GLGSV,3,3,09,86,14,161,31*53
$BDGSV,2,1,07,205,45,140,35,212,42,145,35,202,29,118,,208,28,058,*66
$BDGSV,2,2,07,214,26,220,,210,22,076,,211,06,188,*6B
$GPGSA,A,3,05,13,15,17,19,20,24,28,30,,,,2.4,1.5,1.9*38
$GNGSA,A,3,05,13,15,17,19,20,24,28,30,,,,2.4,1.5,1.9*26
$GNGSA,A,3,65,66,72,75,76,84,85,86,,,,,2.4,1.5,1.9*2C
$QZGSA,A,3,,,,,,,,,,,,,2.4,1.5,1.9*24
$IMGSA,A,3,,,,,,,,,,,,,2.4,1.5,1.9*2B
$BDGSA,A,3,,,,,,,,,,,,,2.4,1.5,1.9*29
$GPRMC,065347.00,A,3205.014709,N,03448.131611,E,000.5,,170616,,,A*70
$GPGGA,065348.00,3205.014709,N,03448.131611,E,1,17,1.6,23.1,M,19.2,M,,*5A
$GPGSV,3,1,11,13,73,299,25,17,54,127,40,28,52,031,38,19,37,165,41*70
$GPGSV,3,2,11,15,36,310,36,30,33,081,29,05,18,228,34,20,14,273,28*77
$GPGSV,3,3,11,24,09,296,14,07,10,096,,11,04,052,*44
$GLGSV,3,1,09,75,47,359,24,65,42,246,31,85,38,107,30,66,26,315,34*66
$GLGSV,3,2,09,84,25,048,26,74,22,059,36,76,22,294,18,72,17,195,33*6D
$GLGSV,3,3,09,86,14,161,31*53
$BDGSV,2,1,07,205,45,140,34,212,42,145,34,202,29,118,,208,28,058,*66
$BDGSV,2,2,07,214,26,219,,210,22,076,,211,06,188,*61
$GPGSA,A,3,05,13,15,17,19,20,24,28,30,,,,2.4,1.5,1.9*38
$GNGSA,A,3,05,13,15,17,19,20,24,28,30,,,,2.4,1.5,1.9*26
$GNGSA,A,3,65,66,72,75,76,84,85,86,,,,,2.4,1.5,1.9*2C
$QZGSA,A,3,,,,,,,,,,,,,2.4,1.5,1.9*24
$IMGSA,A,3,,,,,,,,,,,,,2.4,1.5,1.9*2B
$BDGSA,A,3,,,,,,,,,,,,,2.4,1.5,1.9*29
$GPRMC,065348.00,A,3205.014709,N,03448.131611,E,000.7,,170616,,,A*7D
$GPGGA,065349.00,3205.014666,N,03448.132395,E,1,16,1.6,23.5,M,19.2,M,,*5C
$GPGSV,3,1,11,13,73,299,25,17,54,127,40,28,52,031,39,19,37,165,40*70
$GPGSV,3,2,11,15,36,310,36,30,33,081,31,05,18,228,33,20,14,273,28*79
$GPGSV,3,3,11,24,09,296,14,07,10,096,,11,04,052,*44
$GLGSV,3,1,09,75,47,359,24,65,42,246,30,85,38,107,29,66,26,315,34*6F
$GLGSV,3,2,09,84,25,048,26,74,22,059,35,76,22,294,18,72,17,195,33*6E
$GLGSV,3,3,09,86,14,161,31*53
$BDGSV,2,1,07,205,45,140,34,212,42,145,34,208,29,058,,202,29,118,*67
$BDGSV,2,2,07,214,26,219,,210,22,076,,211,06,188,*61
$GPGSA,A,3,05,13,15,17,19,20,24,28,30,,,,2.2,1.4,1.6*30
$GNGSA,A,3,05,13,15,17,19,20,24,28,30,,,,2.2,1.4,1.6*2E
$GNGSA,A,3,65,66,72,75,84,85,86,,,,,,2.2,1.4,1.6*25
$QZGSA,A,3,,,,,,,,,,,,,2.2,1.4,1.6*2C
$IMGSA,A,3,,,,,,,,,,,,,2.2,1.4,1.6*23
$BDGSA,A,3,,,,,,,,,,,,,2.2,1.4,1.6*21
$GPRMC,065349.00,A,3205.014666,N,03448.132395,E,001.9,085.7,170616,,,A*55
$GPGGA,065350.00,3205.014481,N,03448.133208,E,1,15,1.2,24.0,M,19.2,M,,*5E
$GPGSV,3,1,11,13,73,299,24,17,54,127,40,28,52,031,39,19,37,165,40*71
$GPGSV,3,2,11,15,36,310,36,30,33,081,31,05,18,228,32,20,14,273,27*77
$GPGSV,3,3,11,24,09,296,14,07,10,096,,11,04,052,*44
$GLGSV,3,1,09,75,47,359,24,65,42,246,30,85,38,107,29,66,26,315,34*6F
$GLGSV,3,2,09,84,25,048,27,74,22,059,35,76,22,294,17,72,17,195,33*60
$GLGSV,3,3,09,86,14,161,30*52
$BDGSV,2,1,07,205,45,140,34,212,42,145,33,208,29,058,,202,29,118,*60
$BDGSV,2,2,07,214,26,219,,210,22,076,,211,06,188,*61
$GPGSA,A,3,05,13,15,17,19,20,28,30,,,,,2.0,1.2,1.6*32
$GNGSA,A,3,05,13,15,17,19,20,28,30,,,,,2.0,1.2,1.6*2C
$GNGSA,A,3,65,66,72,75,84,85,86,,,,,,2.0,1.2,1.6*21
$QZGSA,A,3,,,,,,,,,,,,,2.0,1.2,1.6*28
$IMGSA,A,3,,,,,,,,,,,,,2.0,1.2,1.6*27
$BDGSA,A,3,,,,,,,,,,,,,2.0,1.2,1.6*25
$GPRMC,065350.00,A,3205.014481,N,03448.133208,E,002.1,085.6,170616,,,A*58
$GPGGA,065351.00,3205.014053,N,03448.133858,E,1,15,1.2,24.7,M,19.2,M,,*5C
$GPGSV,3,1,11,13,73,299,24,17,54,127,40,28,52,031,39,19,37,165,39*7F
$GPGSV,3,2,11,15,36,310,37,30,33,081,30,05,18,228,32,20,14,273,28*78
$GPGSV,3,3,11,24,09,296,14,07,10,096,,11,04,052,*44
$GLGSV,3,1,09,75,47,359,24,65,42,246,30,85,38,107,29,66,26,315,34*6F
$GLGSV,3,2,09,84,25,048,30,74,22,059,34,76,22,294,16,72,17,195,35*60
$GLGSV,3,3,09,86,14,161,29*5A
$BDGSV,2,1,07,205,45,140,34,212,42,145,33,208,29,058,,202,29,118,*60
$BDGSV,2,2,07,214,26,219,,210,22,076,,211,06,188,*61
$GPGSA,A,3,05,13,15,17,19,20,28,30,,,,,2.7,1.9,1.8*30
$GNGSA,A,3,05,13,15,17,19,20,28,30,,,,,2.7,1.9,1.8*2E
$GNGSA,A,3,65,66,72,75,84,85,86,,,,,,2.7,1.9,1.8*23
$QZGSA,A,3,,,,,,,,,,,,,2.7,1.9,1.8*2A
$IMGSA,A,3,,,,,,,,,,,,,2.7,1.9,1.8*25
$BDGSA,A,3,,,,,,,,,,,,,2.7,1.9,1.8*27
$GPRMC,065351.00,A,3205.014053,N,03448.133858,E,002.1,089.0,170616,,,A*57
$GPGGA,065352.00,3205.013608,N,03448.134574,E,1,15,1.2,25.3,M,19.2,M,,*51
$GPGSV,3,1,11,13,73,299,24,17,54,127,40,28,52,031,39,19,37,165,39*7F
$GPGSV,3,2,11,15,36,310,39,30,33,081,30,05,18,228,31,20,14,273,28*75
$GPGSV,3,3,11,24,09,296,14,07,10,096,,11,04,052,*44
$GLGSV,3,1,09,75,47,359,23,65,42,246,30,85,38,107,29,66,26,315,34*68
$GLGSV,3,2,09,84,25,048,32,74,22,059,34,76,22,295,16,72,17,195,35*63
$GLGSV,3,3,09,86,14,161,28*5B
$BDGSV,2,1,07,205,45,140,34,212,42,145,33,208,29,058,,202,29,118,*60
$BDGSV,2,2,07,214,26,219,,210,22,076,,211,06,188,*61
$GPGSA,A,3,05,13,15,17,19,20,28,30,,,,,2.0,1.2,1.6*32
$GNGSA,A,3,05,13,15,17,19,20,28,30,,,,,2.0,1.2,1.6*2C
$GNGSA,A,3,65,66,72,75,84,85,86,,,,,,2.0,1.2,1.6*21
$QZGSA,A,3,,,,,,,,,,,,,2.0,1.2,1.6*28
$IMGSA,A,3,,,,,,,,,,,,,2.0,1.2,1.6*27
$BDGSA,A,3,,,,,,,,,,,,,2.0,1.2,1.6*25
$GPRMC,065352.00,A,3205.013608,N,03448.134574,E,002.3,081.1,170616,,,A*54
$GPGGA,065353.00,3205.013196,N,03448.135157,E,1,15,1.6,26.0,M,19.2,M,,*50
$GPGSV,3,1,11,13,73,299,24,17,54,126,39,28,52,031,39,19,37,165,38*71
$GPGSV,3,2,11,15,36,310,39,30,33,081,30,05,18,228,31,20,14,273,29*74
$GPGSV,3,3,11,24,09,296,13,07,10,096,,11,04,052,*43
$GLGSV,3,1,09,75,47,359,23,65,42,246,29,85,38,107,32,66,26,315,33*6D
$GLGSV,3,2,09,84,25,048,32,74,22,059,33,76,22,295,15,72,17,195,35*67
$GLGSV,3,3,09,86,14,161,28*5B
$BDGSV,2,1,07,205,45,140,34,212,42,145,32,208,29,058,,202,29,118,*61
$BDGSV,2,2,07,214,26,219,,210,22,076,,211,06,188,*61
$GPGSA,A,3,05,13,15,17,19,20,28,30,,,,,2.1,1.3,1.6*32
$GNGSA,A,3,05,13,15,17,19,20,28,30,,,,,2.1,1.3,1.6*2C
$GNGSA,A,3,65,66,72,75,84,85,86,,,,,,2.1,1.3,1.6*21
$QZGSA,A,3,,,,,,,,,,,,,2.1,1.3,1.6*28
$IMGSA,A,3,,,,,,,,,,,,,2.1,1.3,1.6*27
$BDGSA,A,3,,,,,,,,,,,,,2.1,1.3,1.6*25
$GPRMC,065353.00,A,3205.013196,N,03448.135157,E,002.2,085.4,170616,,,A*51
$GPGGA,065354.00,3205.012795,N,03448.135792,E,1,15,0.8,26.6,M,19.2,M,,*55
$GPGSV,3,1,11,13,73,299,25,17,54,126,40,28,52,031,38,19,37,165,38*7F
$GPGSV,3,2,11,15,36,310,39,30,33,081,29,05,18,228,31,20,14,273,30*74
$GPGSV,3,3,11,24,09,296,13,07,10,096,,11,04,052,*43
$GLGSV,3,1,09,75,47,359,23,65,42,246,29,85,38,107,33,66,26,315,33*6C
$GLGSV,3,2,09,84,25,048,32,74,22,059,34,76,22,295,15,72,17,195,35*60
$GLGSV,3,3,09,86,14,161,27*54
$BDGSV,2,1,07,205,45,140,34,212,42,145,32,208,29,058,,202,29,118,*61
$BDGSV,2,2,07,214,26,219,,210,22,076,,211,06,188,*61
$GPGSA,A,3,05,13,15,17,19,20,28,30,,,,,2.4,1.6,1.8*3C
$GNGSA,A,3,05,13,15,17,19,20,28,30,,,,,2.4,1.6,1.8*22
$GNGSA,A,3,65,66,72,75,84,85,86,,,,,,2.4,1.6,1.8*2F
$QZGSA,A,3,,,,,,,,,,,,,2.4,1.6,1.8*26
$IMGSA,A,3,,,,,,,,,,,,,2.4,1.6,1.8*29
$BDGSA,A,3,,,,,,,,,,,,,2.4,1.6,1.8*2B
$GPRMC,065354.00,A,3205.012795,N,03448.135792,E,002.1,088.5,170616,,,A*52
$GPGGA,065355.00,3205.012481,N,03448.136255,E,1,16,2.4,27.2,M,19.2,M,,*57
$GPGSV,3,1,11,13,73,299,25,17,54,126,41,28,52,031,38,19,37,165,37*71
$GPGSV,3,2,11,15,36,310,39,30,33,081,29,05,18,228,31,20,14,273,31*75
$GPGSV,3,3,11,24,09,296,13,07,10,096,,11,04,052,*43
$GLGSV,3,1,09,75,47,359,24,65,42,246,29,85,38,107,35,66,26,315,33*6D
$GLGSV,3,2,09,84,25,048,32,74,22,059,33,76,22,295,15,72,17,195,35*67
$GLGSV,3,3,09,86,14,161,27*54
$BDGSV,2,1,07,205,45,140,34,212,42,145,32,208,29,058,,202,29,118,*61
$BDGSV,2,2,07,214,26,219,,210,22,076,,211,06,188,*61
$GPGSA,A,3,05,13,15,17,19,20,28,30,,,,,2.1,1.3,1.7*33
$GNGSA,A,3,05,13,15,17,19,20,28,30,,,,,2.1,1.3,1.7*2D
$GNGSA,A,3,65,66,72,75,76,84,85,86,,,,,2.1,1.3,1.7*21
$QZGSA,A,3,,,,,,,,,,,,,2.1,1.3,1.7*29
$IMGSA,A,3,,,,,,,,,,,,,2.1,1.3,1.7*26
$BDGSA,A,3,,,,,,,,,,,,,2.1,1.3,1.7*24
$GPRMC,065355.00,A,3205.012481,N,03448.136255,E,001.2,088.5,170616,,,A*58
$GPGGA,065356.00,3205.012234,N,03448.138025,E,1,16,1.2,27.3,M,19.2,M,,*53
$GPGSV,3,1,11,13,73,299,25,17,54,126,40,28,52,031,38,19,37,165,37*70
$GPGSV,3,2,11,15,36,310,38,30,33,081,29,05,18,228,31,20,14,273,31*74
$GPGSV,3,3,11,24,09,296,13,07,10,096,,11,04,052,*43
$GLGSV,3,1,09,75,47,359,25,65,42,246,29,85,38,107,35,66,26,315,32*6D
$GLGSV,3,2,09,84,25,048,34,74,22,059,33,76,22,295,14,72,17,195,35*60
$GLGSV,3,3,09,86,14,161,26*55
$BDGSV,2,1,07,205,45,140,33,212,42,145,31,208,29,058,,202,29,118,*65
$BDGSV,2,2,07,214,26,219,,210,22,076,,211,06,188,*61
$GPGSA,A,3,05,13,15,17,19,20,28,30,,,,,2.8,2.0,1.9*34
$GNGSA,A,3,05,13,15,17,19,20,28,30,,,,,2.8,2.0,1.9*2A
$GNGSA,A,3,65,66,72,75,76,84,85,86,,,,,2.8,2.0,1.9*26
$QZGSA,A,3,,,,,,,,,,,,,2.8,2.0,1.9*2E
$IMGSA,A,3,,,,,,,,,,,,,2.8,2.0,1.9*21
$BDGSA,A,3,,,,,,,,,,,,,2.8,2.0,1.9*23
$GPRMC,065356.00,A,3205.012234,N,03448.138025,E,000.0,088.5,170616,,,A*5B
$GPGGA,065357.00,3205.012174,N,03448.139976,E,1,16,1.2,27.3,M,19.2,M,,*5B
$GPGSV,3,1,11,13,73,299,24,17,54,126,40,28,52,031,37,19,37,165,36*7F
$GPGSV,3,2,11,15,36,310,38,30,33,081,29,05,18,228,31,20,14,273,31*74
$GPGSV,3,3,11,24,09,296,13,07,10,096,,11,04,052,*43
$GLGSV,3,1,09,75,47,359,25,65,42,246,28,85,38,107,34,66,26,315,32*6D
$GLGSV,3,2,09,84,25,048,34,74,22,059,33,76,22,295,14,72,17,195,35*60
$GLGSV,3,3,09,86,14,161,26*55
$BDGSV,2,1,07,205,45,140,33,212,42,145,31,208,29,058,,202,29,118,*65
$BDGSV,2,2,07,214,26,219,,210,22,076,,211,06,188,*61
$GPGSA,A,3,05,13,15,17,19,20,28,30,,,,,2.1,1.3,1.6*32
$GNGSA,A,3,05,13,15,17,19,20,28,30,,,,,2.1,1.3,1.6*2C
$GNGSA,A,3,65,66,72,75,76,84,85,86,,,,,2.1,1.3,1.6*20
$QZGSA,A,3,,,,,,,,,,,,,2.1,1.3,1.6*28
$IMGSA,A,3,,,,,,,,,,,,,2.1,1.3,1.6*27
$BDGSA,A,3,,,,,,,,,,,,,2.1,1.3,1.6*25
$GPRMC,065357.00,A,3205.012174,N,03448.139976,E,000.0,088.5,170616,,,A*53
$GPGGA,065358.00,3205.012031,N,03448.142612,E,1,16,1.6,27.7,M,19.2,M,,*55
$GPGSV,3,1,11,13,73,299,24,17,54,126,40,28,52,031,37,19,37,165,35*7C
$GPGSV,3,2,11,15,36,310,38,30,33,081,29,05,18,228,31,20,14,273,30*75
$GPGSV,3,3,11,24,09,296,12,07,10,096,,11,04,052,*42
$GLGSV,3,1,09,75,47,000,26,65,42,246,28,85,38,107,36,66,26,315,31*60
$GLGSV,3,2,09,84,25,048,34,74,22,059,32,76,22,295,14,72,17,195,35*61
$GLGSV,3,3,09,86,14,161,25*56
$BDGSV,2,1,07,205,45,140,33,212,42,145,30,208,29,058,,202,29,118,*64
$BDGSV,2,2,07,214,26,219,,210,22,076,,211,06,188,*61
$GPGSA,A,3,05,13,15,17,19,20,28,30,,,,,1.9,1.2,1.5*3B
$GNGSA,A,3,05,13,15,17,19,20,28,30,,,,,1.9,1.2,1.5*25
$GNGSA,A,3,65,66,72,75,76,84,85,86,,,,,1.9,1.2,1.5*29
$QZGSA,A,3,,,,,,,,,,,,,1.9,1.2,1.5*21
$IMGSA,A,3,,,,,,,,,,,,,1.9,1.2,1.5*2E
$BDGSA,A,3,,,,,,,,,,,,,1.9,1.2,1.5*2C
$GPRMC,065358.00,A,3205.012031,N,03448.142612,E,002.0,086.9,170616,,,A*5D
$GPGGA,065359.00,3205.011763,N,03448.143397,E,1,16,0.8,28.0,M,19.2,M,,*59
$GPGSV,3,1,11,13,73,299,24,17,54,126,39,28,52,031,38,19,37,165,34*7C
$GPGSV,3,2,11,15,36,310,39,30,33,081,29,05,18,228,30,20,14,273,30*75
$GPGSV,3,3,11,24,09,296,12,07,10,096,,11,04,052,*42
$GLGSV,3,1,09,75,47,000,26,65,42,246,28,85,38,107,36,66,26,315,31*60
$GLGSV,3,2,09,84,25,048,33,74,22,059,32,76,22,295,14,72,17,195,34*67
$GLGSV,3,3,09,86,14,161,25*56
$BDGSV,2,1,07,205,45,140,32,212,42,145,30,208,29,058,,202,29,118,*65
$BDGSV,2,2,07,214,26,219,,210,22,076,,211,06,188,*61
$GPGSA,A,3,05,13,15,17,19,20,28,30,,,,,2.1,1.3,1.6*32
$GNGSA,A,3,05,13,15,17,19,20,28,30,,,,,2.1,1.3,1.6*2C
$GNGSA,A,3,65,66,72,75,76,84,85,86,,,,,2.1,1.3,1.6*20
$QZGSA,A,3,,,,,,,,,,,,,2.1,1.3,1.6*28
$IMGSA,A,3,,,,,,,,,,,,,2.1,1.3,1.6*27
$BDGSA,A,3,,,,,,,,,,,,,2.1,1.3,1.6*25
$GPRMC,065359.00,A,3205.011763,N,03448.143397,E,002.0,085.6,170616,,,A*5A
$GPGGA,065400.00,3205.011545,N,03448.144245,E,1,16,0.8,28.3,M,19.2,M,,*5E
$GPGSV,3,1,11,13,73,299,24,17,54,126,39,28,52,031,38,19,37,165,33*7B
$GPGSV,3,2,11,15,36,310,39,30,33,081,31,05,18,228,29,20,14,273,30*74
$GPGSV,3,3,11,24,09,296,12,07,10,096,,11,04,052,*42
$GLGSV,3,1,09,75,47,000,28,65,42,246,28,85,38,107,35,66,26,315,30*6C
$GLGSV,3,2,09,84,25,048,33,74,22,059,32,76,22,295,14,72,17,195,34*67
$GLGSV,3,3,09,86,14,161,24*57
$BDGSV,2,1,07,205,45,140,31,212,42,145,29,208,29,058,,202,29,118,*6E
$BDGSV,2,2,07,214,26,219,,210,22,076,,211,06,188,*61
$GPGSA,A,3,05,13,15,17,19,20,28,30,,,,,2.3,1.4,1.8*39
$GNGSA,A,3,05,13,15,17,19,20,28,30,,,,,2.3,1.4,1.8*27
$GNGSA,A,3,65,66,72,75,76,84,85,86,,,,,2.3,1.4,1.8*2B
$QZGSA,A,3,,,,,,,,,,,,,2.3,1.4,1.8*23
$IMGSA,A,3,,,,,,,,,,,,,2.3,1.4,1.8*2C
$BDGSA,A,3,,,,,,,,,,,,,2.3,1.4,1.8*2E
$GPRMC,065400.00,A,3205.011545,N,03448.144245,E,002.1,084.4,170616,,,A*5C
$GPGGA,065401.00,3205.011264,N,03448.144370,E,1,16,0.8,28.3,M,19.2,M,,*5C
$GPGSV,3,1,11,13,73,299,24,17,54,126,39,28,52,031,38,19,37,165,33*7B
$GPGSV,3,2,11,15,36,310,38,30,33,081,31,05,18,228,29,20,14,273,30*75
$GPGSV,3,3,11,24,09,296,12,07,10,096,,11,04,052,*42
$GLGSV,3,1,09,75,47,000,28,65,42,246,28,85,38,107,35,66,26,315,30*6C
$GLGSV,3,2,09,84,25,048,33,74,22,059,32,76,22,295,14,72,17,195,34*67
$GLGSV,3,3,09,86,14,161,24*57
$BDGSV,2,1,07,205,45,140,31,212,42,145,28,208,29,058,,202,29,118,*6F
$BDGSV,2,2,07,214,26,219,,210,22,076,,211,06,188,*61
$GPGSA,A,3,05,13,15,17,19,20,28,30,,,,,2.3,1.5,1.7*37
$GNGSA,A,3,05,13,15,17,19,20,28,30,,,,,2.3,1.5,1.7*29
$GNGSA,A,3,65,66,72,75,76,84,85,86,,,,,2.3,1.5,1.7*25
$QZGSA,A,3,,,,,,,,,,,,,2.3,1.5,1.7*2D
$IMGSA,A,3,,,,,,,,,,,,,2.3,1.5,1.7*22
$BDGSA,A,3,,,,,,,,,,,,,2.3,1.5,1.7*20
